run_id,run_label,route_id,route_index,repetition_index,town,frame,timestamp,controller,controller_mode,controller_compute_time_ms,controller_status,controller_fallback,longitudinal_controller_compute_time_ms,longitudinal_controller_status,longitudinal_controller_fallback,longitudinal_accel_cmd_mps2,maneuver_state,waiting_left_reason,speed_mps,speed_kph,target_speed_mps,target_speed_kph,speed_error_mps,steer,throttle,brake,x,y,z,yaw_deg,pitch_deg,roll_deg,velocity_x,velocity_y,velocity_z,accel_x,accel_y,accel_z,longitudinal_accel_mps2,lateral_accel_mps2,yaw_rate_dps,road_id,lane_id,target_lane_id,target_lane_lateral_error_m,target_lane_heading_error_deg,target_lane_progress,overtake_origin_lane_id,is_junction,front_distance_m,front_distance_margin_m,front_dynamic_stop_distance_m,front_dynamic_emergency_distance_m,front_dynamic_margin_m,front_ttc_s,front_closing_speed_mps,front_radar_point_count,front_radar_mean_abs_azimuth_rad,front_radar_anchor_azimuth_rad,front_relative_longitudinal_m,front_relative_lateral_m,front_relative_lateral_abs_m,front_blocked,rear_distance_m,rear_approach_distance_m,rear_approach_speed_mps,rear_closing_speed_mps,rear_approach_ttc_s,rear_approach_mode,rear_lane_releasing,left_oncoming_detected,left_oncoming_confidence,left_oncoming_label,lateral_error_m,heading_error_deg,blocked_vehicle,rejoin_lane_clear,safety_override,safety_override_reason,requested_brake,emergency_brake,steer_saturated,front_collision_risk
20260629T105148Z_pid_ac2b5dc7,pid,RouteScenario_1_rep0,0,0,Town12,38188,0.05000000074505806,basic_agent,basic_agent,21.029024035669863,basic_agent_pid,0,21.029024035669863,basic_agent_longitudinal,0,0.0,follow_lane,clear,0.0002403607687238863,0.0008652987674059907,5.555555555555555,20.0,5.555315194786831,2.3945547582115978e-05,0.75,0.0,1199.9569091796875,-82.53407287597656,342.9453125,-0.0316467247903347,0.6043487787246704,-0.01141357421875,-0.0012569221435114741,0.0003848605847451836,0.1419672667980194,0.006495767738670111,-0.001741292653605342,-0.6099972128868103,6.231119299404321e-05,-0.0018592255204329415,-0.00019101999350823462,94,1,1,,,,,0,18.909374237060547,13.909374237060547,2.3,2.3,16.609374237060546,,0.005214397795498371,1,0.0523509681224823,-0.0523509681224823,18.883468627929688,-0.989471971988678,0.989471971988678,0,16.217891693115234,,,,,none,0,0,,,-4.5776359002047684e-05,-3.0513852834701538e-05,0,0,0,,0.0,0,0,0
20260629T105148Z_pid_ac2b5dc7,pid,RouteScenario_1_rep0,0,0,Town12,38189,0.10000000149011612,basic_agent,basic_agent,2.2244020365178585,basic_agent_pid,0,2.2244020365178585,basic_agent_longitudinal,0,0.0,follow_lane,clear,0.00020060695886280582,0.0007221850519061009,5.555555555555555,20.0,5.555354948596692,4.3555810407269746e-05,0.75,0.0,1199.9569091796875,-82.53408813476562,342.9515686035156,-0.0316162109375,0.6022518873214722,-0.00994872860610485,-0.0010052615543827415,0.0002640727034304291,0.11473207175731659,0.005033211782574654,-0.0024157576262950897,-0.5447039008140564,-0.0006911629687509063,-0.0025075651270060305,-0.00010829151869984344,94,1,1,,,,,0,13.40117359161377,8.40117359161377,2.3,2.3,11.101173591613769,,0.007398346904665232,2,0.09616957604885101,0.06398129463195801,13.373753547668457,0.8568395376205444,0.8568395376205444,0,10.720157623291016,,,,,none,0,0,,,-6.103514533606358e-05,0.0,0,0,0,,0.0,0,0,0
20260629T105148Z_pid_ac2b5dc7,pid,RouteScenario_1_rep0,0,0,Town12,38190,0.15000000223517418,basic_agent,basic_agent,2.032653021160513,basic_agent_pid,0,2.032653021160513,basic_agent_longitudinal,0,0.0,follow_lane,clear,0.000124128940549137,0.00044686418597689317,5.555555555555555,20.0,5.555431426615006,6.453601235989481e-05,0.75,0.0,1199.9569091796875,-82.53411102294922,342.95660400390625,-0.0316162072122097,0.6007082462310791,-0.007965086959302425,-0.0008328897529281676,0.00015812748461030424,0.09128642082214355,0.0034474360290914774,-0.0021189043764024973,-0.4689130187034607,-0.0014677369722184306,-0.0021821899982475295,-0.00016391879762522876,94,1,1,,,,,0,12.27054214477539,7.270542144775391,2.3,2.3,9.97054214477539,,0.006237731780856848,2,0.07193650305271149,0.065264493227005,12.24441909790039,0.8002623319625854,0.8002623319625854,0,9.739411354064941,,,,,none,0,0,,,-8.392332483708742e-05,3.725290298461914e-09,0,0,0,,0.0,0,0,0
20260629T105148Z_pid_ac2b5dc7,pid,RouteScenario_1_rep0,0,0,Town12,38191,0.20000000298023224,basic_agent,basic_agent,2.1516859997063875,basic_agent_pid,0,2.1516859997063875,basic_agent_longitudinal,0,0.0,follow_lane,clear,7.947719852067264e-05,0.0002861179146744215,5.555555555555555,20.0,5.555476078357034,4.987815918866545e-05,0.75,0.0,1199.9569091796875,-82.53411865234375,342.96051025390625,-0.0315856896340847,0.5995266437530518,-0.006469725631177425,-0.0006725884159095585,0.0001914402237161994,0.07188154757022858,0.003206026740372181,0.0006662547821179032,-0.38809746503829956,-0.0008553831798592021,0.0006241974766186279,-8.284592331619933e-05,94,1,1,,,,,0,20.847064971923828,15.847064971923828,2.3,2.3,18.547064971923827,,0.0027908277697861195,3,0.15048159658908844,0.15712793171405792,20.590246200561523,3.2621941566467285,3.2621941566467285,0,18.070873260498047,,,,,none,0,0,,,-9.155271800409537e-05,3.052130341529846e-05,0,0,0,,0.0,0,0,0
20260629T105148Z_pid_ac2b5dc7,pid,RouteScenario_1_rep0,0,0,Town12,38192,0.2500000037252903,basic_agent,basic_agent,2.5618260260671377,basic_agent_pid,0,2.5618260260671377,basic_agent_longitudinal,0,0.0,follow_lane,clear,7.019261481901675e-05,0.0002526934133484603,5.555555555555555,20.0,5.555485362940736,5.579122080234811e-05,0.75,0.0,1199.9569091796875,-82.53412628173828,342.963623046875,-0.0315856896340847,0.5984953045845032,-0.005767821334302425,-0.0005101065034978092,0.00010881463822443038,0.05555788427591324,0.0032496382482349873,-0.0016525117680430412,-0.32647326588630676,-0.00015981296141052997,-0.0016835868925525763,1.8224514860776253e-05,94,1,1,,,,,0,13.397323608398438,8.397323608398438,2.3,2.3,11.097323608398437,,0.004077730234712362,1,0.010383903980255127,0.010383903980255127,13.396601676940918,0.13911402225494385,0.13911402225494385,0,10.593972206115723,,,,,none,0,0,,,-9.918211117110332e-05,3.052130341529846e-05,0,0,0,,0.0,0,0,0
20260629T105148Z_pid_ac2b5dc7,pid,RouteScenario_1_rep0,0,0,Town12,38193,0.30000000447034836,basic_agent,basic_agent,2.7381760301068425,basic_agent_pid,0,2.7381760301068425,basic_agent_longitudinal,0,0.0,follow_lane,clear,3.309391195722518e-05,0.00011913808304601064,5.555555555555555,20.0,5.555522461643598,7.093851309036836e-05,0.75,0.0,1199.9569091796875,-82.53414154052734,342.9660339355469,-0.0315856896340847,0.5976278781890869,-0.004974364768713713,-0.0004066967812832445,0.000156838636030443,0.04217053949832916,0.0020681945607066154,0.0009604799561202526,-0.2677468955516815,-0.0007251511165638264,0.0009383737899028169,1.5825928130652755e-05,94,1,1,,,,,0,12.482498168945312,7.4824981689453125,2.3,2.3,10.182498168945312,,0.0033682321663945913,2,0.08187352120876312,0.07121483981609344,12.450859069824219,0.8881879448890686,0.8881879448890686,0,9.907390594482422,,,,,none,0,0,,,-0.00011444089750511921,3.052130341529846e-05,0,0,0,,0.0,0,0,0
20260629T105148Z_pid_ac2b5dc7,pid,RouteScenario_1_rep0,0,0,Town12,38194,0.3500000052154064,basic_agent,basic_agent,3.3361079986207187,basic_agent_pid,0,3.3361079986207187,basic_agent_longitudinal,0,0.0,follow_lane,clear,5.665242762685124e-05,0.00020394873945666446,5.555555555555555,20.0,5.555498903127929,5.2571853302652016e-05,0.75,0.0,1199.9569091796875,-82.53414154052734,342.96783447265625,-0.0315551720559597,0.5968902111053467,-0.004333495162427425,-0.00028094573644921184,-3.1272466003429145e-06,0.03240516409277916,0.0025150207802653313,-0.0031993177253752947,-0.19530750811100006,0.0004820275689002517,-0.0032127050482303955,0.00011751092097256333,94,1,1,,,,,0,14.573840141296387,9.573840141296387,2.3,2.3,12.273840141296386,,0.0019595345947891474,3,0.08808499574661255,0.12459619343280792,14.46086311340332,1.8111504316329956,1.8111504316329956,0,11.85059928894043,,,,,none,0,0,,,-0.00011444089750511921,6.103888154029846e-05,0,0,0,,0.0,0,0,0
20260629T105148Z_pid_ac2b5dc7,pid,RouteScenario_1_rep0,0,0,Town12,38195,0.4000000059604645,basic_agent,basic_agent,2.8618969954550266,basic_agent_pid,0,2.8618969954550266,basic_agent_longitudinal,0,0.0,follow_lane,clear,3.335496422821673e-05,0.00012007787122158023,5.555555555555555,20.0,5.555522200591327,6.613255391130224e-05,0.75,0.0,1199.9569091796875,-82.53414916992188,342.96923828125,-0.0315551795065403,0.5962276458740234,-0.003936767112463713,-0.0002272278070449829,0.00016744004096835852,0.025049390271306038,0.0010743585880845785,0.0034113458823412657,-0.14711546897888184,-0.0004584542584007977,0.003401828508391209,2.4693808882148005e-05,94,1,1,,,,,0,14.461148262023926,9.461148262023926,2.3,2.3,12.161148262023925,,0.0016719914274290204,1,0.09690721333026886,-0.09690721333026886,14.393299102783203,-1.3991972208023071,1.3991972208023071,0,11.914008140563965,,,,,none,0,0,,,-0.00012207029067212716,6.103143095970154e-05,0,0,0,,0.0,0,0,0
20260629T105148Z_pid_ac2b5dc7,pid,RouteScenario_1_rep0,0,0,Town12,38196,0.45000000670552254,basic_agent,basic_agent,2.5488819810561836,basic_agent_pid,0,2.5488819810561836,basic_agent_longitudinal,0,0.0,follow_lane,clear,5.0693785780303954e-05,0.00018249762880909423,5.555555555555555,20.0,5.555504861769775,6.99312804499641e-05,0.75,0.0,1199.9569091796875,-82.5341567993164,342.9703063964844,-0.0315551720559597,0.595565140247345,-0.0026245112530887127,-0.0001500555081292987,7.535316399298608e-05,0.019316453486680984,0.0015434459783136845,-0.0018417375395074487,-0.11465873569250107,0.00035256956809630465,-0.001846139721078553,-0.00015255714242812246,94,1,1,,,,,0,12.759074211120605,7.7590742111206055,2.3000382649978213,2.3000382674198527,10.459035943700753,,-0.0001913101878017187,3,0.05614146590232849,0.04074866324663162,12.748482704162598,0.5197713375091553,0.5197713375091553,0,10.088338851928711,,,,,none,0,0,,,-0.0001296996838391351,6.103888154029846e-05,0,0,0,,0.0,0,0,0
20260629T105148Z_pid_ac2b5dc7,pid,RouteScenario_1_rep0,0,0,Town12,38197,0.5000000074505806,basic_agent,basic_agent,2.534685016144067,basic_agent_pid,0,2.534685016144067,basic_agent_longitudinal,0,0.0,follow_lane,clear,-5.212133744836844e-06,-1.876368148141264e-05,5.555555555555555,20.0,5.5555607676893,6.237884372239932e-05,0.75,0.0,1199.9569091796875,-82.5341567993164,342.97113037109375,-0.0315551795065403,0.5953260660171509,-0.0027465822640806437,-0.00015567279479000717,-0.00015854625962674618,0.014471784234046936,-0.00011234573321416974,-0.004677988588809967,-0.09689338505268097,-0.0011165063072340413,-0.004682694087831539,0.00026275654090568423,94,1,1,,,,,0,12.506925582885742,7.506925582885742,2.3,2.3,10.206925582885741,,0.001179313287138939,1,0.12051565200090408,0.12051565200090408,12.416210174560547,1.5036343336105347,1.5036343336105347,0,10.0048828125,,,,,none,0,0,,,-0.0001296996838391351,6.103143095970154e-05,0,0,0,,0.0,0,0,0
20260629T105148Z_pid_ac2b5dc7,pid,RouteScenario_1_rep0,0,0,Town12,38198,0.5500000081956387,basic_agent,basic_agent,2.31368001550436,basic_agent_pid,0,2.31368001550436,basic_agent_longitudinal,0,0.0,follow_lane,clear,-4.189729755302604e-08,-1.5083027119089374e-07,5.555555555555555,20.0,5.5555555974528525,6.242630479391664e-05,0.75,0.0,1199.9569091796875,-82.5341567993164,342.9717102050781,-0.03155517578125,0.5952919125556946,-0.0026550290640443563,-0.00011199302389286458,0.00012562403571791947,0.010781364515423775,0.0008735954179428518,0.005683405790477991,-0.07380839437246323,0.00010357723854250204,0.005680465456723017,-8.636002894490957e-05,94,1,1,,,,,0,14.048158645629883,9.048158645629883,2.3,2.3,11.748158645629882,,0.0007421622867695987,1,0.1276174783706665,0.1276174783706665,13.933917999267578,1.7879282236099243,1.7879282236099243,0,10.714261054992676,,,,,none,0,0,,,-0.0001296996838391351,6.103515625e-05,0,0,0,,0.0,0,0,0
20260629T105148Z_pid_ac2b5dc7,pid,RouteScenario_1_rep0,0,0,Town12,38199,0.6000000089406967,basic_agent,basic_agent,2.4358289665542543,basic_agent_pid,0,2.4358289665542543,basic_agent_longitudinal,0,0.0,follow_lane,clear,8.663879566033653e-06,3.118996643772115e-05,5.555555555555555,20.0,5.55554689167599,7.065552927087992e-05,0.75,0.0,1199.9569091796875,-82.53416442871094,342.9721374511719,-0.031524658203125,0.5950596928596497,-0.0020141599234193563,-7.390558312181383e-05,6.989348912611604e-05,0.007953724823892117,0.000761748815421015,-0.0011146109318360686,-0.05655279383063316,0.00017498813517635887,-0.001116179823613079,-0.0001311686064582318,94,1,1,,,,,0,12.78532886505127,7.7853288650512695,2.3,2.3,10.485328865051269,,0.000548491021618247,1,0.034021370112895966,0.034021370112895966,12.777931213378906,0.434890478849411,0.434890478849411,0,10.096125602722168,,,,,none,0,0,,,-0.00013732907700614305,9.1552734375e-05,0,0,0,,0.0,0,0,0
20260629T105148Z_pid_ac2b5dc7,pid,RouteScenario_1_rep0,0,0,Town12,38200,0.6500000096857548,basic_agent,basic_agent,2.2099550114944577,basic_agent_pid,0,2.2099550114944577,basic_agent_longitudinal,0,0.0,follow_lane,clear,0.09941547476781878,0.35789570916414765,5.555555555555555,20.0,5.456140080787737,7.711182115599513e-05,0.75,0.0,1199.9578857421875,-82.53416442871094,342.9725341796875,-0.0316467247903347,0.6006126403808594,-0.0014343260554596782,0.0993502214550972,-9.880797733785585e-05,0.006741962395608425,1.9884824752807617,-0.0033740291837602854,-0.024235248565673828,1.988120659792252,-0.002276839532632997,0.000400919234380126,94,1,1,,,,,0,12.958428382873535,7.958428382873535,2.3036019793597347,2.3036231370265714,10.654805245846964,724.7199994499756,-0.017880599945783615,2,0.02842980995774269,0.005181855987757444,12.95825481414795,0.06714840978384018,0.06714840978384018,0,10.175834655761719,,,,,none,0,0,,,-0.00013732907700614305,-3.0513852834701538e-05,0,0,0,,0.0,0,0,0
20260629T105148Z_pid_ac2b5dc7,pid,RouteScenario_1_rep0,0,0,Town12,38201,0.7000000104308128,basic_agent,basic_agent,2.5638589868322015,basic_agent_pid,0,2.5638589868322015,basic_agent_longitudinal,0,0.0,follow_lane,clear,0.5099503697927628,1.835821331253946,5.555555555555555,20.0,5.045605185762793,0.0008932357304729521,0.75,0.0,1199.9761962890625,-82.53419494628906,342.97259521484375,-0.0392761155962944,0.6789754033088684,-9.155274165095761e-05,0.5098885297775269,-0.0008215897250920534,0.008202333003282547,8.210765838623047,-0.014455635100603104,0.029207412153482437,8.210543386816713,-0.008827281038257064,-0.3314347267150879,94,1,1,,,,,0,13.87447452545166,8.87447452545166,2.37554794696042,2.382882541365137,11.491591984086522,41.675449527197934,-0.3329172134399414,1,0.057895999401807785,-0.057895999401807785,13.851227760314941,-0.8028278946876526,0.8028278946876526,0,10.911165237426758,,,,,none,0,0,,,-0.0001602172565071669,-0.007659904658794403,0,0,0,,0.0,0,0,0
20260629T105148Z_pid_ac2b5dc7,pid,RouteScenario_1_rep0,0,0,Town12,38202,0.7500000111758709,basic_agent,basic_agent,1.9806349882856011,basic_agent_pid,0,1.9806349882856011,basic_agent_longitudinal,0,0.0,follow_lane,clear,0.7282263697944528,2.62161493126003,5.555555555555555,20.0,4.827329185761102,0.0007463734364137053,0.75,0.0,1200.0091552734375,-82.53421020507812,342.9727783203125,-0.0432128868997097,0.7638199925422668,-0.00018310545419808477,0.7281620502471924,-0.0009363897843286395,0.009641150943934917,4.3654704093933105,-0.002296001184731722,0.02877635881304741,4.365466489520278,0.0009963741480429511,-0.511176347732544,94,1,1,,,,,0,15.552675247192383,10.552675247192383,2.456552189861768,2.48239070443499,13.070284542757392,24.889898909637367,-0.6248589158058167,2,0.04252365604043007,0.05964570492506027,15.525017738342285,0.9271003007888794,0.9271003007888794,0,11.609403610229492,,,,,none,0,0,,,-0.0001602172565071669,-0.011596675962209702,0,0,0,,0.0,0,0,0
20260629T105148Z_pid_ac2b5dc7,pid,RouteScenario_1_rep0,0,0,Town12,38203,0.800000011920929,basic_agent,basic_agent,2.0762250060215592,basic_agent_pid,0,2.0762250060215592,basic_agent_longitudinal,0,0.0,follow_lane,clear,0.9163045122730167,3.2986962441828602,5.555555555555555,20.0,4.639251043282538,-4.05169339501299e-06,0.75,0.0,1200.0526123046875,-82.53425598144531,342.9731140136719,-0.0382690466940403,0.827545702457428,-0.00012207029067212716,0.9162423610687256,-0.0004352390533313155,0.010914201848208904,3.761606216430664,0.01002301461994648,0.025461018085479736,3.761573990432719,0.012535405683306695,0.7514728307723999,94,1,1,,,,,0,14.2671480178833,9.2671480178833,2.5235626339719106,2.5697584173544628,11.697389600528838,17.076065004082764,-0.8355056047439575,1,0.11159048974514008,0.11159048974514008,14.178409576416016,1.588775873184204,1.588775873184204,0,10.46525764465332,,,,,none,0,0,,,-0.00018310543600819074,-0.0066528357565402985,0,0,0,,0.0,0,0,0
20260629T105148Z_pid_ac2b5dc7,pid,RouteScenario_1_rep0,0,0,Town12,38204,0.850000012665987,basic_agent,basic_agent,2.4935269611887634,basic_agent_pid,0,2.4935269611887634,basic_agent_longitudinal,0,0.0,follow_lane,clear,1.071044704661258,3.8557609367805283,5.555555555555555,20.0,4.4845108508942975,-0.0007773451507091522,0.75,0.0,1200.104248046875,-82.5343246459961,342.9735412597656,-0.027099609375,0.8662455081939697,2.0135183149250224e-05,1.0709863901138306,-0.001470714807510376,0.011915330775082111,3.0948805809020996,-0.020709514617919922,0.020022578537464142,3.0948390849749363,-0.019245694195656225,0.575404703617096,94,1,1,,,,,0,12.663592338562012,7.663592338562012,2.5847681241248424,2.6523704191074904,10.01122191945452,12.529334447996437,-1.0107154846191406,2,0.09880919754505157,0.12805838882923126,12.55989933013916,1.6172505617141724,1.6172505617141724,0,9.181571006774902,,,,,none,0,0,,,-0.00022125240184323047,0.0045166015625,0,0,0,,0.0,0,0,0
20260629T105148Z_pid_ac2b5dc7,pid,RouteScenario_1_rep0,0,0,Town12,38205,0.9000000134110451,basic_agent,basic_agent,2.236174012068659,basic_agent_pid,0,2.236174012068659,basic_agent_longitudinal,0,0.0,follow_lane,clear,1.2231981366854727,4.403513292067702,5.555555555555555,20.0,4.332357418870083,-0.00025682843988761306,0.75,0.0,1200.1636962890625,-82.5344009399414,342.97406005859375,-0.02432251162827015,0.8884709477424622,0.0003384838637430221,1.2231379747390747,-0.00199855281971395,0.013315916061401367,3.043031692504883,-0.010556760244071484,0.028011705726385117,3.043104322484251,-0.009264854601790676,0.754869282245636,94,1,1,,,,,0,17.36983871459961,12.36983871459961,2.644781091476509,2.735394424136894,14.634444290462715,14.844020130010307,-1.1701573133468628,1,0.10615108907222748,-0.10615108907222748,17.27206802368164,-1.8403664827346802,1.8403664827346802,0,14.732670783996582,,,,,none,0,0,,,-0.00026702876084527816,0.007293699309229851,0,0,0,,0.0,0,0,0
20260629T105148Z_pid_ac2b5dc7,pid,RouteScenario_1_rep0,0,0,Town12,38206,0.9500000141561031,basic_agent,basic_agent,2.5180530501529574,basic_agent_pid,0,2.5180530501529574,basic_agent_longitudinal,0,0.0,follow_lane,clear,1.4072076942338074,5.065947699241707,5.555555555555555,20.0,4.1483478613217475,-0.0011332277208566666,0.75,0.0,1200.23095703125,-82.53447723388672,342.97479248046875,-0.013824462890625,0.9023772478103638,-0.000579833984375,1.4071600437164307,-0.00012347832671366632,0.014107598923146725,3.680441379547119,0.037501487880945206,0.01583365723490715,3.6802251814770313,0.03838908725091632,0.306405633687973,94,1,1,,,,,0,15.557467460632324,10.557467460632324,2.7072440686316415,2.8235288364401594,12.733938624192165,11.736248236826617,-1.3255912065505981,1,0.1261795610189438,0.1261795610189438,15.433784484863281,1.957829475402832,1.957829475402832,0,10.072959899902344,,,,,none,0,0,,,-0.0003051757266803179,0.017791748046875,0,0,0,,0.0,0,0,0
20260629T105148Z_pid_ac2b5dc7,pid,RouteScenario_1_rep0,0,0,Town12,38207,1.0000000149011612,basic_agent,basic_agent,2.414659014903009,basic_agent_pid,0,2.414659014903009,basic_agent_longitudinal,0,0.0,follow_lane,clear,1.5122474415730005,5.444090789662802,5.555555555555555,20.0,4.043308113982555,-0.0024400947149842978,0.75,0.0,1200.304443359375,-82.53459167480469,342.97552490234375,0.0045755659230053425,0.9036135077476501,-0.0010986326960846782,1.512198805809021,-0.0010070588905364275,0.01501411385834217,2.1007752418518066,-0.0176716111600399,0.01813029870390892,2.1007985519551493,-0.017839663987534143,0.028077762573957443,94,1,1,,,,,0,18.239450454711914,13.239450454711914,2.7669036106576224,2.909071608801628,15.330378845910285,12.444075161421477,-1.465713620185852,2,0.05094020813703537,0.08897679299116135,18.16729736328125,1.6207473278045654,1.6207473278045654,0,12.849845886230469,,,,,none,0,0,,,-0.0003738402651833894,0.03619177686050534,0,0,0,,0.0,0,0,0
20260629T105148Z_pid_ac2b5dc7,pid,RouteScenario_1_rep0,0,0,Town12,38208,1.0500000156462193,basic_agent,basic_agent,2.709502005018294,basic_agent_pid,0,2.709502005018294,basic_agent_longitudinal,0,0.0,follow_lane,clear,1.6029902642405178,5.770764951265864,5.555555555555555,20.0,3.9525652913150378,-0.0006998281460255384,0.75,0.0,1200.3824462890625,-82.53467559814453,342.9763488769531,0.0011694604763761163,0.8915855288505554,-0.0007324218167923391,1.602952480316162,-0.0021122589241713285,0.014903096482157707,1.8150734901428223,-0.02210400067269802,-0.00222034752368927,1.8148187619591687,-0.02214143744187542,-0.08763444423675537,94,1,1,,,,,0,14.222478866577148,9.222478866577148,2.8090090793902336,2.9701354645481,11.252343402029048,9.114729105139704,-1.5603841543197632,3,0.022092534229159355,-0.0048467363230884075,14.222311973571777,-0.06893233209848404,0.06893233209848404,0,9.929767608642578,,,,,none,0,0,,,-0.0004196166241854371,0.032785671413876116,0,0,0,,0.0,0,0,0
20260629T105148Z_pid_ac2b5dc7,pid,RouteScenario_1_rep0,0,0,Town12,38209,1.1000000163912773,basic_agent,basic_agent,2.7741650119423866,basic_agent_pid,0,2.7741650119423866,basic_agent_longitudinal,0,0.0,follow_lane,clear,1.790696668814928,6.44650800773374,5.555555555555555,20.0,3.7648588867406274,-0.0008472214685752988,0.75,0.0,1200.46728515625,-82.53472137451172,342.9771423339844,2.3876104023656808e-05,0.8862375020980835,-0.0013122556265443563,1.7906458377838135,-0.0013730756472796202,0.017135342583060265,3.7538671493530273,0.014783665537834167,0.04464492201805115,3.7541086229453278,0.0147817938319977,0.024220649152994156,94,1,1,,,,,0,18.189197540283203,13.189197540283203,2.867540938536378,3.0558545865435534,15.13334295373965,10.782623517435667,-1.6868990659713745,1,0.10435321927070618,-0.10435321927070618,18.09025001525879,-1.8946583271026611,1.8946583271026611,0,19.239009857177734,,,,,none,0,0,,,-0.0004196166241854371,0.03164008704152366,0,0,0,,0.0,0,0,0
20260629T105148Z_pid_ac2b5dc7,pid,RouteScenario_1_rep0,0,0,Town12,38210,1.1500000171363354,basic_agent,basic_agent,2.6011489680968225,basic_agent_pid,0,2.6011489680968225,basic_agent_longitudinal,0,0.0,follow_lane,clear,1.9641803115720013,7.071049121659205,5.555555555555555,20.0,3.591375243983554,-0.003107651835307479,0.75,0.0,1200.5621337890625,-82.53483581542969,342.97808837890625,0.02169870026409626,0.8953079581260681,-0.00238037109375,1.9641271829605103,-0.000662588223349303,0.01877131499350071,3.4696269035339355,0.0142097482457757,0.0327194482088089,3.4697197946975877,0.012894858746653404,0.9029387831687927,94,1,1,,,,,0,21.150442123413086,16.150442123413086,2.9639577051226724,3.198882436070375,17.951559687342712,11.225530692571917,-1.8841373920440674,2,0.08348503708839417,0.12658679485321045,20.98120880126953,2.6702218055725098,2.6702218055725098,0,15.105731010437012,,,,,none,0,0,,,-0.0004806517695215007,0.05331491120159626,0,0,0,,0.0,0,0,0
20260629T105148Z_pid_ac2b5dc7,pid,RouteScenario_1_rep0,0,0,Town12,38211,1.2000000178813934,basic_agent,basic_agent,2.3655369877815247,basic_agent_pid,0,2.3655369877815247,basic_agent_longitudinal,0,0.0,follow_lane,clear,2.1535944971705043,7.752940189813816,5.555555555555555,20.0,3.401961058385051,-0.002792702754959464,0.75,0.0,1200.666015625,-82.53498840332031,342.97900390625,0.03384526073932648,0.9055191278457642,-0.0014038084773346782,2.153543472290039,-0.0025362535379827023,0.020365208387374878,3.788325786590576,-0.03747330605983734,0.03187786787748337,3.788333707382631,-0.03971179168436424,-0.1111401915550232,94,1,1,,,,,0,16.38774299621582,11.38774299621582,3.05535615452664,3.336245927097886,13.051497069117934,7.95431859316487,-2.060232162475586,3,0.10695085674524307,-0.14282087981700897,16.220890045166016,-2.3325629234313965,2.3325629234313965,0,16.04933738708496,,,,,none,0,0,,,-0.000572204487525596,0.06546147167682648,0,0,0,,0.0,0,0,0
20260629T105148Z_pid_ac2b5dc7,pid,RouteScenario_1_rep0,0,0,Town12,38212,1.2500000186264515,basic_agent,basic_agent,2.383860992267728,basic_agent_pid,0,2.383860992267728,basic_agent_longitudinal,0,0.0,follow_lane,clear,2.2968192910948018,8.268549447941286,5.555555555555555,20.0,3.2587362644607536,-0.003564425278455019,0.75,0.0,1200.778076171875,-82.53516387939453,342.98004150390625,0.05003702640533447,0.9104027152061462,-0.00274658203125,2.2967543601989746,-0.0024794915225356817,0.022525500506162643,2.864217758178711,0.0011352403089404106,0.04320584237575531,2.864542630181593,-0.0013662228126906512,0.6713113784790039,94,1,1,,,,,0,13.24946117401123,8.24946117401123,3.1485470298933294,3.4778082204600733,9.771652953551158,5.939908366463601,-2.230583429336548,1,0.009849458932876587,0.009849458932876587,13.248818397521973,0.13049791753292084,0.13049791753292084,0,9.233166694641113,,,,,none,0,0,,,-0.0006866453850307153,0.08165323734283447,0,0,0,,0.0,0,0,0
20260629T105148Z_pid_ac2b5dc7,pid,RouteScenario_1_rep0,0,0,Town12,38213,1.3000000193715096,basic_agent,basic_agent,2.5330010103061795,basic_agent_pid,0,2.5330010103061795,basic_agent_longitudinal,0,0.0,follow_lane,clear,2.483553454978113,8.940792437921207,5.555555555555555,20.0,3.0720021005774423,-0.0026497216895222664,0.75,0.0,1200.8984375,-82.53532409667969,342.981201171875,0.05238685756921768,0.9148150086402893,-0.0023498532827943563,2.48349928855896,-0.0028585109394043684,0.023448189720511436,3.734898567199707,-0.0075803883373737335,0.01845378428697586,3.7347087535197367,-0.010996977725702576,-0.35897117853164673,94,1,1,,,,,0,20.92941665649414,15.92941665649414,3.247802399320193,3.6300159344579015,17.29940072203624,8.70875139657544,-2.4032626152038574,1,0.03305840864777565,0.03305840864777565,20.917980194091797,0.6917672157287598,0.6917672157287598,0,14.34250259399414,,,,,none,0,0,,,-0.0007781981030348106,0.08400306850671768,0,0,0,,0.0,0,0,0
20260629T105148Z_pid_ac2b5dc7,pid,RouteScenario_1_rep0,0,0,Town12,38214,1.3500000201165676,basic_agent,basic_agent,2.595969010144472,basic_agent_pid,0,2.595969010144472,basic_agent_longitudinal,0,0.0,follow_lane,clear,2.63059789246382,9.470152412869753,5.555555555555555,20.0,2.9249576630917353,-0.003291449975222349,0.75,0.0,1201.0272216796875,-82.53545379638672,342.9824523925781,0.06018933281302452,0.9159078001976013,-0.0022583010140806437,2.6305296421051025,-0.0020853341557085514,0.025523241609334946,2.9406070709228516,0.01546353567391634,0.041501037776470184,2.940909339698411,0.012374197118388972,0.7188223600387573,94,1,1,,,,,0,14.452370643615723,9.452370643615723,3.337256362916244,3.7682956834294816,10.68407496018624,5.662815951117399,-2.552152633666992,2,0.11063963174819946,0.08670927584171295,14.398075103759766,1.2515848875045776,1.2515848875045776,0,10.132776260375977,,,,,none,0,0,,,-0.0008392332483708742,0.09180554375052452,0,0,0,,0.0,0,0,0
20260629T105148Z_pid_ac2b5dc7,pid,RouteScenario_1_rep0,0,0,Town12,38215,1.4000000208616257,basic_agent,basic_agent,2.4024960002861917,basic_agent_pid,0,2.4024960002861917,basic_agent_longitudinal,0,0.0,follow_lane,clear,2.7701798028914437,9.972647290409197,5.555555555555555,20.0,2.7853757526641116,-0.0012473695678636432,0.75,0.0,1201.162841796875,-82.5355453491211,342.9837951660156,0.04558710381388664,0.9094191193580627,-0.0016174317570403218,2.7701146602630615,-0.002980478573590517,0.026293544098734856,2.7917003631591797,-0.017902888357639313,0.0154060497879982,2.791578209048122,-0.020124901354203344,-0.8958698511123657,94,1,1,,,,,0,15.071714401245117,10.071714401245117,3.4360414450932364,3.9220668044178453,11.149647596827272,5.56141099904872,-2.710052251815796,2,0.006655875593423843,-0.008136264979839325,15.071215629577637,-0.12262611091136932,0.12262611091136932,0,10.38122272491455,,,,,none,0,0,,,-0.0008544920347048901,0.07720331475138664,0,0,0,,0.0,0,0,0
20260629T105148Z_pid_ac2b5dc7,pid,RouteScenario_1_rep0,0,0,Town12,38216,1.4500000216066837,basic_agent,basic_agent,2.2690959740430117,basic_agent_pid,0,2.2690959740430117,basic_agent_longitudinal,0,0.0,follow_lane,clear,2.937041315744834,10.573348736681403,5.555555555555555,20.0,2.6185142398107213,-0.0023501303512603045,0.75,0.0,1201.3062744140625,-82.53561401367188,342.9851989746094,0.046233776956796646,0.9043306708335876,-0.0021972658578306437,2.936983823776245,-0.0007325292681343853,0.02691919356584549,3.337383270263672,0.04495898634195328,0.012512989342212677,3.337200290910372,0.04226439305780323,0.5496822595596313,94,1,1,,,,,0,12.972318649291992,7.972318649291992,3.5289539908006375,4.067606448880576,8.904712200411417,4.546896677939927,-2.8530049324035645,3,0.067660391330719,0.06830721348524094,12.94206714630127,0.8854140043258667,0.8854140043258667,0,9.114136695861816,,,,,none,0,0,,,-0.0008468626415378822,0.07784998789429665,0,0,0,,0.0,0,0,0
20260629T105148Z_pid_ac2b5dc7,pid,RouteScenario_1_rep0,0,0,Town12,38217,1.5000000223517418,basic_agent,basic_agent,2.2247229935601354,basic_agent_pid,0,2.2247229935601354,basic_agent_longitudinal,0,0.0,follow_lane,clear,3.1245852376833128,11.248506855659926,5.555555555555555,20.0,2.4309703178722426,-0.0013123314129188657,0.75,0.0,1201.4586181640625,-82.53565216064453,342.98663330078125,0.0331353135406971,0.9052322506904602,-0.0019836428109556437,3.1245086193084717,-0.002046353882178664,0.029640665277838707,3.7504959106445312,-0.026276493445038795,0.05442943423986435,3.7508718486039214,-0.02844564369130797,-0.7395145893096924,94,1,1,,,,,0,13.822628021240234,8.822628021240234,3.6552850773790637,4.26674680761481,9.555881213625424,4.547343705096236,-3.039714813232422,3,0.03090055286884308,0.00855390727519989,13.822122573852539,0.11823603510856628,0.11823603510856628,0,9.582033157348633,,,,,none,0,0,,,-0.0008010862825358345,0.0647515244781971,0,0,0,,0.0,0,0,0
20260629T105148Z_pid_ac2b5dc7,pid,RouteScenario_1_rep0,0,0,Town12,38218,1.5500000230967999,basic_agent,basic_agent,2.6757600135169923,basic_agent_pid,0,2.6757600135169923,basic_agent_longitudinal,0,0.0,follow_lane,clear,3.3272756692849814,11.978192409425933,5.555555555555555,20.0,2.228279886270574,-0.0019251080229878426,0.75,0.0,1201.6209716796875,-82.53571319580078,342.9881591796875,0.032428547739982605,0.9109969139099121,-0.0019226073054596782,3.3272035121917725,-0.0011062906123697758,0.03106294572353363,4.053897857666016,0.018801264464855194,0.028445608913898468,4.05384753612094,0.016505607770709602,0.3798280656337738,94,1,1,,,,,0,20.67529296875,15.67529296875,3.7901362219779964,4.4807254775598695,16.19456749119013,6.400200275496895,-3.2304134368896484,2,0.07124127447605133,0.09266496449708939,20.586589813232422,1.9131345748901367,1.9131345748901367,0,10.958378791809082,,,,,none,0,0,,,-0.0007705687098678027,0.0640447586774826,0,0,0,,0.0,0,0,0
20260629T105148Z_pid_ac2b5dc7,pid,RouteScenario_1_rep0,0,0,Town12,38219,1.600000023841858,basic_agent,basic_agent,2.3042219690978527,basic_agent_pid,0,2.3042219690978527,basic_agent_longitudinal,0,0.0,follow_lane,clear,3.5456111884646706,12.764200278472815,5.555555555555555,20.0,2.0099443670908848,-0.0008745737140998244,0.75,0.0,1201.7938232421875,-82.53578186035156,342.9897155761719,0.021828532218933105,0.9212285280227661,0.0004421636986080557,3.545515298843384,-0.002077691024169326,0.03453318402171135,4.366235733032227,-0.019428007304668427,0.06940476596355438,4.366779468679114,-0.021091447428800363,-0.47127455472946167,94,1,1,,,,,0,13.285636901855469,8.285636901855469,3.915227709119246,4.680364336217399,8.60527256563807,3.9071913734958446,-3.400303602218628,1,0.15673388540744781,0.15673388540744781,13.122786521911621,2.0737946033477783,2.0737946033477783,0,9.427215576171875,,,,,none,0,0,,,-0.0007476805303667788,0.053444743156433105,0,0,0,,0.0,0,0,0
20260629T105148Z_pid_ac2b5dc7,pid,RouteScenario_1_rep0,0,0,Town12,38220,1.650000024586916,basic_agent,basic_agent,2.650220994837582,basic_agent_pid,0,2.650220994837582,basic_agent_longitudinal,0,0.0,follow_lane,clear,3.7698564927460065,13.571483373885624,5.555555555555555,20.0,1.7856990628095488,-0.0013503747759386897,0.75,0.0,1201.9781494140625,-82.53582763671875,342.9914245605469,0.01899874396622181,0.9338575601577759,-0.0007934569148346782,3.769763708114624,-0.0011770684504881501,0.03645176813006401,4.484968185424805,0.018012451007962227,0.03837168216705322,4.485003678209857,0.016524795605291943,0.07309035956859589,94,1,1,,,,,0,16.066862106323242,11.066862106323242,4.111317878668643,4.995253928692301,11.071608177630942,4.396149405649336,-3.6547579765319824,2,0.09822650253772736,-0.10415267944335938,15.979795455932617,-1.6703829765319824,1.6703829765319824,0,9.801040649414062,,,,,none,0,0,,,-0.0006866453850307153,0.05061495490372181,0,0,0,,0.0,0,0,0
20260629T105148Z_pid_ac2b5dc7,pid,RouteScenario_1_rep0,0,0,Town12,38221,1.700000025331974,basic_agent,basic_agent,2.250290010124445,basic_agent_pid,0,2.250290010124445,basic_agent_longitudinal,0,0.0,follow_lane,clear,3.985713391743547,14.348568210276769,5.555555555555555,20.0,1.5698421638120084,-0.0008736132294870913,0.75,0.0,1202.1732177734375,-82.53589630126953,342.99334716796875,0.012567820958793163,0.9443897008895874,-0.0008239745511673391,3.985629081726074,-0.0020898308139294386,0.03799664229154587,4.317307472229004,-0.018255246803164482,0.030897483229637146,4.317226260966693,-0.01920282657164077,-0.18508492410182953,94,1,1,,,,,0,12.997382164001465,7.997382164001465,4.272151982770749,5.255080140696128,7.742302023305337,3.3724599514375417,-3.8539767265319824,2,0.1265803426504135,0.13581614196300507,12.877691268920898,1.7598323822021484,1.7598323822021484,0,9.089741706848145,,,,,none,0,0,,,-0.0006484984191956755,0.04418403189629316,0,0,0,,0.0,0,0,0
20260629T105148Z_pid_ac2b5dc7,pid,RouteScenario_1_rep0,0,0,Town12,38222,1.750000026077032,basic_agent,basic_agent,2.305865054950118,basic_agent_pid,0,2.305865054950118,basic_agent_longitudinal,0,0.0,follow_lane,clear,4.193076819367182,15.095076549721854,5.555555555555555,20.0,1.3624787361883737,-0.0008509089821018279,0.75,0.0,1202.3787841796875,-82.5359878540039,342.99530029296875,0.008165432140231133,0.9504890441894531,-0.0001220703125,4.193004608154297,-0.0016983540263026953,0.039150286465883255,4.147510528564453,0.007829535752534866,0.02307288348674774,4.147323823776321,0.007238361345770377,-0.07399602234363556,94,1,1,,,,,0,16.423988342285156,11.423988342285156,4.459704043910326,5.5596113856008955,10.86437695668426,4.02858357922591,-4.076864242553711,1,0.10964149236679077,-0.10964149236679077,16.325368881225586,-1.797144889831543,1.797144889831543,0,12.778735160827637,,,,,none,0,0,,,-0.0006256102396946517,0.03978164307773113,0,0,0,,0.0,0,0,0
20260629T105148Z_pid_ac2b5dc7,pid,RouteScenario_1_rep0,0,0,Town12,38223,1.8000000268220901,basic_agent,basic_agent,2.2595380432903767,basic_agent_pid,0,2.2595380432903767,basic_agent_longitudinal,0,0.0,follow_lane,clear,4.394834790284892,15.821405245025613,5.555555555555555,20.0,1.1607207652706633,-0.0007204454741440713,0.75,0.0,1202.594482421875,-82.53607177734375,342.9972229003906,0.003844853490591049,0.9553931355476379,0.0003103745693806559,4.394784450531006,-0.0018304431578144431,0.03966884687542915,4.03559684753418,-0.0026417826302349567,0.010371208190917969,4.035208659603052,-0.002912284430341926,-0.08649562299251556,94,1,1,,,,,0,22.55953598022461,17.55953598022461,4.6623126106956825,5.89023625299772,16.66929972722689,5.237165308726993,-4.3075852394104,3,0.020635634660720825,0.035525791347026825,22.54530143737793,0.8012768030166626,0.8012768030166626,0,13.597039222717285,,,,,none,0,0,,,-0.0005950926670266199,0.03546106442809105,0,0,0,,0.0,0,0,0
20260629T105148Z_pid_ac2b5dc7,pid,RouteScenario_1_rep0,0,0,Town12,38224,1.8500000275671482,basic_agent,basic_agent,2.3586039897054434,basic_agent_pid,0,2.3586039897054434,basic_agent_longitudinal,0,0.0,follow_lane,clear,4.593920387823309,16.538113396163915,5.555555555555555,20.0,0.9616351677322461,-0.0007930347346700728,0.75,0.0,1202.8203125,-82.53616333007812,342.99920654296875,-6.103515261202119e-05,0.9591156244277954,0.0006280741654336452,4.593864440917969,-0.0019640678074210882,0.041793107986450195,3.981599807739258,-0.002672492992132902,0.04248522222042084,3.9817530246800024,-0.00266798660159606,-0.07578080147504807,94,1,1,,,,,0,15.802180290222168,10.802180290222168,4.83669255832176,6.176011893592829,9.626168396629339,3.5125842013506134,-4.4987335205078125,2,0.05863446742296219,-0.07819311320781708,15.753896713256836,-1.2343629598617554,1.2343629598617554,0,10.377275466918945,,,,,none,0,0,,,-0.0005569457011915802,0.03155517578488798,0,0,0,,0.0,0,0,0
20260629T105148Z_pid_ac2b5dc7,pid,RouteScenario_1_rep0,0,0,Town12,38225,1.9000000283122063,basic_agent,basic_agent,2.0778769976459444,basic_agent_pid,0,2.0778769976459444,basic_agent_longitudinal,0,0.0,follow_lane,clear,4.791747548453387,17.250291174432192,5.555555555555555,20.0,0.7638080071021687,-0.0005531528149731457,0.75,0.0,1203.055908203125,-82.53623962402344,343.0013732910156,-0.004058837424963713,0.9616222977638245,0.0004671827773563564,4.791717052459717,-0.0024190698750317097,0.04201939329504967,3.957052230834961,-0.009100041352212429,0.004525706171989441,3.9565714948158135,-0.008819218858084047,-0.08276743441820145,94,1,1,,,,,0,13.239174842834473,8.239174842834473,4.978135541370733,6.40855597310215,6.830618869732323,2.847612337078928,-4.649219512939453,2,0.1448185294866562,0.1355717033147812,13.117694854736328,1.7893644571304321,1.7893644571304321,0,9.164504051208496,,,,,none,0,0,,,-0.0005035399490225245,0.027557373512536287,0,0,0,,0.0,0,0,0
20260629T105148Z_pid_ac2b5dc7,pid,RouteScenario_1_rep0,0,0,Town12,38226,1.9500000290572643,basic_agent,basic_agent,2.224483003374189,basic_agent_pid,0,2.224483003374189,basic_agent_longitudinal,0,0.0,follow_lane,clear,4.989062210535382,17.960623957927375,5.555555555555555,20.0,0.5664933450201737,-0.00047523321700282395,0.5337719917297363,0.0,1203.3013916015625,-82.53632354736328,343.00347900390625,-0.007568358443677425,0.9632751941680908,0.00034595245961099863,4.989041805267334,-0.0022377443965524435,0.04313845559954643,3.9464950561523438,0.0036265095695853233,0.022381246089935303,3.946313111246747,0.004148078537386532,-0.06611673533916473,94,1,1,,,,,0,14.327534675598145,9.327534675598145,5.207694815237631,6.787258197754277,7.540276477843867,2.9326128963055953,-4.885586738586426,2,0.05138586461544037,0.016207486391067505,14.325653076171875,0.2322031557559967,0.2322031557559967,0,9.627843856811523,,,,,none,0,0,,,-0.00045776359002047684,0.024047852493822575,0,0,0,,0.0,0,0,0
20260629T105148Z_pid_ac2b5dc7,pid,RouteScenario_1_rep0,0,0,Town12,38227,2.0000000298023224,basic_agent,basic_agent,2.055936027318239,basic_agent_pid,0,2.055936027318239,basic_agent_longitudinal,0,0.0,follow_lane,clear,5.163207969192695,18.5875486890937,5.555555555555555,20.0,0.3923475863628605,-0.00043616292532533407,0.16744846105575562,0.0,1203.5562744140625,-82.53641510009766,343.00592041015625,-0.0103759765625,0.9616973996162415,0.0006019714055582881,5.163135051727295,-0.0022881862241774797,0.04765689745545387,3.4818649291992188,-0.0010088365525007248,0.0903688371181488,3.4828914562309063,-0.00037862373098132096,-0.038508445024490356,94,1,1,,,,,0,16.796009063720703,11.796009063720703,5.377421260356276,7.068188659493433,9.72782040422727,3.322890026419892,-5.054638862609863,3,0.1171993687748909,0.11776711046695709,16.679670333862305,1.9734485149383545,1.9734485149383545,0,11.466986656188965,,,,,none,0,0,,,-0.0004043578378514212,0.021240234375,0,0,0,,0.0,0,0,0
20260629T105148Z_pid_ac2b5dc7,pid,RouteScenario_1_rep0,0,0,Town12,38228,2.0500000305473804,basic_agent,basic_agent,2.9101200052537024,basic_agent_pid,0,2.9101200052537024,basic_agent_longitudinal,0,0.0,follow_lane,clear,5.137224534156912,18.494008322964884,5.555555555555555,20.0,0.4183310213986431,2.838281488948269e-06,0.75,0.0,1203.81640625,-82.53649139404297,343.00836181640625,-0.016754150390625,0.9358041882514954,0.0008250531391240656,5.137144088745117,-0.0015384586295112967,0.04686456546187401,-0.5198192596435547,0.014994552358984947,-0.01584663987159729,-0.5200130808314568,0.014842654373671603,-1.4786063432693481,94,1,1,,,,,0,14.135455131530762,9.135455131530762,5.455238839637421,7.197237520238094,6.938217611292668,2.755102025642613,-5.130646705627441,2,0.16315418481826782,0.16623641550540924,13.940590858459473,2.339019536972046,2.339019536972046,0,9.906343460083008,,,,,none,0,0,,,-0.0003356932993483497,0.014862060546875,0,0,0,,0.0,0,0,0
20260629T105148Z_pid_ac2b5dc7,pid,RouteScenario_1_rep0,0,0,Town12,38229,2.1000000312924385,basic_agent,basic_agent,2.423927013296634,basic_agent_pid,0,2.423927013296634,basic_agent_longitudinal,0,0.0,follow_lane,clear,5.068690823391957,18.247286964211046,5.555555555555555,20.0,0.48686473216359794,0.003427895251661539,0.75,0.0,1204.0714111328125,-82.53640747070312,343.01092529296875,-0.05572509765625,0.8599412441253662,0.0004302006564103067,5.068593502044678,-0.0014825533144176006,0.04458565637469292,-1.371011734008789,0.0011181063018739223,-0.045578181743621826,-1.3715417677284745,-0.00021513374654749911,-1.1182162761688232,94,1,1,,,,,0,13.834381103515625,8.834381103515625,5.424123812942023,7.145619984157726,6.688761119357899,2.7124297884116286,-5.100364685058594,2,0.0638117641210556,0.02521989494562149,13.829981803894043,0.34886467456817627,0.34886467456817627,0,9.665560722351074,,,,,none,0,0,,,-0.00011444089750511921,-0.02410888671875,0,0,0,,0.0,0,0,0
20260629T105148Z_pid_ac2b5dc7,pid,RouteScenario_1_rep0,0,0,Town12,38230,2.1500000320374966,basic_agent,basic_agent,2.8187170391902328,basic_agent_pid,0,2.8187170391902328,basic_agent_longitudinal,0,0.0,follow_lane,clear,5.02180539791481,18.078499432493317,5.555555555555555,20.0,0.5337501576407453,0.002231680089607835,0.75,0.0,1204.3214111328125,-82.53623962402344,343.01336669921875,-0.0720519945025444,0.7754313349723816,-0.0029602046124637127,5.021726608276367,0.0026959856040775776,0.04034784063696861,-0.9373378753662109,0.08357077836990356,-0.08475631475448608,-0.9385034600198036,0.08238824666863953,-0.020842187106609344,94,1,1,,,,,0,14.67431640625,9.67431640625,5.334831951222985,6.997624688730401,7.676691717519599,2.927457643370814,-5.012648582458496,2,0.06191611289978027,-0.08550077676773071,14.620711326599121,-1.2531373500823975,1.2531373500823975,0,11.1815767288208,,,,,none,0,0,,,0.00019073482917519868,-0.0404357835650444,0,0,0,,0.0,0,0,0
20260629T105148Z_pid_ac2b5dc7,pid,RouteScenario_1_rep0,0,0,Town12,38231,2.2000000327825546,basic_agent,basic_agent,2.1767939906567335,basic_agent_pid,0,2.1767939906567335,basic_agent_longitudinal,0,0.0,follow_lane,clear,5.075794706178446,18.272860942242406,5.555555555555555,20.0,0.4797608493771097,0.0020390846766531467,0.75,0.0,1204.5755615234375,-82.53611755371094,343.01580810546875,-0.0806884691119194,0.7322167158126831,-0.00238037109375,5.0756449699401855,0.0007911364664323628,0.04463091865181923,1.0783672332763672,-0.03809698298573494,0.08566156029701233,1.0794264196826824,-0.03657531655165724,-3.139486789703369,94,1,1,,,,,0,13.996369361877441,8.996369361877441,5.401026862046251,7.107319212648235,6.889050149229206,2.7563887807400236,-5.077792167663574,3,0.06132544204592705,-0.052268266677856445,13.977254867553711,-0.7312328815460205,0.7312328815460205,0,10.518550872802734,,,,,none,0,0,,,0.0004501341968534689,-0.0490722581744194,0,0,0,,0.0,0,0,0
20260629T105148Z_pid_ac2b5dc7,pid,RouteScenario_1_rep0,0,0,Town12,38232,2.2500000335276127,basic_agent,basic_agent,2.1957590361125767,basic_agent_pid,0,2.1957590361125767,basic_agent_longitudinal,0,0.0,follow_lane,clear,5.019238864398088,18.069259911833118,5.555555555555555,20.0,0.5363166911574675,-0.0034779536072164774,0.75,0.0,1204.8270263671875,-82.5362777709961,343.0181579589844,-0.0322265662252903,0.6812157034873962,-0.0010986328125,5.01906156539917,0.0010334603721275926,0.04486560821533203,-1.1316680908203125,0.004846477881073952,0.0046937912702560425,-1.1315348100331828,0.004210307405513522,3.7878596782684326,94,1,1,,,,,0,15.537196159362793,10.537196159362793,5.347451287195893,7.018528194293493,8.5186679650693,3.091905633091805,-5.025119781494141,1,0.08214451372623444,0.08214451372623444,15.4848051071167,1.2748606204986572,1.2748606204986572,0,11.817339897155762,,,,,none,0,0,,,0.000434875410519453,-0.0006103552877902985,0,0,0,,0.0,0,0,0
20260629T105148Z_pid_ac2b5dc7,pid,RouteScenario_1_rep0,0,0,Town12,38233,2.3000000342726707,basic_agent,basic_agent,2.798879984766245,basic_agent_pid,0,2.798879984766245,basic_agent_longitudinal,0,0.0,follow_lane,clear,5.161170911163699,18.580215280189318,5.555555555555555,20.0,0.39438464439185594,0.0039415666833519936,0.31976038217544556,0.0,1205.0791015625,-82.53645324707031,343.0204162597656,-0.0709228366613388,0.6498515009880066,0.005147859919816256,5.160982608795166,-0.009217284619808197,0.04521356523036957,2.838420867919922,-0.2050149142742157,0.006959140300750732,2.83856880787948,-0.2014989869061846,-0.24890272319316864,94,1,1,,,,,0,16.335979461669922,11.335979461669922,5.365536185050729,7.048492285599713,9.287487176070208,3.2393702206474364,-5.042949199676514,1,0.028348328545689583,-0.028348328545689583,16.329416275024414,-0.4630357027053833,0.4630357027053833,0,12.359506607055664,,,,,none,0,0,,,0.00039672844468441326,-0.039306625723838806,0,0,0,,0.0,0,0,0
20260629T105148Z_pid_ac2b5dc7,pid,RouteScenario_1_rep0,0,0,Town12,38234,2.350000035017729,basic_agent,basic_agent,2.739418006967753,basic_agent_pid,0,2.739418006967753,basic_agent_longitudinal,0,0.0,follow_lane,clear,5.460173025171969,19.656622890619087,5.555555555555555,20.0,0.09538253038358668,0.0022164229303598404,0.0,0.23999999463558197,1205.347900390625,-82.53643035888672,343.02252197265625,-0.0820312574505806,0.6949102282524109,0.0001964319817489013,5.460037708282471,0.0020521068945527077,0.04497219994664192,5.981101989746094,0.2253878265619278,-0.0048273056745529175,5.980274792608608,0.23395109729527178,-2.440685749053955,94,1,1,,,,,0,17.53960609436035,12.539606094360352,5.598481310328493,7.435163738006262,10.10444235635409,3.3293128023770553,-5.26823616027832,1,0.174096018075943,-0.174096018075943,17.27446937561035,-3.0381736755371094,3.0381736755371094,0,15.397340774536133,,,,,none,0,0,,,0.0005645750943585881,-0.0504150465130806,0,0,0,,0.0,0,0,0
20260629T105148Z_pid_ac2b5dc7,pid,RouteScenario_1_rep0,0,0,Town12,38235,2.400000035762787,basic_agent,basic_agent,3.142614965327084,basic_agent_pid,0,3.142614965327084,basic_agent_longitudinal,0,0.0,follow_lane,clear,5.381031700723327,19.371714122603976,5.555555555555555,20.0,0.17452385483222876,-0.005588601343333721,0.75,0.0,1205.618408203125,-82.53667449951172,343.0246887207031,-0.012603759765625,0.6909145712852478,-0.0024719233624637127,5.380903244018555,0.0014161900617182255,0.04313330724835396,-1.5826892852783203,-0.012718336656689644,-0.03677785396575928,-1.5830148818684797,-0.013067255286183965,4.259676933288574,94,1,1,,,,,0,23.27359962463379,18.27359962463379,5.744413658370304,7.678037368148978,15.595562256484811,4.305557346783213,-5.4054789543151855,1,0.03527364879846573,0.03527364879846573,23.259122848510742,0.8207746148109436,0.8207746148109436,0,17.712909698486328,,,,,none,0,0,,,0.00047302237635449274,0.019012451171875,0,0,0,,0.0,0,0,0
20260629T105148Z_pid_ac2b5dc7,pid,RouteScenario_1_rep0,0,0,Town12,38236,2.450000036507845,basic_agent,basic_agent,2.3670500377193093,basic_agent_pid,0,2.3670500377193093,basic_agent_longitudinal,0,0.0,follow_lane,clear,5.28477807629432,19.025201074659552,5.555555555555555,20.0,0.27077747926123497,0.0018589944811537862,0.75,0.0,1205.884033203125,-82.53697204589844,343.02703857421875,-0.036834716796875,0.64117032289505,0.005174204241484404,5.284640312194824,-0.009583006612956524,0.041427381336688995,-1.9252586364746094,-0.21998393535614014,-0.034118518233299255,-1.9253781805853354,-0.22122048443052703,-3.525592803955078,94,1,1,,,,,0,13.555949211120605,8.555949211120605,5.64237244563508,7.508161769440823,6.047787441679782,2.5529977481012964,-5.309816360473633,2,0.03993632271885872,0.07562807947397232,13.517200469970703,1.0242334604263306,1.0242334604263306,0,10.33773422241211,,,,,none,0,0,,,0.0003204345130143338,-0.005218505859375,0,0,0,,0.0,0,0,0
20260629T105148Z_pid_ac2b5dc7,pid,RouteScenario_1_rep0,0,0,Town12,38237,2.500000037252903,basic_agent,basic_agent,2.327966969460249,basic_agent_pid,0,2.327966969460249,basic_agent_longitudinal,0,0.0,follow_lane,clear,5.192381109601039,18.69257199456374,5.555555555555555,20.0,0.36317444595451676,-0.0037882020696997643,0.75,0.0,1206.144775390625,-82.53730010986328,343.02923583984375,0.0020963361021131277,0.5782437920570374,0.002507781609892845,5.192234992980957,-0.002001416403800249,0.040686845779418945,-1.8481063842773438,0.15163180232048035,-0.014810711145401001,-1.8481562346444758,0.15169925264995185,3.644537925720215,94,1,1,,,,,0,12.46020221710205,7.460202217102051,5.488995623127609,7.253264053547002,5.206938163555049,2.4132069066402275,-5.163337707519531,1,0.1573946177959442,0.1573946177959442,12.306181907653809,1.953081488609314,1.953081488609314,0,9.81275463104248,,,,,none,0,0,,,0.00013732907700614305,0.03371254703961313,0,0,0,,0.0,0,0,0
20260629T105148Z_pid_ac2b5dc7,pid,RouteScenario_1_rep0,0,0,Town12,38238,2.550000037997961,basic_agent,basic_agent,3.092711034696549,basic_agent_pid,0,3.092711034696549,basic_agent_longitudinal,0,0.0,follow_lane,clear,5.118796344448247,18.427666840013693,5.555555555555555,20.0,0.436759211107308,0.002863672561943531,0.75,0.0,1206.4014892578125,-82.53750610351562,343.03143310546875,-0.0361328125,0.5197227001190186,0.004485964775085449,5.1186347007751465,-0.008818347007036209,0.04053486883640289,-1.472005844116211,-0.13633860647678375,-0.003039538860321045,-1.4718866357470881,-0.13726769009781908,-3.6843695640563965,94,1,1,,,,,0,15.602328300476074,10.602328300476074,5.4438860842397725,7.178401400250181,8.423926900225894,3.0475591457638864,-5.119614601135254,1,0.10678774118423462,-0.10678774118423462,15.513450622558594,-1.6629725694656372,1.6629725694656372,0,13.688285827636719,,,,,none,0,0,,,7.629393167007947e-05,-0.0045166015625,0,0,0,,0.0,0,0,0
20260629T105148Z_pid_ac2b5dc7,pid,RouteScenario_1_rep0,0,0,Town12,38239,2.600000038743019,basic_agent,basic_agent,2.5884649949148297,basic_agent_pid,0,2.5884649949148297,basic_agent_longitudinal,0,0.0,follow_lane,clear,5.07445078852705,18.26802283869738,5.555555555555555,20.0,0.4811047670285058,-0.003445817157626152,0.75,0.0,1206.6556396484375,-82.5377426147461,343.0335388183594,-0.0008850097074173391,0.4745751917362213,0.000357367709511891,5.074289321899414,0.00020655294065363705,0.04050968959927559,-0.8869075775146484,0.18049800395965576,-0.0005035847425460815,-0.886884086989888,0.18048426181270577,3.6104493141174316,94,1,1,,,,,0,12.646998405456543,7.646998405456543,5.344491780310051,7.01362550567348,5.633372899783063,2.5182201702931106,-5.022197246551514,2,0.16069215536117554,0.1573311984539032,12.490795135498047,1.981568694114685,1.981568694114685,0,10.356447219848633,,,,,none,0,0,,,-2.2888179501023842e-05,0.03073120123008266,0,0,0,,0.0,0,0,0
20260629T105148Z_pid_ac2b5dc7,pid,RouteScenario_1_rep0,0,0,Town12,38240,2.650000039488077,basic_agent,basic_agent,2.1578079904429615,basic_agent_pid,0,2.1578079904429615,basic_agent_longitudinal,0,0.0,follow_lane,clear,5.061040499268529,18.219745797366706,5.555555555555555,20.0,0.4945150562870264,0.0030456003732979298,0.75,0.0,1206.908447265625,-82.537841796875,343.03564453125,-0.04052734375,0.4458200931549072,0.00258741551078856,5.060874938964844,-0.006623230874538422,0.04052778333425522,-0.26828765869140625,-0.1365956813097,0.00036187469959259033,-0.26818003941933327,-0.1367855287555272,-3.643238067626953,94,1,1,,,,,0,13.816996574401855,8.816996574401855,5.352329349713823,7.02660962920713,6.790386945194726,2.7469538900943222,-5.029933929443359,1,0.097576804459095,0.097576804459095,13.75127124786377,1.34607994556427,1.34607994556427,0,11.46007251739502,,,,,none,0,0,,,1.5258786334015895e-05,-0.0089111328125,0,0,0,,0.0,0,0,0
20260629T105148Z_pid_ac2b5dc7,pid,RouteScenario_1_rep0,0,0,Town12,38241,2.7000000402331352,basic_agent,basic_agent,2.253596961963922,basic_agent_pid,0,2.253596961963922,basic_agent_longitudinal,0,0.0,follow_lane,clear,5.079829585785083,18.287386508826298,5.555555555555555,20.0,0.47572596977047255,-0.0034225231502205133,0.75,0.0,1207.161865234375,-82.5379867553711,343.0377197265625,-0.004669188987463713,0.43312275409698486,-0.0011596678523346782,5.079669952392578,0.0013478724285960197,0.040333881974220276,0.3759002685546875,0.15942206978797913,-0.0038780272006988525,0.37584722965086137,0.1594525669214775,3.5540144443511963,94,1,1,,,,,0,13.284829139709473,8.284829139709473,5.356281510063447,7.033157575254074,6.251671564455399,2.6391087753665676,-5.033831596374512,4,0.09047139436006546,-0.05286606028676033,13.26626968383789,-0.701989471912384,0.701989471912384,0,10.499509811401367,,,,,none,0,0,,,7.629393167007947e-06,0.026947021950036287,0,0,0,,0.0,0,0,0
20260629T105148Z_pid_ac2b5dc7,pid,RouteScenario_1_rep0,0,0,Town12,38242,2.7500000409781933,basic_agent,basic_agent,2.4242969811894,basic_agent_pid,0,2.4242969811894,basic_agent_longitudinal,0,0.0,follow_lane,clear,5.076619702391033,18.27583092860772,5.555555555555555,20.0,0.47893585316452203,0.002809936413541436,0.75,0.0,1207.415771484375,-82.53805541992188,343.0397644042969,-0.041229248046875,0.4257461726665497,0.0010702991858124733,5.07645320892334,-0.006086441222578287,0.040854740887880325,-0.06433486938476562,-0.1486862748861313,0.010417178273200989,-0.06414868305516096,-0.1487327374317087,-3.641594886779785,94,1,1,,,,,0,12.802510261535645,7.8025102615356445,5.3871551831014255,7.08432270964841,5.718187551887235,2.5280436970770377,-5.064196586608887,3,0.02855287678539753,-0.011665538884699345,12.80163860321045,-0.149344801902771,0.149344801902771,0,10.398717880249023,,,,,none,0,0,,,8.392332483708742e-05,-0.009613037109375,0,0,0,,0.0,0,0,0
20260629T105148Z_pid_ac2b5dc7,pid,RouteScenario_1_rep0,0,0,Town12,38243,2.8000000417232513,basic_agent,basic_agent,2.320391999091953,basic_agent_pid,0,2.320391999091953,basic_agent_longitudinal,0,0.0,follow_lane,clear,5.06929029090186,18.249445047246695,5.555555555555555,20.0,0.4862652646536958,-0.0035402069333940744,0.75,0.0,1207.6693115234375,-82.5382308959961,343.0418395996094,-0.003967285621911287,0.41757041215896606,-0.001190185546875,5.069125652313232,0.0008865677518770099,0.04107264429330826,-0.14655113220214844,0.13946017622947693,0.004358068108558655,-0.14652513138187304,0.13945014141995324,3.645090341567993,94,1,1,,,,,0,20.710458755493164,15.710458755493164,5.374138838932707,7.06274855730352,13.647710198189644,4.099934111037062,-5.051412582397461,3,0.08411046862602234,0.08021979033946991,20.643856048583984,1.6596074104309082,1.6596074104309082,0,11.83150863647461,,,,,none,0,0,,,4.5776359002047684e-05,0.027648925315588713,0,0,0,,0.0,0,0,0
20260629T105148Z_pid_ac2b5dc7,pid,RouteScenario_1_rep0,0,0,Town12,38244,2.8500000424683094,basic_agent,basic_agent,2.4137069704011083,basic_agent_pid,0,2.4137069704011083,basic_agent_longitudinal,0,0.0,follow_lane,clear,5.517164067526824,19.86179064309657,5.555555555555555,20.0,0.03839148802873105,-0.001828923006542027,0.0,0.23999999463558197,1207.9332275390625,-82.53857421875,343.043701171875,0.006233082618564367,0.4715152680873871,0.004564383067190647,5.517001628875732,-0.007081190589815378,0.04253758490085602,8.95751953125,-0.15935516357421875,0.0292988121509552,8.95744004686086,-0.16032609406924728,-0.9674813151359558,94,1,1,,,,,0,16.285198211669922,11.285198211669922,5.572642246885872,7.392209628140883,8.89298858352904,3.1057091244232926,-5.243632793426514,1,0.04481443762779236,-0.04481443762779236,16.268848419189453,-0.7295677661895752,0.7295677661895752,0,11.959839820861816,,,,,none,0,0,,,-0.00015258786334015895,0.03784929355606437,0,0,0,,0.0,0,0,0
20260629T105148Z_pid_ac2b5dc7,pid,RouteScenario_1_rep0,0,0,Town12,38245,2.9000000432133675,basic_agent,basic_agent,2.1643800428137183,basic_agent_pid,0,2.1643800428137183,basic_agent_longitudinal,0,0.0,follow_lane,clear,5.937064800497808,21.37343328179211,5.555555555555555,20.0,-0.3815092449422526,-0.003839687444269657,0.0,0.23999999463558197,1208.2237548828125,-82.53893280029297,343.04534912109375,0.0323786661028862,0.6069510579109192,0.005257780198007822,5.936931610107422,-0.00596203189343214,0.04442697390913963,8.398599624633789,0.022383173927664757,0.0377877801656723,8.398540000352973,0.017641698129369658,2.0287938117980957,94,1,1,,,,,0,20.50778579711914,15.50778579711914,6.122954982836205,8.310094493662152,12.197691303456988,3.567240007020359,-5.748922348022461,2,0.02590365707874298,-0.027721049264073372,20.499906539916992,-0.5684245228767395,0.5684245228767395,0,11.159546852111816,,,,,none,0,0,,,-0.0003509520856823656,0.0639948770403862,0,0,0,,0.0,0,0,0
20260629T105148Z_pid_ac2b5dc7,pid,RouteScenario_1_rep0,0,0,Town12,38246,2.9500000439584255,basic_agent,basic_agent,2.284283982589841,basic_agent_pid,0,2.284283982589841,basic_agent_longitudinal,0,0.0,follow_lane,clear,6.037356894341872,21.734484819630737,5.555555555555555,20.0,-0.48180133878631626,0.0030850237235426903,0.0,0.23999999463558197,1208.5252685546875,-82.53913116455078,343.0472717285156,-0.01718139462172985,0.6872535943984985,0.007109703030437231,6.037245273590088,-0.008241710253059864,0.045330874621868134,2.0062732696533203,-0.045593567192554474,0.018078014254570007,2.0063593220332807,-0.04499119652110404,-3.597628593444824,94,1,1,,,,,0,14.317089080810547,9.317089080810547,6.391992541181196,8.760935438089568,5.556153642720979,2.3929257965444446,-5.983089447021484,1,0.020214201882481575,0.020214201882481575,14.314164161682129,0.28938883543014526,0.28938883543014526,0,9.976581573486328,,,,,none,0,0,,,-0.00038146965835039737,0.01443481631577015,0,0,0,,0.0,0,0,0
20260629T105148Z_pid_ac2b5dc7,pid,RouteScenario_1_rep0,0,0,Town12,38247,3.0000000447034836,basic_agent,basic_agent,2.516400010790676,basic_agent_pid,0,2.516400010790676,basic_agent_longitudinal,0,0.0,follow_lane,clear,6.025027408026111,21.690098668894002,5.555555555555555,20.0,-0.4694718524705559,-0.0033788871951401234,0.0,0.23999999463558197,1208.8270263671875,-82.5392837524414,343.0494079589844,0.01151973381638527,0.6928816437721252,-0.00012207030522404239,6.024934768676758,0.0005284069920890033,0.044092416763305664,-0.24621009826660156,0.17540234327316284,-0.02476915717124939,-0.2464563561448272,0.1754517991796239,3.3858988285064697,94,1,1,,,,,0,21.76020622253418,16.76020622253418,6.442300078504867,8.845375636912813,12.914830585621367,3.6110299814386035,-6.026038646697998,1,0.0019380153389647603,0.0019380153389647603,21.760164260864258,0.04217158630490303,0.04217158630490303,0,10.153890609741211,,,,,none,0,0,,,-0.00036621087201638147,0.04313594475388527,0,0,0,,0.0,0,0,0
