run_id,run_label,route_id,route_index,repetition_index,town,frame,timestamp,controller,controller_mode,controller_compute_time_ms,controller_status,controller_fallback,longitudinal_controller_compute_time_ms,longitudinal_controller_status,longitudinal_controller_fallback,longitudinal_accel_cmd_mps2,maneuver_state,waiting_left_reason,speed_mps,speed_kph,target_speed_mps,target_speed_kph,speed_error_mps,steer,throttle,brake,x,y,z,yaw_deg,pitch_deg,roll_deg,velocity_x,velocity_y,velocity_z,accel_x,accel_y,accel_z,longitudinal_accel_mps2,lateral_accel_mps2,yaw_rate_dps,road_id,lane_id,target_lane_id,target_lane_lateral_error_m,target_lane_heading_error_deg,target_lane_progress,overtake_origin_lane_id,is_junction,front_distance_m,front_distance_margin_m,front_dynamic_stop_distance_m,front_dynamic_emergency_distance_m,front_dynamic_margin_m,front_ttc_s,front_closing_speed_mps,front_radar_point_count,front_radar_mean_abs_azimuth_rad,front_radar_anchor_azimuth_rad,front_relative_longitudinal_m,front_relative_lateral_m,front_relative_lateral_abs_m,front_blocked,rear_distance_m,rear_approach_distance_m,rear_approach_speed_mps,rear_closing_speed_mps,rear_approach_ttc_s,rear_approach_mode,rear_lane_releasing,left_oncoming_detected,left_oncoming_confidence,left_oncoming_label,lateral_error_m,heading_error_deg,blocked_vehicle,rejoin_lane_clear,safety_override,safety_override_reason,requested_brake,emergency_brake,steer_saturated,front_collision_risk
20260628T181952Z_pid_c642c451,pid,RouteScenario_0_rep0,0,0,Town12,487437,0.05000000074505806,basic_agent,basic_agent,0.0,basic_agent_pid,0,0.0,basic_agent_longitudinal,0,0.0,follow_lane,clear,0.0002403607687238863,0.0008652987674059907,5.555555555555555,20.0,5.555315194786831,2.3945547582115978e-05,0.75,0.0,1199.9569091796875,-82.53407287597656,342.9453125,-0.0316467247903347,0.6043487787246704,-0.01141357421875,-0.0012569221435114741,0.0003848605847451836,0.1419672667980194,0.006495767738670111,-0.001741292653605342,-0.6099972128868103,6.231119299404321e-05,-0.0018592255204329415,-0.00019101999350823462,94,1,1,,,,,0,18.909374237060547,13.909374237060547,2.3,2.3,16.609374237060546,,0.005214397795498371,1,0.0523509681224823,-0.0523509681224823,18.883468627929688,-0.989471971988678,0.989471971988678,0,16.217891693115234,,,,,none,0,0,,,-4.5776359002047684e-05,-3.0513852834701538e-05,0,0,0,,0.0,0,0,0
20260628T181952Z_pid_c642c451,pid,RouteScenario_0_rep0,0,0,Town12,487438,0.10000000149011612,basic_agent,basic_agent,0.0,basic_agent_pid,0,0.0,basic_agent_longitudinal,0,0.0,follow_lane,clear,0.00020060695886280582,0.0007221850519061009,5.555555555555555,20.0,5.555354948596692,4.3555810407269746e-05,0.75,0.0,1199.9569091796875,-82.53408813476562,342.9515686035156,-0.0316162109375,0.6022518873214722,-0.00994872860610485,-0.0010052615543827415,0.0002640727034304291,0.11473207175731659,0.005033211782574654,-0.0024157576262950897,-0.5447039008140564,-0.0006911629687509063,-0.0025075651270060305,-0.00010829151869984344,94,1,1,,,,,0,13.40117359161377,8.40117359161377,2.3,2.3,11.101173591613769,,0.007398346904665232,2,0.09616957604885101,0.06398129463195801,13.373753547668457,0.8568395376205444,0.8568395376205444,0,10.720157623291016,,,,,none,0,0,,,-6.103514533606358e-05,0.0,0,0,0,,0.0,0,0,0
20260628T181952Z_pid_c642c451,pid,RouteScenario_0_rep0,0,0,Town12,487439,0.15000000223517418,basic_agent,basic_agent,0.0,basic_agent_pid,0,0.0,basic_agent_longitudinal,0,0.0,follow_lane,clear,0.000124128940549137,0.00044686418597689317,5.555555555555555,20.0,5.555431426615006,6.453601235989481e-05,0.75,0.0,1199.9569091796875,-82.53411102294922,342.95660400390625,-0.0316162072122097,0.6007082462310791,-0.007965086959302425,-0.0008328897529281676,0.00015812748461030424,0.09128642082214355,0.0034474360290914774,-0.0021189043764024973,-0.4689130187034607,-0.0014677369722184306,-0.0021821899982475295,-0.00016391879762522876,94,1,1,,,,,0,12.27054214477539,7.270542144775391,2.3,2.3,9.97054214477539,,0.006237731780856848,2,0.07193650305271149,0.065264493227005,12.24441909790039,0.8002623319625854,0.8002623319625854,0,9.739411354064941,,,,,none,0,0,,,-8.392332483708742e-05,3.725290298461914e-09,0,0,0,,0.0,0,0,0
20260628T181952Z_pid_c642c451,pid,RouteScenario_0_rep0,0,0,Town12,487440,0.20000000298023224,basic_agent,basic_agent,0.0,basic_agent_pid,0,0.0,basic_agent_longitudinal,0,0.0,follow_lane,clear,7.947719852067264e-05,0.0002861179146744215,5.555555555555555,20.0,5.555476078357034,4.987815918866545e-05,0.75,0.0,1199.9569091796875,-82.53411865234375,342.96051025390625,-0.0315856896340847,0.5995266437530518,-0.006469725631177425,-0.0006725884159095585,0.0001914402237161994,0.07188154757022858,0.003206026740372181,0.0006662547821179032,-0.38809746503829956,-0.0008553831798592021,0.0006241974766186279,-8.284592331619933e-05,94,1,1,,,,,0,20.847064971923828,15.847064971923828,2.3,2.3,18.547064971923827,,0.0027908277697861195,3,0.15048159658908844,0.15712793171405792,20.590246200561523,3.2621941566467285,3.2621941566467285,0,18.070873260498047,,,,,none,0,0,,,-9.155271800409537e-05,3.052130341529846e-05,0,0,0,,0.0,0,0,0
20260628T181952Z_pid_c642c451,pid,RouteScenario_0_rep0,0,0,Town12,487441,0.2500000037252903,basic_agent,basic_agent,0.0,basic_agent_pid,0,0.0,basic_agent_longitudinal,0,0.0,follow_lane,clear,7.019261481901675e-05,0.0002526934133484603,5.555555555555555,20.0,5.555485362940736,5.579122080234811e-05,0.75,0.0,1199.9569091796875,-82.53412628173828,342.963623046875,-0.0315856896340847,0.5984953045845032,-0.005767821334302425,-0.0005101065034978092,0.00010881463822443038,0.05555788427591324,0.0032496382482349873,-0.0016525117680430412,-0.32647326588630676,-0.00015981296141052997,-0.0016835868925525763,1.8224514860776253e-05,94,1,1,,,,,0,13.397323608398438,8.397323608398438,2.3,2.3,11.097323608398437,,0.004077730234712362,1,0.010383903980255127,0.010383903980255127,13.396601676940918,0.13911402225494385,0.13911402225494385,0,10.593972206115723,,,,,none,0,0,,,-9.918211117110332e-05,3.052130341529846e-05,0,0,0,,0.0,0,0,0
20260628T181952Z_pid_c642c451,pid,RouteScenario_0_rep0,0,0,Town12,487442,0.30000000447034836,basic_agent,basic_agent,0.0,basic_agent_pid,0,0.0,basic_agent_longitudinal,0,0.0,follow_lane,clear,3.309391195722518e-05,0.00011913808304601064,5.555555555555555,20.0,5.555522461643598,7.093851309036836e-05,0.75,0.0,1199.9569091796875,-82.53414154052734,342.9660339355469,-0.0315856896340847,0.5976278781890869,-0.004974364768713713,-0.0004066967812832445,0.000156838636030443,0.04217053949832916,0.0020681945607066154,0.0009604799561202526,-0.2677468955516815,-0.0007251511165638264,0.0009383737899028169,1.5825928130652755e-05,94,1,1,,,,,0,12.482498168945312,7.4824981689453125,2.3,2.3,10.182498168945312,,0.0033682321663945913,2,0.08187352120876312,0.07121483981609344,12.450859069824219,0.8881879448890686,0.8881879448890686,0,9.907390594482422,,,,,none,0,0,,,-0.00011444089750511921,3.052130341529846e-05,0,0,0,,0.0,0,0,0
20260628T181952Z_pid_c642c451,pid,RouteScenario_0_rep0,0,0,Town12,487443,0.3500000052154064,basic_agent,basic_agent,0.0,basic_agent_pid,0,0.0,basic_agent_longitudinal,0,0.0,follow_lane,clear,5.665242762685124e-05,0.00020394873945666446,5.555555555555555,20.0,5.555498903127929,5.2571853302652016e-05,0.75,0.0,1199.9569091796875,-82.53414154052734,342.96783447265625,-0.0315551720559597,0.5968902111053467,-0.004333495162427425,-0.00028094573644921184,-3.1272466003429145e-06,0.03240516409277916,0.0025150207802653313,-0.0031993177253752947,-0.19530750811100006,0.0004820275689002517,-0.0032127050482303955,0.00011751092097256333,94,1,1,,,,,0,14.573840141296387,9.573840141296387,2.3,2.3,12.273840141296386,,0.0019595345947891474,3,0.08808499574661255,0.12459619343280792,14.46086311340332,1.8111504316329956,1.8111504316329956,0,11.85059928894043,,,,,none,0,0,,,-0.00011444089750511921,6.103888154029846e-05,0,0,0,,0.0,0,0,0
20260628T181952Z_pid_c642c451,pid,RouteScenario_0_rep0,0,0,Town12,487444,0.4000000059604645,basic_agent,basic_agent,0.0,basic_agent_pid,0,0.0,basic_agent_longitudinal,0,0.0,follow_lane,clear,3.335496422821673e-05,0.00012007787122158023,5.555555555555555,20.0,5.555522200591327,6.613255391130224e-05,0.75,0.0,1199.9569091796875,-82.53414916992188,342.96923828125,-0.0315551795065403,0.5962276458740234,-0.003936767112463713,-0.0002272278070449829,0.00016744004096835852,0.025049390271306038,0.0010743585880845785,0.0034113458823412657,-0.14711546897888184,-0.0004584542584007977,0.003401828508391209,2.4693808882148005e-05,94,1,1,,,,,0,14.461148262023926,9.461148262023926,2.3,2.3,12.161148262023925,,0.0016719914274290204,1,0.09690721333026886,-0.09690721333026886,14.393299102783203,-1.3991972208023071,1.3991972208023071,0,11.914008140563965,,,,,none,0,0,,,-0.00012207029067212716,6.103143095970154e-05,0,0,0,,0.0,0,0,0
20260628T181952Z_pid_c642c451,pid,RouteScenario_0_rep0,0,0,Town12,487445,0.45000000670552254,basic_agent,basic_agent,0.0,basic_agent_pid,0,0.0,basic_agent_longitudinal,0,0.0,follow_lane,clear,5.0693785780303954e-05,0.00018249762880909423,5.555555555555555,20.0,5.555504861769775,6.99312804499641e-05,0.75,0.0,1199.9569091796875,-82.5341567993164,342.9703063964844,-0.0315551720559597,0.595565140247345,-0.0026245112530887127,-0.0001500555081292987,7.535316399298608e-05,0.019316453486680984,0.0015434459783136845,-0.0018417375395074487,-0.11465873569250107,0.00035256956809630465,-0.001846139721078553,-0.00015255714242812246,94,1,1,,,,,0,12.759074211120605,7.7590742111206055,2.300038264274202,2.300038266104181,10.459035945016424,,-0.0001913101878017187,3,0.05614146590232849,0.04074866324663162,12.748482704162598,0.5197713375091553,0.5197713375091553,0,10.088338851928711,,,,,none,0,0,,,-0.0001296996838391351,6.103888154029846e-05,0,0,0,,0.0,0,0,0
20260628T181952Z_pid_c642c451,pid,RouteScenario_0_rep0,0,0,Town12,487446,0.5000000074505806,basic_agent,basic_agent,0.0,basic_agent_pid,0,0.0,basic_agent_longitudinal,0,0.0,follow_lane,clear,-5.212133744836844e-06,-1.876368148141264e-05,5.555555555555555,20.0,5.5555607676893,6.237884372239932e-05,0.75,0.0,1199.9569091796875,-82.5341567993164,342.97113037109375,-0.0315551795065403,0.5953260660171509,-0.0027465822640806437,-0.00015567279479000717,-0.00015854625962674618,0.014471784234046936,-0.00011234573321416974,-0.004677988588809967,-0.09689338505268097,-0.0011165063072340413,-0.004682694087831539,0.00026275654090568423,94,1,1,,,,,0,12.506925582885742,7.506925582885742,2.3,2.3,10.206925582885741,,0.001179313287138939,1,0.12051565200090408,0.12051565200090408,12.416210174560547,1.5036343336105347,1.5036343336105347,0,10.0048828125,,,,,none,0,0,,,-0.0001296996838391351,6.103143095970154e-05,0,0,0,,0.0,0,0,0
20260628T181952Z_pid_c642c451,pid,RouteScenario_0_rep0,0,0,Town12,487447,0.5500000081956387,basic_agent,basic_agent,0.0,basic_agent_pid,0,0.0,basic_agent_longitudinal,0,0.0,follow_lane,clear,-4.189729755302604e-08,-1.5083027119089374e-07,5.555555555555555,20.0,5.5555555974528525,6.242630479391664e-05,0.75,0.0,1199.9569091796875,-82.5341567993164,342.9717102050781,-0.03155517578125,0.5952919125556946,-0.0026550290640443563,-0.00011199302389286458,0.00012562403571791947,0.010781364515423775,0.0008735954179428518,0.005683405790477991,-0.07380839437246323,0.00010357723854250204,0.005680465456723017,-8.636002894490957e-05,94,1,1,,,,,0,14.048158645629883,9.048158645629883,2.3,2.3,11.748158645629882,,0.0007421622867695987,1,0.1276174783706665,0.1276174783706665,13.933917999267578,1.7879282236099243,1.7879282236099243,0,10.714261054992676,,,,,none,0,0,,,-0.0001296996838391351,6.103515625e-05,0,0,0,,0.0,0,0,0
20260628T181952Z_pid_c642c451,pid,RouteScenario_0_rep0,0,0,Town12,487448,0.6000000089406967,basic_agent,basic_agent,0.0,basic_agent_pid,0,0.0,basic_agent_longitudinal,0,0.0,follow_lane,clear,8.663879566033653e-06,3.118996643772115e-05,5.555555555555555,20.0,5.55554689167599,7.065552927087992e-05,0.75,0.0,1199.9569091796875,-82.53416442871094,342.9721374511719,-0.031524658203125,0.5950596928596497,-0.0020141599234193563,-7.390558312181383e-05,6.989348912611604e-05,0.007953724823892117,0.000761748815421015,-0.0011146109318360686,-0.05655279383063316,0.00017498813517635887,-0.001116179823613079,-0.0001311686064582318,94,1,1,,,,,0,12.78532886505127,7.7853288650512695,2.3,2.3,10.485328865051269,,0.000548491021618247,1,0.034021370112895966,0.034021370112895966,12.777931213378906,0.434890478849411,0.434890478849411,0,10.096125602722168,,,,,none,0,0,,,-0.00013732907700614305,9.1552734375e-05,0,0,0,,0.0,0,0,0
20260628T181952Z_pid_c642c451,pid,RouteScenario_0_rep0,0,0,Town12,487449,0.6500000096857548,basic_agent,basic_agent,0.0,basic_agent_pid,0,0.0,basic_agent_longitudinal,0,0.0,follow_lane,clear,0.09941547476781878,0.35789570916414765,5.555555555555555,20.0,5.456140080787737,7.711182115599513e-05,0.75,0.0,1199.9578857421875,-82.53416442871094,342.9725341796875,-0.0316467247903347,0.6006126403808594,-0.0014343260554596782,0.0993502214550972,-9.880797733785585e-05,0.006741962395608425,1.9884824752807617,-0.0033740291837602854,-0.024235248565673828,1.988120659792252,-0.002276839532632997,0.000400919234380126,94,1,1,,,,,0,12.958428382873535,7.958428382873535,2.30359565818026,2.3036116439729812,10.654816738900553,724.7199994499756,-0.017880599945783615,2,0.02842980995774269,0.005181855987757444,12.95825481414795,0.06714840978384018,0.06714840978384018,0,10.175834655761719,,,,,none,0,0,,,-0.00013732907700614305,-3.0513852834701538e-05,0,0,0,,0.0,0,0,0
20260628T181952Z_pid_c642c451,pid,RouteScenario_0_rep0,0,0,Town12,487450,0.7000000104308128,basic_agent,basic_agent,0.0,basic_agent_pid,0,0.0,basic_agent_longitudinal,0,0.0,follow_lane,clear,0.5099503697927628,1.835821331253946,5.555555555555555,20.0,5.045605185762793,0.0008932357304729521,0.75,0.0,1199.9761962890625,-82.53419494628906,342.97259521484375,-0.0392761155962944,0.6789754033088684,-9.155274165095761e-05,0.5098885297775269,-0.0008215897250920534,0.008202333003282547,8.210765838623047,-0.014455635100603104,0.029207412153482437,8.210543386816713,-0.008827281038257064,-0.3314347267150879,94,1,1,,,,,0,13.87447452545166,8.87447452545166,2.3733566236938257,2.3788983172440563,11.495576208207604,41.675449527197934,-0.3329172134399414,1,0.057895999401807785,-0.057895999401807785,13.851227760314941,-0.8028278946876526,0.8028278946876526,0,10.911165237426758,,,,,none,0,0,,,-0.0001602172565071669,-0.007659904658794403,0,0,0,,0.0,0,0,0
20260628T181952Z_pid_c642c451,pid,RouteScenario_0_rep0,0,0,Town12,487451,0.7500000111758709,basic_agent,basic_agent,0.0,basic_agent_pid,0,0.0,basic_agent_longitudinal,0,0.0,follow_lane,clear,0.7282263697944528,2.62161493126003,5.555555555555555,20.0,4.827329185761102,0.0007463734364137053,0.75,0.0,1200.0091552734375,-82.53421020507812,342.9727783203125,-0.0432128868997097,0.7638199925422668,-0.00018310545419808477,0.7281620502471924,-0.0009363897843286395,0.009641150943934917,4.3654704093933105,-0.002296001184731722,0.02877635881304741,4.365466489520278,0.0009963741480429511,-0.511176347732544,94,1,1,,,,,0,15.552675247192383,10.552675247192383,2.448832534890509,2.46835496812361,13.084320279068773,24.889898909637367,-0.6248589158058167,2,0.04252365604043007,0.05964570492506027,15.525017738342285,0.9271003007888794,0.9271003007888794,0,11.609403610229492,,,,,none,0,0,,,-0.0001602172565071669,-0.011596675962209702,0,0,0,,0.0,0,0,0
20260628T181952Z_pid_c642c451,pid,RouteScenario_0_rep0,0,0,Town12,487452,0.800000011920929,basic_agent,basic_agent,0.0,basic_agent_pid,0,0.0,basic_agent_longitudinal,0,0.0,follow_lane,clear,0.9163045122730167,3.2986962441828602,5.555555555555555,20.0,4.639251043282538,-4.05169339501299e-06,0.75,0.0,1200.0526123046875,-82.53425598144531,342.9731140136719,-0.0382690466940403,0.827545702457428,-0.00012207029067212716,0.9162423610687256,-0.0004352390533313155,0.010914201848208904,3.761606216430664,0.01002301461994648,0.025461018085479736,3.761573990432719,0.012535405683306695,0.7514728307723999,94,1,1,,,,,0,14.2671480178833,9.2671480178833,2.5097609307884814,2.54466441156641,11.72248360631689,17.076065004082764,-0.8355056047439575,1,0.11159048974514008,0.11159048974514008,14.178409576416016,1.588775873184204,1.588775873184204,0,10.46525764465332,,,,,none,0,0,,,-0.00018310543600819074,-0.0066528357565402985,0,0,0,,0.0,0,0,0
20260628T181952Z_pid_c642c451,pid,RouteScenario_0_rep0,0,0,Town12,487453,0.850000012665987,basic_agent,basic_agent,0.0,basic_agent_pid,0,0.0,basic_agent_longitudinal,0,0.0,follow_lane,clear,1.071044704661258,3.8557609367805283,5.555555555555555,20.0,4.4845108508942975,-0.0007773451507091522,0.75,0.0,1200.104248046875,-82.5343246459961,342.9735412597656,-0.027099609375,0.8662455081939697,2.0135183149250224e-05,1.0709863901138306,-0.001470714807510376,0.011915330775082111,3.0948805809020996,-0.020709514617919922,0.020022578537464142,3.0948390849749363,-0.019245694195656225,0.575404703617096,94,1,1,,,,,0,12.663592338562012,7.663592338562012,2.564570895253483,2.6156481847959285,10.047944153766084,12.529334447996437,-1.0107154846191406,2,0.09880919754505157,0.12805838882923126,12.55989933013916,1.6172505617141724,1.6172505617141724,0,9.181571006774902,,,,,none,0,0,,,-0.00022125240184323047,0.0045166015625,0,0,0,,0.0,0,0,0
20260628T181952Z_pid_c642c451,pid,RouteScenario_0_rep0,0,0,Town12,487454,0.9000000134110451,basic_agent,basic_agent,0.0,basic_agent_pid,0,0.0,basic_agent_longitudinal,0,0.0,follow_lane,clear,1.2231981366854727,4.403513292067702,5.555555555555555,20.0,4.332357418870083,-0.00025682843988761306,0.75,0.0,1200.1636962890625,-82.5344009399414,342.97406005859375,-0.02432251162827015,0.8884709477424622,0.0003384838637430221,1.2231379747390747,-0.00199855281971395,0.013315916061401367,3.043031692504883,-0.010556760244071484,0.028011705726385117,3.043104322484251,-0.009264854601790676,0.754869282245636,94,1,1,,,,,0,17.36983871459961,12.36983871459961,2.61770895999032,2.6861723668892776,14.683666347710332,14.844020130010307,-1.1701573133468628,1,0.10615108907222748,-0.10615108907222748,17.27206802368164,-1.8403664827346802,1.8403664827346802,0,14.732670783996582,,,,,none,0,0,,,-0.00026702876084527816,0.007293699309229851,0,0,0,,0.0,0,0,0
20260628T181952Z_pid_c642c451,pid,RouteScenario_0_rep0,0,0,Town12,487455,0.9500000141561031,basic_agent,basic_agent,0.0,basic_agent_pid,0,0.0,basic_agent_longitudinal,0,0.0,follow_lane,clear,1.4072076942338074,5.065947699241707,5.555555555555555,20.0,4.1483478613217475,-0.0011332277208566666,0.75,0.0,1200.23095703125,-82.53447723388672,342.97479248046875,-0.013824462890625,0.9023772478103638,-0.000579833984375,1.4071600437164307,-0.00012347832671366632,0.014107598923146725,3.680441379547119,0.037501487880945206,0.01583365723490715,3.6802251814770313,0.03838908725091632,0.306405633687973,94,1,1,,,,,0,15.557467460632324,10.557467460632324,2.672502199730825,2.7603618020750385,12.797105658557285,11.736248236826617,-1.3255912065505981,1,0.1261795610189438,0.1261795610189438,15.433784484863281,1.957829475402832,1.957829475402832,0,10.072959899902344,,,,,none,0,0,,,-0.0003051757266803179,0.017791748046875,0,0,0,,0.0,0,0,0
20260628T181952Z_pid_c642c451,pid,RouteScenario_0_rep0,0,0,Town12,487456,1.0000000149011612,basic_agent,basic_agent,0.0,basic_agent_pid,0,0.0,basic_agent_longitudinal,0,0.0,follow_lane,clear,1.5122474415730005,5.444090789662802,5.555555555555555,20.0,4.043308113982555,-0.0024400947149842978,0.75,0.0,1200.304443359375,-82.53459167480469,342.97552490234375,0.0045755659230053425,0.9036135077476501,-0.0010986326960846782,1.512198805809021,-0.0010070588905364275,0.01501411385834217,2.1007752418518066,-0.0176716111600399,0.01813029870390892,2.1007985519551493,-0.017839663987534143,0.028077762573957443,94,1,1,,,,,0,18.239450454711914,13.239450454711914,2.7244287272615115,2.8318445480814276,15.407605906630486,12.444075161421477,-1.465713620185852,2,0.05094020813703537,0.08897679299116135,18.16729736328125,1.6207473278045654,1.6207473278045654,0,12.849845886230469,,,,,none,0,0,,,-0.0003738402651833894,0.03619177686050534,0,0,0,,0.0,0,0,0
20260628T181952Z_pid_c642c451,pid,RouteScenario_0_rep0,0,0,Town12,487457,1.0500000156462193,basic_agent,basic_agent,0.0,basic_agent_pid,0,0.0,basic_agent_longitudinal,0,0.0,follow_lane,clear,1.6029902642405178,5.770764951265864,5.555555555555555,20.0,3.9525652913150378,-0.0006998281460255384,0.75,0.0,1200.3824462890625,-82.53467559814453,342.9763488769531,0.0011694604763761163,0.8915855288505554,-0.0007324218167923391,1.602952480316162,-0.0021122589241713285,0.014903096482157707,1.8150734901428223,-0.02210400067269802,-0.00222034752368927,1.8148187619591687,-0.02214143744187542,-0.08763444423675537,94,1,1,,,,,0,14.222478866577148,9.222478866577148,2.7608700853060313,2.8826100207586416,11.339868845818508,9.114729105139704,-1.5603841543197632,3,0.022092534229159355,-0.0048467363230884075,14.222311973571777,-0.06893233209848404,0.06893233209848404,0,9.929767608642578,,,,,none,0,0,,,-0.0004196166241854371,0.032785671413876116,0,0,0,,0.0,0,0,0
20260628T181952Z_pid_c642c451,pid,RouteScenario_0_rep0,0,0,Town12,487458,1.1000000163912773,basic_agent,basic_agent,0.0,basic_agent_pid,0,0.0,basic_agent_longitudinal,0,0.0,follow_lane,clear,1.790696668814928,6.44650800773374,5.555555555555555,20.0,3.7648588867406274,-0.0008472214685752988,0.75,0.0,1200.46728515625,-82.53472137451172,342.9771423339844,2.3876104023656808e-05,0.8862375020980835,-0.0013122556265443563,1.7906458377838135,-0.0013730756472796202,0.017135342583060265,3.7538671493530273,0.014783665537834167,0.04464492201805115,3.7541086229453278,0.0147817938319977,0.024220649152994156,94,1,1,,,,,0,18.189197540283203,13.189197540283203,2.8112793301194197,2.9535607530581744,15.23563678722503,10.782623517435667,-1.6868990659713745,1,0.10435321927070618,-0.10435321927070618,18.09025001525879,-1.8946583271026611,1.8946583271026611,0,19.239009857177734,,,,,none,0,0,,,-0.0004196166241854371,0.03164008704152366,0,0,0,,0.0,0,0,0
20260628T181952Z_pid_c642c451,pid,RouteScenario_0_rep0,0,0,Town12,487459,1.1500000171363354,basic_agent,basic_agent,0.0,basic_agent_pid,0,0.0,basic_agent_longitudinal,0,0.0,follow_lane,clear,1.9641803115720013,7.071049121659205,5.555555555555555,20.0,3.591375243983554,-0.003107651835307479,0.75,0.0,1200.5621337890625,-82.53483581542969,342.97808837890625,0.02169870026409626,0.8953079581260681,-0.00238037109375,1.9641271829605103,-0.000662588223349303,0.01877131499350071,3.4696269035339355,0.0142097482457757,0.0327194482088089,3.4697197946975877,0.012894858746653404,0.9029387831687927,94,1,1,,,,,0,21.150442123413086,16.150442123413086,2.8937703163703956,3.0712690019753266,18.07917312143776,11.225530692571917,-1.8841373920440674,2,0.08348503708839417,0.12658679485321045,20.98120880126953,2.6702218055725098,2.6702218055725098,0,15.105731010437012,,,,,none,0,0,,,-0.0004806517695215007,0.05331491120159626,0,0,0,,0.0,0,0,0
20260628T181952Z_pid_c642c451,pid,RouteScenario_0_rep0,0,0,Town12,487460,1.2000000178813934,basic_agent,basic_agent,0.0,basic_agent_pid,0,0.0,basic_agent_longitudinal,0,0.0,follow_lane,clear,2.1535944971705043,7.752940189813816,5.555555555555555,20.0,3.401961058385051,-0.002792702754959464,0.75,0.0,1200.666015625,-82.53498840332031,342.97900390625,0.03384526073932648,0.9055191278457642,-0.0014038084773346782,2.153543472290039,-0.0025362535379827023,0.020365208387374878,3.788325786590576,-0.03747330605983734,0.03187786787748337,3.788333707382631,-0.03971179168436424,-0.1111401915550232,94,1,1,,,,,0,16.38774299621582,11.38774299621582,2.9714360002522677,3.183663828417209,13.20407916779861,7.95431859316487,-2.060232162475586,3,0.10695085674524307,-0.14282087981700897,16.220890045166016,-2.3325629234313965,2.3325629234313965,0,16.04933738708496,,,,,none,0,0,,,-0.000572204487525596,0.06546147167682648,0,0,0,,0.0,0,0,0
20260628T181952Z_pid_c642c451,pid,RouteScenario_0_rep0,0,0,Town12,487461,1.2500000186264515,basic_agent,basic_agent,0.0,basic_agent_pid,0,0.0,basic_agent_longitudinal,0,0.0,follow_lane,clear,2.2968192910948018,8.268549447941286,5.555555555555555,20.0,3.2587362644607536,-0.003564425278455019,0.75,0.0,1200.778076171875,-82.53516387939453,342.98004150390625,0.05003702640533447,0.9104027152061462,-0.00274658203125,2.2967543601989746,-0.0024794915225356817,0.022525500506162643,2.864217758178711,0.0011352403089404106,0.04320584237575531,2.864542630181593,-0.0013662228126906512,0.6713113784790039,94,1,1,,,,,0,13.24946117401123,8.24946117401123,3.0501751680203024,3.298950289781842,9.950510884229388,5.939908366463601,-2.230583429336548,1,0.009849458932876587,0.009849458932876587,13.248818397521973,0.13049791753292084,0.13049791753292084,0,9.233166694641113,,,,,none,0,0,,,-0.0006866453850307153,0.08165323734283447,0,0,0,,0.0,0,0,0
20260628T181952Z_pid_c642c451,pid,RouteScenario_0_rep0,0,0,Town12,487462,1.3000000193715096,basic_agent,basic_agent,0.0,basic_agent_pid,0,0.0,basic_agent_longitudinal,0,0.0,follow_lane,clear,2.483553454978113,8.940792437921207,5.555555555555555,20.0,3.0720021005774423,-0.0026497216895222664,0.75,0.0,1200.8984375,-82.53532409667969,342.981201171875,0.05238685756921768,0.9148150086402893,-0.0023498532827943563,2.48349928855896,-0.0028585109394043684,0.023448189720511436,3.734898567199707,-0.0075803883373737335,0.01845378428697586,3.7347087535197367,-0.010996977725702576,-0.35897117853164673,94,1,1,,,,,0,20.92941665649414,15.92941665649414,3.1336102073407788,3.4223937672226032,17.50702288927154,8.70875139657544,-2.4032626152038574,1,0.03305840864777565,0.03305840864777565,20.917980194091797,0.6917672157287598,0.6917672157287598,0,14.34250259399414,,,,,none,0,0,,,-0.0007781981030348106,0.08400306850671768,0,0,0,,0.0,0,0,0
20260628T181952Z_pid_c642c451,pid,RouteScenario_0_rep0,0,0,Town12,487463,1.3500000201165676,basic_agent,basic_agent,0.0,basic_agent_pid,0,0.0,basic_agent_longitudinal,0,0.0,follow_lane,clear,2.63059789246382,9.470152412869753,5.555555555555555,20.0,2.9249576630917353,-0.003291449975222349,0.75,0.0,1201.0272216796875,-82.53545379638672,342.9824523925781,0.06018933281302452,0.9159078001976013,-0.0022583010140806437,2.6305296421051025,-0.0020853341557085514,0.025523241609334946,2.9406070709228516,0.01546353567391634,0.041501037776470184,2.940909339698411,0.012374197118388972,0.7188223600387573,94,1,1,,,,,0,14.452370643615723,9.452370643615723,3.2084767140715487,3.5341508673482167,10.918219776267506,5.662815951117399,-2.552152633666992,2,0.11063963174819946,0.08670927584171295,14.398075103759766,1.2515848875045776,1.2515848875045776,0,10.132776260375977,,,,,none,0,0,,,-0.0008392332483708742,0.09180554375052452,0,0,0,,0.0,0,0,0
20260628T181952Z_pid_c642c451,pid,RouteScenario_0_rep0,0,0,Town12,487464,1.4000000208616257,basic_agent,basic_agent,0.0,basic_agent_pid,0,0.0,basic_agent_longitudinal,0,0.0,follow_lane,clear,2.7701798028914437,9.972647290409197,5.555555555555555,20.0,2.7853757526641116,-0.0012473695678636432,0.75,0.0,1201.162841796875,-82.5355453491211,342.9837951660156,0.04558710381388664,0.9094191193580627,-0.0016174317570403218,2.7701146602630615,-0.002980478573590517,0.026293544098734856,2.7917003631591797,-0.017902888357639313,0.0154060497879982,2.791578209048122,-0.020124901354203344,-0.8958698511123657,94,1,1,,,,,0,15.071714401245117,10.071714401245117,3.290833868603662,3.658053028982255,11.413661372262862,5.56141099904872,-2.710052251815796,2,0.006655875593423843,-0.008136264979839325,15.071215629577637,-0.12262611091136932,0.12262611091136932,0,10.38122272491455,,,,,none,0,0,,,-0.0008544920347048901,0.07720331475138664,0,0,0,,0.0,0,0,0
20260628T181952Z_pid_c642c451,pid,RouteScenario_0_rep0,0,0,Town12,487465,1.4500000216066837,basic_agent,basic_agent,0.0,basic_agent_pid,0,0.0,basic_agent_longitudinal,0,0.0,follow_lane,clear,2.937041315744834,10.573348736681403,5.555555555555555,20.0,2.6185142398107213,-0.0023501303512603045,0.75,0.0,1201.3062744140625,-82.53561401367188,342.9851989746094,0.046233776956796646,0.9043306708335876,-0.0021972658578306437,2.936983823776245,-0.0007325292681343853,0.02691919356584549,3.337383270263672,0.04495898634195328,0.012512989342212677,3.337200290910372,0.04226439305780323,0.5496822595596313,94,1,1,,,,,0,12.972318649291992,7.972318649291992,3.3680232564113224,3.7750051136272758,9.197313535664716,4.546896677939927,-2.8530049324035645,3,0.067660391330719,0.06830721348524094,12.94206714630127,0.8854140043258667,0.8854140043258667,0,9.114136695861816,,,,,none,0,0,,,-0.0008468626415378822,0.07784998789429665,0,0,0,,0.0,0,0,0
20260628T181952Z_pid_c642c451,pid,RouteScenario_0_rep0,0,0,Town12,487466,1.5000000223517418,basic_agent,basic_agent,0.0,basic_agent_pid,0,0.0,basic_agent_longitudinal,0,0.0,follow_lane,clear,3.1245852376833128,11.248506855659926,5.555555555555555,20.0,2.4309703178722426,-0.0013123314129188657,0.75,0.0,1201.4586181640625,-82.53565216064453,342.98663330078125,0.0331353135406971,0.9052322506904602,-0.0019836428109556437,3.1245086193084717,-0.002046353882178664,0.029640665277838707,3.7504959106445312,-0.026276493445038795,0.05442943423986435,3.7508718486039214,-0.02844564369130797,-0.7395145893096924,94,1,1,,,,,0,13.822628021240234,8.822628021240234,3.4726014493333217,3.9345947566225528,9.888033264617683,4.547343705096236,-3.039714813232422,3,0.03090055286884308,0.00855390727519989,13.822122573852539,0.11823603510856628,0.11823603510856628,0,9.582033157348633,,,,,none,0,0,,,-0.0008010862825358345,0.0647515244781971,0,0,0,,0.0,0,0,0
20260628T181952Z_pid_c642c451,pid,RouteScenario_0_rep0,0,0,Town12,487467,1.5500000230967999,basic_agent,basic_agent,0.0,basic_agent_pid,0,0.0,basic_agent_longitudinal,0,0.0,follow_lane,clear,3.3272756692849814,11.978192409425933,5.555555555555555,20.0,2.228279886270574,-0.0019251080229878426,0.75,0.0,1201.6209716796875,-82.53571319580078,342.9881591796875,0.032428547739982605,0.9109969139099121,-0.0019226073054596782,3.3272035121917725,-0.0011062906123697758,0.03106294572353363,4.053897857666016,0.018801264464855194,0.028445608913898468,4.05384753612094,0.016505607770709602,0.3798280656337738,94,1,1,,,,,0,20.67529296875,15.67529296875,3.5838120246313134,4.105590573293172,16.56970239545683,6.400200275496895,-3.2304134368896484,2,0.07124127447605133,0.09266496449708939,20.586589813232422,1.9131345748901367,1.9131345748901367,0,10.958378791809082,,,,,none,0,0,,,-0.0007705687098678027,0.0640447586774826,0,0,0,,0.0,0,0,0
20260628T181952Z_pid_c642c451,pid,RouteScenario_0_rep0,0,0,Town12,487468,1.600000023841858,basic_agent,basic_agent,0.0,basic_agent_pid,0,0.0,basic_agent_longitudinal,0,0.0,follow_lane,clear,3.5456111884646706,12.764200278472815,5.555555555555555,20.0,2.0099443670908848,-0.0008745737140998244,0.75,0.0,1201.7938232421875,-82.53578186035156,342.9897155761719,0.021828532218933105,0.9212285280227661,0.0004421636986080557,3.545515298843384,-0.002077691024169326,0.03453318402171135,4.366235733032227,-0.019428007304668427,0.06940476596355438,4.366779468679114,-0.021091447428800363,-0.47127455472946167,94,1,1,,,,,0,13.285636901855469,8.285636901855469,3.6866313341096744,4.264734563472723,9.020902338382745,3.9071913734958446,-3.400303602218628,1,0.15673388540744781,0.15673388540744781,13.122786521911621,2.0737946033477783,2.0737946033477783,0,9.427215576171875,,,,,none,0,0,,,-0.0007476805303667788,0.053444743156433105,0,0,0,,0.0,0,0,0
20260628T181952Z_pid_c642c451,pid,RouteScenario_0_rep0,0,0,Town12,487469,1.650000024586916,basic_agent,basic_agent,0.0,basic_agent_pid,0,0.0,basic_agent_longitudinal,0,0.0,follow_lane,clear,3.7698564927460065,13.571483373885624,5.555555555555555,20.0,1.7856990628095488,-0.0013503747759386897,0.75,0.0,1201.9781494140625,-82.53582763671875,342.9914245605469,0.01899874396622181,0.9338575601577759,-0.0007934569148346782,3.769763708114624,-0.0011770684504881501,0.03645176813006401,4.484968185424805,0.018012451007962227,0.03837168216705322,4.485003678209857,0.016524795605291943,0.07309035956859589,94,1,1,,,,,0,16.066862106323242,11.066862106323242,3.84722834273565,4.515091136086857,11.551770970236385,4.396149405649336,-3.6547579765319824,2,0.09822650253772736,-0.10415267944335938,15.979795455932617,-1.6703829765319824,1.6703829765319824,0,9.801040649414062,,,,,none,0,0,,,-0.0006866453850307153,0.05061495490372181,0,0,0,,0.0,0,0,0
20260628T181952Z_pid_c642c451,pid,RouteScenario_0_rep0,0,0,Town12,487470,1.700000025331974,basic_agent,basic_agent,0.0,basic_agent_pid,0,0.0,basic_agent_longitudinal,0,0.0,follow_lane,clear,3.985713391743547,14.348568210276769,5.555555555555555,20.0,1.5698421638120084,-0.0008736132294870913,0.75,0.0,1202.1732177734375,-82.53589630126953,342.99334716796875,0.012567820958793163,0.9443897008895874,-0.0008239745511673391,3.985629081726074,-0.0020898308139294386,0.03799664229154587,4.317307472229004,-0.018255246803164482,0.030897483229637146,4.317226260966693,-0.01920282657164077,-0.18508492410182953,94,1,1,,,,,0,12.997382164001465,7.997382164001465,3.978487026946129,4.721143857378638,8.276238306622826,3.3724599514375417,-3.8539767265319824,2,0.1265803426504135,0.13581614196300507,12.877691268920898,1.7598323822021484,1.7598323822021484,0,9.089741706848145,,,,,none,0,0,,,-0.0006484984191956755,0.04418403189629316,0,0,0,,0.0,0,0,0
20260628T181952Z_pid_c642c451,pid,RouteScenario_0_rep0,0,0,Town12,487471,1.750000026077032,basic_agent,basic_agent,0.0,basic_agent_pid,0,0.0,basic_agent_longitudinal,0,0.0,follow_lane,clear,4.193076819367182,15.095076549721854,5.555555555555555,20.0,1.3624787361883737,-0.0008509089821018279,0.75,0.0,1202.3787841796875,-82.5359878540039,342.99530029296875,0.008165432140231133,0.9504890441894531,-0.0001220703125,4.193004608154297,-0.0016983540263026953,0.039150286465883255,4.147510528564453,0.007829535752534866,0.02307288348674774,4.147323823776321,0.007238361345770377,-0.07399602234363556,94,1,1,,,,,0,16.423988342285156,11.423988342285156,4.1310897517015395,4.962130854312191,11.461857487972965,4.02858357922591,-4.076864242553711,1,0.10964149236679077,-0.10964149236679077,16.325368881225586,-1.797144889831543,1.797144889831543,0,12.778735160827637,,,,,none,0,0,,,-0.0006256102396946517,0.03978164307773113,0,0,0,,0.0,0,0,0
20260628T181952Z_pid_c642c451,pid,RouteScenario_0_rep0,0,0,Town12,487472,1.8000000268220901,basic_agent,basic_agent,0.0,basic_agent_pid,0,0.0,basic_agent_longitudinal,0,0.0,follow_lane,clear,4.394834790284892,15.821405245025613,5.555555555555555,20.0,1.1607207652706633,-0.0007204454741440713,0.75,0.0,1202.594482421875,-82.53607177734375,342.9972229003906,0.003844853490591049,0.9553931355476379,0.0003103745693806559,4.394784450531006,-0.0018304431578144431,0.03966884687542915,4.03559684753418,-0.0026417826302349567,0.010371208190917969,4.035208659603052,-0.002912284430341926,-0.08649562299251556,94,1,1,,,,,0,22.55953598022461,17.55953598022461,4.295451473119024,5.223216002858342,17.336319977366266,5.237165308726993,-4.3075852394104,3,0.020635634660720825,0.035525791347026825,22.54530143737793,0.8012768030166626,0.8012768030166626,0,13.597039222717285,,,,,none,0,0,,,-0.0005950926670266199,0.03546106442809105,0,0,0,,0.0,0,0,0
20260628T181952Z_pid_c642c451,pid,RouteScenario_0_rep0,0,0,Town12,487473,1.8500000275671482,basic_agent,basic_agent,0.0,basic_agent_pid,0,0.0,basic_agent_longitudinal,0,0.0,follow_lane,clear,4.593920387823309,16.538113396163915,5.555555555555555,20.0,0.9616351677322461,-0.0007930347346700728,0.75,0.0,1202.8203125,-82.53616333007812,342.99920654296875,-6.103515261202119e-05,0.9591156244277954,0.0006280741654336452,4.593864440917969,-0.0019640678074210882,0.041793107986450195,3.981599807739258,-0.002672492992132902,0.04248522222042084,3.9817530246800024,-0.00266798660159606,-0.07578080147504807,94,1,1,,,,,0,15.802180290222168,10.802180290222168,4.436550238401267,5.448480402828297,10.353699887393871,3.5125842013506134,-4.4987335205078125,2,0.05863446742296219,-0.07819311320781708,15.753896713256836,-1.2343629598617554,1.2343629598617554,0,10.377275466918945,,,,,none,0,0,,,-0.0005569457011915802,0.03155517578488798,0,0,0,,0.0,0,0,0
20260628T181952Z_pid_c642c451,pid,RouteScenario_0_rep0,0,0,Town12,487474,1.9000000283122063,basic_agent,basic_agent,0.0,basic_agent_pid,0,0.0,basic_agent_longitudinal,0,0.0,follow_lane,clear,4.791747548453387,17.250291174432192,5.555555555555555,20.0,0.7638080071021687,-0.0005531528149731457,0.75,0.0,1203.055908203125,-82.53623962402344,343.0013732910156,-0.004058837424963713,0.9616222977638245,0.0004671827773563564,4.791717052459717,-0.0024190698750317097,0.04201939329504967,3.957052230834961,-0.009100041352212429,0.004525706171989441,3.9565714948158135,-0.008819218858084047,-0.08276743441820145,94,1,1,,,,,0,13.239174842834473,8.239174842834473,4.550775363001594,5.631537466976442,7.6076373758580305,2.847612337078928,-4.649219512939453,2,0.1448185294866562,0.1355717033147812,13.117694854736328,1.7893644571304321,1.7893644571304321,0,9.164504051208496,,,,,none,0,0,,,-0.0005035399490225245,0.027557373512536287,0,0,0,,0.0,0,0,0
20260628T181952Z_pid_c642c451,pid,RouteScenario_0_rep0,0,0,Town12,487475,1.9500000290572643,basic_agent,basic_agent,0.0,basic_agent_pid,0,0.0,basic_agent_longitudinal,0,0.0,follow_lane,clear,4.989062210535382,17.960623957927375,5.555555555555555,20.0,0.5664933450201737,-0.00047523321700282395,0.75,0.0,1203.3013916015625,-82.53632354736328,343.00347900390625,-0.007568358443677425,0.9632751941680908,0.00034595245961099863,4.989041805267334,-0.0022377443965524435,0.04313845559954643,3.9464950561523438,0.0036265095695853233,0.022381246089935303,3.946313111246747,0.004148078537386532,-0.06611673533916473,94,1,1,,,,,0,14.327534675598145,9.327534675598145,4.735775878732658,5.929223767745235,8.39831090785291,2.9326128963055953,-4.885586738586426,2,0.05138586461544037,0.016207486391067505,14.325653076171875,0.2322031557559967,0.2322031557559967,0,9.627843856811523,,,,,none,0,0,,,-0.00045776359002047684,0.024047852493822575,0,0,0,,0.0,0,0,0
20260628T181952Z_pid_c642c451,pid,RouteScenario_0_rep0,0,0,Town12,487476,2.0000000298023224,basic_agent,basic_agent,0.0,basic_agent_pid,0,0.0,basic_agent_longitudinal,0,0.0,follow_lane,clear,5.186575205077459,18.671670738278856,5.555555555555555,20.0,0.36898035047809596,-0.00042692827992141247,0.75,0.0,1203.556884765625,-82.53641510009766,343.005859375,-0.010467529296875,0.9646685719490051,0.0005171927623450756,5.186493396759033,-0.0022332777734845877,0.04850268363952637,3.9490318298339844,8.93324613571167e-05,0.1072845607995987,3.9502783048997148,0.0008104241650462031,-0.05085618793964386,94,1,1,,,,,0,16.81018829345703,11.810188293457031,4.881169902905128,6.1641357545135635,10.646052538943469,3.3185627323173805,-5.065502643585205,3,0.11718713492155075,0.11777167022228241,16.693742752075195,1.97519052028656,1.97519052028656,0,11.46223258972168,,,,,none,0,0,,,-0.0004043578378514212,0.021148681640625,0,0,0,,0.0,0,0,0
20260628T181952Z_pid_c642c451,pid,RouteScenario_0_rep0,0,0,Town12,487477,2.0500000305473804,basic_agent,basic_agent,0.0,basic_agent_pid,0,0.0,basic_agent_longitudinal,0,0.0,follow_lane,clear,5.260016674981411,18.936060029933078,5.555555555555555,20.0,0.2955388805741448,-0.0006434270762838423,0.75,0.0,1203.820068359375,-82.53652954101562,343.00830078125,-0.01025390625,0.9535626769065857,0.00019481335766613483,5.259947776794434,-0.002305141417309642,0.04789144545793533,1.4690876007080078,-0.0014372728765010834,-0.012224763631820679,1.4686810006645998,-0.0011742337518017053,0.05348680913448334,94,1,1,,,,,0,14.204813003540039,9.204813003540039,4.979439028382102,6.323348138332005,7.881464865208034,2.739905436747776,-5.184417247772217,2,0.1631542295217514,0.16623543202877045,14.008995056152344,2.35048246383667,2.35048246383667,0,9.8875732421875,,,,,none,0,0,,,-0.0003738402651833894,0.0213623046875,0,0,0,,0.0,0,0,0
20260628T181952Z_pid_c642c451,pid,RouteScenario_0_rep0,0,0,Town12,487478,2.1000000312924385,basic_agent,basic_agent,0.0,basic_agent_pid,0,0.0,basic_agent_longitudinal,0,0.0,follow_lane,clear,5.21995734832225,18.7918464539601,5.555555555555555,20.0,0.33559820723330525,1.1354891285009217e-05,0.75,0.0,1204.0811767578125,-82.53665924072266,343.0108947753906,-0.01629638671875,0.893142819404602,0.0007271342910826206,5.219873428344727,-0.0028307074680924416,0.04603090137243271,-0.8014869689941406,-0.010511321015655994,-0.03721088171005249,-0.801966602098741,-0.010738970163890358,-0.13747455179691315,94,1,1,,,,,0,13.960088729858398,8.960088729858398,5.008375107235622,6.370293741130308,7.58979498872809,2.6748387112099925,-5.219039440155029,2,0.06382395327091217,0.025218389928340912,13.955649375915527,0.35201364755630493,0.35201364755630493,0,9.629648208618164,,,,,none,0,0,,,-0.0003585814788493735,0.01531982421875,0,0,0,,0.0,0,0,0
20260628T181952Z_pid_c642c451,pid,RouteScenario_0_rep0,0,0,Town12,487479,2.1500000320374966,basic_agent,basic_agent,0.0,basic_agent_pid,0,0.0,basic_agent_longitudinal,0,0.0,follow_lane,clear,5.174872053911629,18.629539394081863,5.555555555555555,20.0,0.3806835016439267,-2.7641608539852314e-05,0.75,0.0,1204.3399658203125,-82.5367431640625,343.0134582519531,-0.0204162560403347,0.8215692639350891,0.00037152584991417825,5.174757480621338,-0.002150187036022544,0.045061320066452026,-0.9023189544677734,0.013610408641397953,-0.019391626119613647,-0.9025090240610764,0.013288925543512605,-0.059361185878515244,94,1,1,,,,,0,14.87354564666748,9.87354564666748,4.977282914257512,6.319851232182737,8.553694414484744,2.8703265990533247,-5.181830406188965,2,0.06191626936197281,-0.08550108969211578,14.819212913513184,-1.270155429840088,1.270155429840088,0,11.127111434936523,,,,,none,0,0,,,-0.0003051757266803179,0.011199954897165298,0,0,0,,0.0,0,0,0
20260628T181952Z_pid_c642c451,pid,RouteScenario_0_rep0,0,0,Town12,487480,2.2000000327825546,basic_agent,basic_agent,0.0,basic_agent_pid,0,0.0,basic_agent_longitudinal,0,0.0,follow_lane,clear,5.202719767774633,18.72979116398868,5.555555555555555,20.0,0.35283578778092206,-0.0001914943422889337,0.75,0.0,1204.598876953125,-82.53683471679688,343.0159606933594,-0.02246093563735485,0.7626998424530029,9.435407991986722e-05,5.202579021453857,-0.0021274855826050043,0.04516877979040146,0.5564308166503906,0.00045402906835079193,0.0021491944789886475,0.556409929466625,0.0006721681890080551,-0.024655712768435478,94,1,1,,,,,0,14.116387367248535,9.116387367248535,4.975844635004306,6.3175186399880765,7.798868727260459,2.725116459148489,-5.1801042556762695,3,0.06132568418979645,-0.052268266677856445,14.097108840942383,-0.737503170967102,0.737503170967102,0,10.481501579284668,,,,,none,0,0,,,-0.00025176997451126226,0.00915527530014515,0,0,0,,0.0,0,0,0
20260628T181952Z_pid_c642c451,pid,RouteScenario_0_rep0,0,0,Town12,487481,2.2500000335276127,basic_agent,basic_agent,0.0,basic_agent_pid,0,0.0,basic_agent_longitudinal,0,0.0,follow_lane,clear,5.191048615260667,18.6877750149384,5.555555555555555,20.0,0.3645069402948886,-0.00017071956244762987,0.75,0.0,1204.8585205078125,-82.53693389892578,343.0184020996094,-0.02352905087172985,0.71744304895401,0.0007097889902070165,5.190893650054932,-0.0023423139937222004,0.04483409598469734,-0.23370742797851562,-0.004296568222343922,-0.006693676114082336,-0.23377114605001764,-0.004392495459212591,-0.016683893278241158,94,1,1,,,,,0,15.710554122924805,10.710554122924805,4.977724801331528,6.3205678962031415,9.389986226721664,3.03154395972543,-5.182360649108887,1,0.08214187622070312,0.08214187622070312,15.657581329345703,1.289043664932251,1.289043664932251,0,11.76488971710205,,,,,none,0,0,,,-0.00020599361550921458,0.00808716006577015,0,0,0,,0.0,0,0,0
20260628T181952Z_pid_c642c451,pid,RouteScenario_0_rep0,0,0,Town12,487482,2.3000000342726707,basic_agent,basic_agent,0.0,basic_agent_pid,0,0.0,basic_agent_longitudinal,0,0.0,follow_lane,clear,5.207459464777858,18.74685407320029,5.555555555555555,20.0,0.3480960907776973,-0.00013227216550149024,0.75,0.0,1205.1181640625,-82.53704071044922,343.02069091796875,-0.02465820126235485,0.6768170595169067,0.0011278627207502723,5.207301616668701,-0.002548058982938528,0.04406736418604851,0.3281593322753906,-0.004114899784326553,-0.015334635972976685,0.3279570203722673,-0.003973292258700209,-0.02000441402196884,94,1,1,,,,,0,16.47775650024414,11.47775650024414,4.9900618086353905,6.34057909540985,10.13717740483429,3.170538339066624,-5.197147846221924,1,0.028347881510853767,-0.028347881510853767,16.47113609313965,-0.46704694628715515,0.46704694628715515,0,12.306941986083984,,,,,none,0,0,,,-0.00016784664967417484,0.006958009675145149,0,0,0,,0.0,0,0,0
20260628T181952Z_pid_c642c451,pid,RouteScenario_0_rep0,0,0,Town12,487483,2.350000035017729,basic_agent,basic_agent,0.0,basic_agent_pid,0,0.0,basic_agent_longitudinal,0,0.0,follow_lane,clear,5.390390999317552,19.40540759754319,5.555555555555555,20.0,0.16516455623800308,-7.63915159041062e-05,0.6299545764923096,0.0,1205.3797607421875,-82.53717803955078,343.0229187011719,-0.02578735165297985,0.6518527269363403,0.0007592810434289277,5.390242576599121,-0.002772030420601368,0.0436471551656723,3.6588191986083984,-0.004479428753256798,-0.008404180407524109,3.6584883285711474,-0.0028320253224368404,-0.007501749321818352,94,1,1,,,,,0,17.29269790649414,12.29269790649414,4.955003990830588,6.283727471939736,11.008970434554405,3.3545205125674444,-5.155043125152588,1,0.17409580945968628,-0.17409580945968628,17.031293869018555,-2.99540114402771,2.99540114402771,0,15.516215324401855,,,,,none,0,0,,,-0.0001602172565071669,0.005828859284520149,0,0,0,,0.0,0,0,0
20260628T181952Z_pid_c642c451,pid,RouteScenario_0_rep0,0,0,Town12,487484,2.400000035762787,basic_agent,basic_agent,0.0,basic_agent_pid,0,0.0,basic_agent_longitudinal,0,0.0,follow_lane,clear,6.02204308040804,21.679355089468945,5.555555555555555,20.0,-0.4664875248524849,-0.00010894895967794582,0.0,0.30000001192092896,1205.670654296875,-82.53731536865234,343.0248718261719,-0.0263671837747097,0.7595511674880981,-0.0003662109375,6.021944046020508,-0.0030639006290584803,0.047328539192676544,12.634029388427734,-0.005837404169142246,0.07362768054008484,12.633896606603523,-2.3897090050316316e-05,-0.02683902531862259,94,1,1,,,,,0,24.03529930114746,19.03529930114746,5.4842381064842245,7.146124634733724,16.889174666413737,4.169018795443081,-5.765217304229736,1,0.03527364879846573,0.03527364879846573,24.020347595214844,0.8476369380950928,0.8476369380950928,0,17.484716415405273,,,,,none,0,0,,,-0.00013732907700614305,0.0052490271627902985,0,0,0,,0.0,0,0,0
20260628T181952Z_pid_c642c451,pid,RouteScenario_0_rep0,0,0,Town12,487485,2.450000036507845,basic_agent,basic_agent,0.0,basic_agent_pid,0,0.0,basic_agent_longitudinal,0,0.0,follow_lane,clear,6.163221420937519,22.187597115375066,5.555555555555555,20.0,-0.6076658653819633,-0.0001363341580145061,0.0,0.30000001192092896,1205.977294921875,-82.53746032714844,343.0269775390625,-0.02685546875,0.8344783186912537,-3.0517578125e-05,6.163161277770996,-0.003185964422300458,0.04895571619272232,2.8243446350097656,-0.002441275864839554,0.03254354000091553,2.8245199185644547,-0.001117463775577032,0.013072283938527107,94,1,1,,,,,0,14.29123306274414,9.29123306274414,5.775672935678995,7.62438951700824,6.666843545735901,2.3502796255849647,-6.080652236938477,2,0.039936915040016174,0.07562807947397232,14.250382423400879,1.0797885656356812,1.0797885656356812,0,10.10035514831543,,,,,none,0,0,,,-0.00011444089750511921,0.0047607421875,0,0,0,,0.0,0,0,0
20260628T181952Z_pid_c642c451,pid,RouteScenario_0_rep0,0,0,Town12,487486,2.500000037252903,basic_agent,basic_agent,0.0,basic_agent_pid,0,0.0,basic_agent_longitudinal,0,0.0,follow_lane,clear,6.20387241325504,22.333940687718144,5.555555555555555,20.0,-0.6483168576994842,-8.414651529164985e-05,0.0,0.30000001192092896,1206.286865234375,-82.53760528564453,343.02935791015625,-0.0275268517434597,0.8341914415359497,9.984776261262596e-05,6.203822612762451,-0.003366664284840226,0.04852144047617912,0.8132266998291016,-0.0036139972507953644,-0.008685514330863953,0.81301570431393,-0.0032232591616059934,-0.006712727248668671,94,1,1,,,,,0,13.293645858764648,8.293645858764648,5.79333299193753,7.653438534049792,5.640207324714856,2.1795172661106155,-6.099353313446045,1,0.15739576518535614,0.15739576518535614,13.129321098327637,2.083735227584839,2.083735227584839,0,9.563369750976562,,,,,none,0,0,,,-9.155271800409537e-05,0.0040893591940402985,0,0,0,,0.0,0,0,0
20260628T181952Z_pid_c642c451,pid,RouteScenario_0_rep0,0,0,Town12,487487,2.550000037997961,basic_agent,basic_agent,0.0,basic_agent_pid,0,0.0,basic_agent_longitudinal,0,0.0,follow_lane,clear,6.1512313859683045,22.144432989485896,5.555555555555555,20.0,-0.5956758304127492,-3.530711910570972e-05,0.0,0.30000001192092896,1206.5953369140625,-82.53775024414062,343.031982421875,-0.028503412380814552,0.7854375839233398,0.0005178196588531137,6.151139259338379,-0.0032390612177550793,0.048820629715919495,-1.0536670684814453,0.002552061341702938,0.005983784794807434,-1.0534872081326372,0.0020276998321785084,-0.02298361249268055,94,1,1,,,,,0,16.957664489746094,11.957664489746094,5.831624121622871,7.716448870493842,9.241215619252252,2.7619483498852087,-6.139747142791748,1,0.10678859055042267,-0.10678859055042267,16.861064910888672,-1.8074452877044678,1.8074452877044678,0,13.206217765808105,,,,,none,0,0,,,-6.103514533606358e-05,0.0031127985566854477,0,0,0,,0.0,0,0,0
20260628T181952Z_pid_c642c451,pid,RouteScenario_0_rep0,0,0,Town12,487488,2.600000038743019,basic_agent,basic_agent,0.0,basic_agent_pid,0,0.0,basic_agent_longitudinal,0,0.0,follow_lane,clear,6.091795463704872,21.93046366933754,5.555555555555555,20.0,-0.5362399081493168,-2.3005297407507896e-05,0.0,0.30000001192092896,1206.900390625,-82.53791046142578,343.0346374511719,-0.029205316677689552,0.7117671370506287,0.0015271547017619014,6.091663837432861,-0.003156547201797366,0.04836798459291458,-1.1895084381103516,0.0016502803191542625,-0.009052902460098267,-1.1895297800631524,0.001043800730071373,-0.02346084639430046,94,1,1,,,,,0,13.442461967468262,8.442461967468262,5.7361901522991605,7.5594712779951,5.882990689473162,2.2260606897144224,-6.038677215576172,2,0.16069117188453674,0.1573311984539032,13.276433944702148,2.1062042713165283,2.1062042713165283,0,10.102993965148926,,,,,none,0,0,,,-5.340575216905563e-05,0.0024108942598104477,0,0,0,,0.0,0,0,0
20260628T181952Z_pid_c642c451,pid,RouteScenario_0_rep0,0,0,Town12,487489,2.650000039488077,basic_agent,basic_agent,0.0,basic_agent_pid,0,0.0,basic_agent_longitudinal,0,0.0,follow_lane,clear,5.9564091278930915,21.44307286041513,5.555555555555555,20.0,-0.40085357233753616,-5.6512366427341476e-05,0.0,0.30000001192092896,1207.2003173828125,-82.53804779052734,343.03729248046875,-0.02954101376235485,0.6257887482643127,0.0010882292408496141,5.956236839294434,-0.0031190747395157814,0.0482274629175663,-2.7085399627685547,0.0007494492456316948,-0.002810433506965637,-2.708409118419284,-0.0006475500005177273,-0.010317348875105381,94,1,1,,,,,0,14.531380653381348,9.531380653381348,5.690446779698687,7.484306547805318,7.04707410557603,2.426038209656351,-5.989757537841797,1,0.09760188311338425,0.09760188311338425,14.462221145629883,1.4160393476486206,1.4160393476486206,0,11.198335647583008,,,,,none,0,0,,,-3.051757266803179e-05,0.0020751971751451492,0,0,0,,0.0,0,0,0
20260628T181952Z_pid_c642c451,pid,RouteScenario_0_rep0,0,0,Town12,487490,2.7000000402331352,basic_agent,basic_agent,0.0,basic_agent_pid,0,0.0,basic_agent_longitudinal,0,0.0,follow_lane,clear,5.852504273144822,21.06901538332136,5.555555555555555,20.0,-0.29694871758926666,-2.463977762090508e-05,0.0,0.30000001192092896,1207.4942626953125,-82.53820037841797,343.0399475097656,-0.0299987755715847,0.5396873950958252,0.001542121870443225,5.852314472198486,-0.0031169175636023283,0.04762499779462814,-2.0784473419189453,4.314351826906204e-05,-0.012049302458763123,-2.0784684407873844,-0.0010452870940263227,-0.010702183470129967,94,1,1,,,,,0,13.674564361572266,8.674564361572266,5.577406932492294,7.298785203838417,6.375779157733849,2.330560296385847,-5.8675007820129395,4,0.09047143161296844,-0.05286606028676033,13.655460357666016,-0.7225836515426636,0.7225836515426636,0,10.381524085998535,,,,,none,0,0,,,-1.5258786334015895e-05,0.0016174353659152985,0,0,0,,0.0,0,0,0
20260628T181952Z_pid_c642c451,pid,RouteScenario_0_rep0,0,0,Town12,487491,2.7500000409781933,basic_agent,basic_agent,0.0,basic_agent_pid,0,0.0,basic_agent_longitudinal,0,0.0,follow_lane,clear,5.682205915885121,20.45594129718644,5.555555555555555,20.0,-0.1266503603295659,-0.00011704042844939977,0.0,0.30000001192092896,1207.7808837890625,-82.53834533691406,343.0426025390625,-0.029479974880814552,0.45631808042526245,0.0017345214728266,5.6820244789123535,-0.0030040417332202196,0.045308683067560196,-3.4057998657226562,0.0022575166076421738,-0.04632629454135895,-3.406061574856723,0.0005057365999722643,0.01893025077879429,94,1,1,,,,,0,12.910792350769043,7.910792350769043,5.46873171367307,7.120739339302155,5.790053011466888,2.2461144125851917,-5.748056411743164,3,0.028553200885653496,-0.011666052974760532,12.909913063049316,-0.15061457455158234,0.15061457455158234,0,10.354000091552734,,,,,none,0,0,,,-7.629393167007947e-06,0.0021362360566854477,0,0,0,,0.0,0,0,0
20260628T181952Z_pid_c642c451,pid,RouteScenario_0_rep0,0,0,Town12,487492,2.8000000417232513,basic_agent,basic_agent,0.0,basic_agent_pid,0,0.0,basic_agent_longitudinal,0,0.0,follow_lane,clear,5.625311384541575,20.251120984349672,5.555555555555555,20.0,-0.06975582898602006,-1.516307565907482e-05,0.0,0.2833811938762665,1208.062744140625,-82.53849792480469,343.04498291015625,-0.030059807002544403,0.39714133739471436,0.001837426912970841,5.625150680541992,-0.0031090339180082083,0.042556628584861755,-1.1374759674072266,-0.0020998436957597733,-0.05504108965396881,-1.1378289172935865,-0.002695099555509154,-0.017390435561537743,94,1,1,,,,,0,20.569660186767578,15.569660186767578,5.368227310332788,6.956365663631636,13.613294523135941,3.6497906335160497,-5.6358466148376465,3,0.0841088518500328,0.08021491765975952,20.50351905822754,1.6482247114181519,1.6482247114181519,0,12.235675811767578,,,,,none,0,0,,,0.0,0.001556403934955597,0,0,0,,0.0,0,0,0
20260628T181952Z_pid_c642c451,pid,RouteScenario_0_rep0,0,0,Town12,487493,2.8500000424683094,basic_agent,basic_agent,0.0,basic_agent_pid,0,0.0,basic_agent_longitudinal,0,0.0,follow_lane,clear,5.517277088063163,19.862197517027386,5.555555555555555,20.0,0.03827846749239239,4.548973720375216e-06,0.10439514368772507,0.0,1208.34033203125,-82.53862762451172,343.04718017578125,-0.030761713162064552,0.3569798171520233,0.0018352681072428823,5.5171356201171875,-0.003040857147425413,0.03975878655910492,-2.1603012084960938,0.0013635354116559029,-0.05595684051513672,-2.1606083412872397,0.00020504550059632573,-0.002849272219464183,94,1,1,,,,,0,15.721179962158203,10.721179962158203,5.292538510215107,6.832766829208575,8.888413132949628,2.832550029279397,-5.5501861572265625,1,0.044815246015787125,-0.044815246015787125,15.705395698547363,-0.7043127417564392,0.7043127417564392,0,12.145442008972168,,,,,none,0,0,,,2.2888179501023842e-05,0.0008544977754354477,0,0,0,,0.0,0,0,0
20260628T181952Z_pid_c642c451,pid,RouteScenario_0_rep0,0,0,Town12,487494,2.9000000432133675,basic_agent,basic_agent,0.0,basic_agent_pid,0,0.0,basic_agent_longitudinal,0,0.0,follow_lane,clear,5.206721355057985,18.744196878208747,5.555555555555555,20.0,0.34883420049757063,8.055264515860472e-06,0.75,0.0,1208.6058349609375,-82.53878021240234,343.0494079589844,-0.03112793155014515,0.28906723856925964,0.0011172437807545066,5.206599235534668,-0.0028752232901751995,0.03718212991952896,-6.210727691650391,0.0033126771450042725,-0.051533132791519165,-6.210909523273599,-6.112373123600551e-05,-0.01586853340268135,94,1,1,,,,,0,18.167627334594727,13.167627334594727,5.098291507319113,6.516352992627657,11.65127434196707,3.4114238714491676,-5.325526237487793,2,0.025903888046741486,-0.027721509337425232,18.160646438598633,-0.5035695433616638,0.5035695433616638,0,10.00234317779541,,,,,none,0,0,,,1.5258786334015895e-05,0.00048827938735485077,0,0,0,,0.0,0,0,0
20260628T181952Z_pid_c642c451,pid,RouteScenario_0_rep0,0,0,Town12,487495,2.9500000439584255,basic_agent,basic_agent,0.0,basic_agent_pid,0,0.0,basic_agent_longitudinal,0,0.0,follow_lane,clear,4.955809019728994,17.840912471024378,5.555555555555555,20.0,0.5997465358265615,7.296178227989003e-05,0.75,0.0,1208.85791015625,-82.5389175415039,343.0513916015625,-0.0320434533059597,0.2165716290473938,0.0010004362557083368,4.955708026885986,-0.0027692257426679134,0.035879869014024734,-5.017824172973633,0.0021199509501457214,-0.026045218110084534,-5.017887018813352,-0.0006862127259876535,-0.0203685462474823,94,1,1,,,,,0,12.634387969970703,7.634387969970703,4.8703703141424235,6.1466597167313415,6.487728253239362,2.5007174776498444,-5.052305221557617,1,0.020213492214679718,0.020213492214679718,12.631807327270508,0.2553677260875702,0.2553677260875702,0,10.004079818725586,,,,,none,0,0,,,1.5258786334015895e-05,-0.00042724236845970154,0,0,0,,0.0,0,0,0
20260628T181952Z_pid_c642c451,pid,RouteScenario_0_rep0,0,0,Town12,487496,3.0000000447034836,basic_agent,basic_agent,0.0,basic_agent_pid,0,0.0,basic_agent_longitudinal,0,0.0,follow_lane,clear,4.693110103359983,16.89519637209594,5.555555555555555,20.0,0.8624454521955727,-2.3179523850558326e-05,0.75,0.0,1209.0972900390625,-82.5390625,343.0531921386719,-0.0316162146627903,0.15495648980140686,0.0006823634612374008,4.693042278289795,-0.0025212964974343777,0.0311745535582304,-5.253314971923828,0.004958584904670715,-0.09410630911588669,-5.253552178582639,0.002060719416267861,0.006693765986710787,94,1,1,,,,,0,17.651296615600586,12.651296615600586,4.670972283282253,5.824786061226188,11.826510554374398,3.6744619525560758,-4.80377721786499,1,0.0019380153389647603,0.0019380153389647603,17.651262283325195,0.03420846164226532,0.03420846164226532,0,10.225569725036621,,,,,none,0,0,,,0.0,-3.725290298461914e-09,0,0,0,,0.0,0,0,0
20260628T181952Z_pid_c642c451,pid,RouteScenario_0_rep0,0,0,Town12,487497,3.0500000454485416,basic_agent,basic_agent,0.0,basic_agent_pid,0,0.0,basic_agent_longitudinal,0,0.0,follow_lane,clear,4.581951460492082,16.495025257771495,5.555555555555555,20.0,0.9736040950634735,8.758610420045443e-06,0.75,0.0,1209.3275146484375,-82.53919982910156,343.0549011230469,-0.0316162109375,0.11898872256278992,0.0001984120754059404,4.5818963050842285,-0.002603299217298627,0.030960502102971077,-2.222919464111328,-0.0016400543972849846,-0.004281029105186462,-2.222922282363023,-0.0028666778346175485,-0.0018257573246955872,94,1,1,,,,,0,12.78441333770752,7.7844133377075195,4.516920127078481,5.577219190027836,7.207194147679684,2.776205542396355,-4.604995250701904,1,0.0015038028359413147,0.0015038028359413147,12.784399032592773,0.0192252304404974,0.0192252304404974,0,10.19943904876709,,,,,none,0,0,,,-7.629393167007947e-06,0.0,0,0,0,,0.0,0,0,0
20260628T181952Z_pid_c642c451,pid,RouteScenario_0_rep0,0,0,Town12,487498,3.1000000461935997,basic_agent,basic_agent,0.0,basic_agent_pid,0,0.0,basic_agent_longitudinal,0,0.0,follow_lane,clear,4.603318512159532,16.571946643774318,5.555555555555555,20.0,0.952237043396023,2.3939441234688275e-05,0.75,0.0,1209.5570068359375,-82.53935241699219,343.0564270019531,-0.0315856896340847,0.13021071255207062,0.0007966545526869595,4.603255271911621,-0.0024744572583585978,0.0327654629945755,0.42717933654785156,0.002576839178800583,0.03609921783208847,0.42725878397979156,0.002811843269509398,0.0018841023556888103,94,1,1,,,,,0,11.861385345458984,6.861385345458984,4.490446430188638,5.534779983835188,6.3266053616237965,2.5953790908572074,-4.570193767547607,3,0.03965991735458374,0.019529854878783226,11.859123229980469,0.2316364049911499,0.2316364049911499,0,10.413999557495117,,,,,none,0,0,,,-3.051757266803179e-05,3.052130341529846e-05,0,0,0,,0.0,0,0,0
