run_id,run_label,route_id,route_index,repetition_index,town,frame,timestamp,controller,controller_mode,controller_compute_time_ms,controller_status,controller_fallback,maneuver_state,waiting_left_reason,speed_mps,speed_kph,target_speed_mps,target_speed_kph,speed_error_mps,steer,throttle,brake,x,y,z,yaw_deg,pitch_deg,roll_deg,velocity_x,velocity_y,velocity_z,accel_x,accel_y,accel_z,longitudinal_accel_mps2,lateral_accel_mps2,yaw_rate_dps,road_id,lane_id,target_lane_id,target_lane_lateral_error_m,target_lane_heading_error_deg,target_lane_progress,overtake_origin_lane_id,is_junction,front_distance_m,front_distance_margin_m,front_dynamic_stop_distance_m,front_dynamic_emergency_distance_m,front_dynamic_margin_m,front_ttc_s,front_closing_speed_mps,front_radar_point_count,front_radar_mean_abs_azimuth_rad,front_radar_anchor_azimuth_rad,front_relative_longitudinal_m,front_relative_lateral_m,front_relative_lateral_abs_m,front_blocked,rear_distance_m,rear_approach_distance_m,rear_approach_speed_mps,rear_closing_speed_mps,rear_approach_ttc_s,rear_approach_mode,rear_lane_releasing,left_oncoming_detected,left_oncoming_confidence,left_oncoming_label,lateral_error_m,heading_error_deg,blocked_vehicle,rejoin_lane_clear,safety_override,safety_override_reason,requested_brake,emergency_brake,steer_saturated,front_collision_risk
20260628T143629Z_pid_c5eef621,pid,RouteScenario_0_rep0,0,0,Town12,12032426,0.05000000074505806,basic_agent,basic_agent,0.0,basic_agent_pid,0,follow_lane,clear,0.0002403607687238863,0.0008652987674059907,5.555555555555555,20.0,5.555315194786831,2.3945547582115978e-05,0.75,0.0,1199.9569091796875,-82.53407287597656,342.9453125,-0.0316467247903347,0.6043487787246704,-0.01141357421875,-0.0012569221435114741,0.0003848605847451836,0.1419672667980194,0.006495767738670111,-0.001741292653605342,-0.6099972128868103,6.231119299404321e-05,-0.0018592255204329415,-0.00019101999350823462,94,1,1,,,,,0,12.900618553161621,7.900618553161621,2.3,2.3,10.60061855316162,,0.008724714629352093,1,0.06793595105409622,0.06793595105409622,12.87086009979248,0.8757418394088745,0.8757418394088745,0,16.217891693115234,,,,,none,0,0,,,-4.5776359002047684e-05,-3.0513852834701538e-05,0,0,0,,0.0,0,0,0
20260628T143629Z_pid_c5eef621,pid,RouteScenario_0_rep0,0,0,Town12,12032427,0.10000000149011612,basic_agent,basic_agent,0.0,basic_agent_pid,0,follow_lane,clear,0.00020060695886280582,0.0007221850519061009,5.555555555555555,20.0,5.555354948596692,4.3555810407269746e-05,0.75,0.0,1199.9569091796875,-82.53408813476562,342.9515686035156,-0.0316162109375,0.6022518873214722,-0.00994872860610485,-0.0010052615543827415,0.0002640727034304291,0.11473207175731659,0.005033211782574654,-0.0024157576262950897,-0.5447039008140564,-0.0006911629687509063,-0.0025075651270060305,-0.00010829151869984344,94,1,1,,,,,0,12.76563549041748,7.7656354904174805,2.3,2.3,10.46563549041748,,0.006783084012567997,3,0.06925589591264725,0.06977260857820511,12.734575271606445,0.8899692296981812,0.8899692296981812,0,10.720157623291016,,,,,none,0,0,,,-6.103514533606358e-05,0.0,0,0,0,,0.0,0,0,0
20260628T143629Z_pid_c5eef621,pid,RouteScenario_0_rep0,0,0,Town12,12032428,0.15000000223517418,basic_agent,basic_agent,0.0,basic_agent_pid,0,follow_lane,clear,0.000124128940549137,0.00044686418597689317,5.555555555555555,20.0,5.555431426615006,6.453601235989481e-05,0.75,0.0,1199.9569091796875,-82.53411102294922,342.95660400390625,-0.0316162072122097,0.6007082462310791,-0.007965086959302425,-0.0008328897529281676,0.00015812748461030424,0.09128642082214355,0.0034474360290914774,-0.0021189043764024973,-0.4689130187034607,-0.0014677369722184306,-0.0021821899982475295,-0.00016391879762522876,94,1,1,,,,,0,12.262259483337402,7.262259483337402,2.3,2.3,9.962259483337402,,0.0061362809501588345,5,0.03310639038681984,-0.018762605264782906,12.260101318359375,-0.2300584316253662,0.2300584316253662,0,9.739411354064941,,,,,none,0,0,,,-8.392332483708742e-05,3.725290298461914e-09,0,0,0,,0.0,0,0,0
20260628T143629Z_pid_c5eef621,pid,RouteScenario_0_rep0,0,0,Town12,12032429,0.20000000298023224,basic_agent,basic_agent,0.0,basic_agent_pid,0,follow_lane,clear,7.947719852067264e-05,0.0002861179146744215,5.555555555555555,20.0,5.555476078357034,4.987815918866545e-05,0.75,0.0,1199.9569091796875,-82.53411865234375,342.96051025390625,-0.0315856896340847,0.5995266437530518,-0.006469725631177425,-0.0006725884159095585,0.0001914402237161994,0.07188154757022858,0.003206026740372181,0.0006662547821179032,-0.38809746503829956,-0.0008553831798592021,0.0006241974766186279,-8.284592331619933e-05,94,1,1,,,,,0,14.765910148620605,9.765910148620605,2.3,2.3,12.465910148620605,,0.004539008252322674,1,0.09530974179506302,0.09530974179506302,14.698894500732422,1.4052053689956665,1.4052053689956665,0,18.070873260498047,,,,,none,0,0,,,-9.155271800409537e-05,3.052130341529846e-05,0,0,0,,0.0,0,0,0
20260628T143629Z_pid_c5eef621,pid,RouteScenario_0_rep0,0,0,Town12,12032430,0.2500000037252903,basic_agent,basic_agent,0.0,basic_agent_pid,0,follow_lane,clear,7.019261481901675e-05,0.0002526934133484603,5.555555555555555,20.0,5.555485362940736,5.579122080234811e-05,0.75,0.0,1199.9569091796875,-82.53412628173828,342.963623046875,-0.0315856896340847,0.5984953045845032,-0.005767821334302425,-0.0005101065034978092,0.00010881463822443038,0.05555788427591324,0.0032496382482349873,-0.0016525117680430412,-0.32647326588630676,-0.00015981296141052997,-0.0016835868925525763,1.8224514860776253e-05,94,1,1,,,,,0,13.347434043884277,8.347434043884277,2.3,2.3,11.047434043884277,,0.00409513246268034,1,0.044952187687158585,-0.044952187687158585,13.333950996398926,-0.599794328212738,0.599794328212738,0,10.593972206115723,,,,,none,0,0,,,-9.918211117110332e-05,3.052130341529846e-05,0,0,0,,0.0,0,0,0
20260628T143629Z_pid_c5eef621,pid,RouteScenario_0_rep0,0,0,Town12,12032431,0.30000000447034836,basic_agent,basic_agent,0.0,basic_agent_pid,0,follow_lane,clear,3.309391195722518e-05,0.00011913808304601064,5.555555555555555,20.0,5.555522461643598,7.093851309036836e-05,0.75,0.0,1199.9569091796875,-82.53414154052734,342.9660339355469,-0.0315856896340847,0.5976278781890869,-0.004974364768713713,-0.0004066967812832445,0.000156838636030443,0.04217053949832916,0.0020681945607066154,0.0009604799561202526,-0.2677468955516815,-0.0007251511165638264,0.0009383737899028169,1.5825928130652755e-05,94,1,1,,,,,0,12.477140426635742,7.477140426635742,2.3,2.3,10.177140426635741,,0.00332502624951303,4,0.052576616406440735,-0.015934903174638748,12.475556373596191,-0.19881361722946167,0.19881361722946167,0,9.907390594482422,,,,,none,0,0,,,-0.00011444089750511921,3.052130341529846e-05,0,0,0,,0.0,0,0,0
20260628T143629Z_pid_c5eef621,pid,RouteScenario_0_rep0,0,0,Town12,12032432,0.3500000052154064,basic_agent,basic_agent,0.0,basic_agent_pid,0,follow_lane,clear,5.665242762685124e-05,0.00020394873945666446,5.555555555555555,20.0,5.555498903127929,5.2571853302652016e-05,0.75,0.0,1199.9569091796875,-82.53414154052734,342.96783447265625,-0.0315551720559597,0.5968902111053467,-0.004333495162427425,-0.00028094573644921184,-3.1272466003429145e-06,0.03240516409277916,0.0025150207802653313,-0.0031993177253752947,-0.19530750811100006,0.0004820275689002517,-0.0032127050482303955,0.00011751092097256333,94,1,1,,,,,0,14.133292198181152,9.133292198181152,2.3,2.3,11.833292198181152,,0.002124774968251586,3,0.07476367801427841,0.09204468131065369,14.073464393615723,1.299058198928833,1.299058198928833,0,11.85059928894043,,,,,none,0,0,,,-0.00011444089750511921,6.103888154029846e-05,0,0,0,,0.0,0,0,0
20260628T143629Z_pid_c5eef621,pid,RouteScenario_0_rep0,0,0,Town12,12032433,0.4000000059604645,basic_agent,basic_agent,0.0,basic_agent_pid,0,follow_lane,clear,3.335496422821673e-05,0.00012007787122158023,5.555555555555555,20.0,5.555522200591327,6.613255391130224e-05,0.75,0.0,1199.9569091796875,-82.53414916992188,342.96923828125,-0.0315551795065403,0.5962276458740234,-0.003936767112463713,-0.0002272278070449829,0.00016744004096835852,0.025049390271306038,0.0010743585880845785,0.0034113458823412657,-0.14711546897888184,-0.0004584542584007977,0.003401828508391209,2.4693808882148005e-05,94,1,1,,,,,0,14.223381996154785,9.223381996154785,2.3,2.3,11.923381996154784,,0.0015025967732071877,4,0.044995274394750595,-0.09687526524066925,14.156692504882812,-1.3757396936416626,1.3757396936416626,0,11.914008140563965,,,,,none,0,0,,,-0.00012207029067212716,6.103143095970154e-05,0,0,0,,0.0,0,0,0
20260628T143629Z_pid_c5eef621,pid,RouteScenario_0_rep0,0,0,Town12,12032434,0.45000000670552254,basic_agent,basic_agent,0.0,basic_agent_pid,0,follow_lane,clear,5.0693785780303954e-05,0.00018249762880909423,5.555555555555555,20.0,5.555504861769775,6.99312804499641e-05,0.75,0.0,1199.9569091796875,-82.5341567993164,342.9703063964844,-0.0315551720559597,0.595565140247345,-0.0026245112530887127,-0.0001500555081292987,7.535316399298608e-05,0.019316453486680984,0.0015434459783136845,-0.0018417375395074487,-0.11465873569250107,0.00035256956809630465,-0.001846139721078553,-0.00015255714242812246,94,1,1,,,,,0,12.737720489501953,7.737720489501953,2.300035111580187,2.3000351131210506,10.437685376380902,,-0.00017554848454892635,3,0.023114020004868507,-0.030449340119957924,12.731816291809082,-0.38779523968696594,0.38779523968696594,0,10.088338851928711,,,,,none,0,0,,,-0.0001296996838391351,6.103888154029846e-05,0,0,0,,0.0,0,0,0
20260628T143629Z_pid_c5eef621,pid,RouteScenario_0_rep0,0,0,Town12,12032435,0.5000000074505806,basic_agent,basic_agent,0.0,basic_agent_pid,0,follow_lane,clear,-5.212133744836844e-06,-1.876368148141264e-05,5.555555555555555,20.0,5.5555607676893,6.237884372239932e-05,0.75,0.0,1199.9569091796875,-82.5341567993164,342.97113037109375,-0.0315551795065403,0.5953260660171509,-0.0027465822640806437,-0.00015567279479000717,-0.00015854625962674618,0.014471784234046936,-0.00011234573321416974,-0.004677988588809967,-0.09689338505268097,-0.0011165063072340413,-0.004682694087831539,0.00026275654090568423,94,1,1,,,,,0,12.509129524230957,7.509129524230957,2.3,2.3,10.209129524230956,,0.0011783348163589835,1,0.00751701183617115,0.00751701183617115,12.50877571105957,0.09403038769960403,0.09403038769960403,0,10.0048828125,,,,,none,0,0,,,-0.0001296996838391351,6.103143095970154e-05,0,0,0,,0.0,0,0,0
20260628T143629Z_pid_c5eef621,pid,RouteScenario_0_rep0,0,0,Town12,12032436,0.5500000081956387,basic_agent,basic_agent,0.0,basic_agent_pid,0,follow_lane,clear,-4.189729755302604e-08,-1.5083027119089374e-07,5.555555555555555,20.0,5.5555555974528525,6.242630479391664e-05,0.75,0.0,1199.9569091796875,-82.5341567993164,342.9717102050781,-0.03155517578125,0.5952919125556946,-0.0026550290640443563,-0.00011199302389286458,0.00012562403571791947,0.010781364515423775,0.0008735954179428518,0.005683405790477991,-0.07380839437246323,0.00010357723854250204,0.005680465456723017,-8.636002894490957e-05,94,1,1,,,,,0,13.094558715820312,8.094558715820312,2.3,2.3,10.794558715820312,,0.0007414225256070495,3,0.05090020224452019,0.04412486404180527,13.081812858581543,0.5776081681251526,0.5776081681251526,0,10.714261054992676,,,,,none,0,0,,,-0.0001296996838391351,6.103515625e-05,0,0,0,,0.0,0,0,0
20260628T143629Z_pid_c5eef621,pid,RouteScenario_0_rep0,0,0,Town12,12032437,0.6000000089406967,basic_agent,basic_agent,0.0,basic_agent_pid,0,follow_lane,clear,8.663879566033653e-06,3.118996643772115e-05,5.555555555555555,20.0,5.55554689167599,7.065552927087992e-05,0.75,0.0,1199.9569091796875,-82.53416442871094,342.9721374511719,-0.031524658203125,0.5950596928596497,-0.0020141599234193563,-7.390558312181383e-05,6.989348912611604e-05,0.007953724823892117,0.000761748815421015,-0.0011146109318360686,-0.05655279383063316,0.00017498813517635887,-0.001116179823613079,-0.0001311686064582318,94,1,1,,,,,0,12.75919246673584,7.75919246673584,2.3,2.3,10.45919246673584,,0.0005299685290083289,2,0.04070644825696945,-0.03365405276417732,12.751967430114746,-0.42931750416755676,0.42931750416755676,0,10.096125602722168,,,,,none,0,0,,,-0.00013732907700614305,9.1552734375e-05,0,0,0,,0.0,0,0,0
20260628T143629Z_pid_c5eef621,pid,RouteScenario_0_rep0,0,0,Town12,12032438,0.6500000096857548,basic_agent,basic_agent,0.0,basic_agent_pid,0,follow_lane,clear,0.09941547476781878,0.35789570916414765,5.555555555555555,20.0,5.456140080787737,7.711182115599513e-05,0.75,0.0,1199.9578857421875,-82.53416442871094,342.9725341796875,-0.0316467247903347,0.6006126403808594,-0.0014343260554596782,0.0993502214550972,-9.880797733785585e-05,0.006741962395608425,1.9884824752807617,-0.0033740291837602854,-0.024235248565673828,1.988120659792252,-0.002276839532632997,0.000400919234380126,94,1,1,,,,,0,12.905654907226562,7.9056549072265625,2.3035878099352827,2.3036037263952807,10.602051180831282,723.3388796473522,-0.017841782420873642,2,0.06113588437438011,-0.047444432973861694,12.891132354736328,-0.6120718121528625,0.6120718121528625,0,10.175834655761719,,,,,none,0,0,,,-0.00013732907700614305,-3.0513852834701538e-05,0,0,0,,0.0,0,0,0
20260628T143629Z_pid_c5eef621,pid,RouteScenario_0_rep0,0,0,Town12,12032439,0.7000000104308128,basic_agent,basic_agent,0.0,basic_agent_pid,0,follow_lane,clear,0.5099503697927628,1.835821331253946,5.555555555555555,20.0,5.045605185762793,0.0008932357304729521,0.75,0.0,1199.9761962890625,-82.53419494628906,342.97259521484375,-0.0392761155962944,0.6789754033088684,-9.155274165095761e-05,0.5098885297775269,-0.0008215897250920534,0.008202333003282547,8.210765838623047,-0.014455635100603104,0.029207412153482437,8.210543386816713,-0.008827281038257064,-0.3314347267150879,94,1,1,,,,,0,13.722077369689941,8.722077369689941,2.373477649632404,2.3790360937395065,11.343041275950435,41.15553431003534,-0.3334199786186218,2,0.054139383137226105,-0.07784117758274078,13.680525779724121,-1.0670642852783203,1.0670642852783203,0,10.911165237426758,,,,,none,0,0,,,-0.0001602172565071669,-0.007659904658794403,0,0,0,,0.0,0,0,0
20260628T143629Z_pid_c5eef621,pid,RouteScenario_0_rep0,0,0,Town12,12032440,0.7500000111758709,basic_agent,basic_agent,0.0,basic_agent_pid,0,follow_lane,clear,0.7282263697944528,2.62161493126003,5.555555555555555,20.0,4.827329185761102,0.0007463734364137053,0.75,0.0,1200.0091552734375,-82.53421020507812,342.9727783203125,-0.0432128868997097,0.7638199925422668,-0.00018310545419808477,0.7281620502471924,-0.0009363897843286395,0.009641150943934917,4.3654704093933105,-0.002296001184731722,0.02877635881304741,4.365466489520278,0.0009963741480429511,-0.511176347732544,94,1,1,,,,,0,15.541743278503418,10.541743278503418,2.448861346890664,2.468390294729103,13.073352983774315,24.86825490775423,-0.6249631643295288,2,0.041788600385189056,-0.02144313044846058,15.538169860839844,-0.3332380950450897,0.3332380950450897,0,11.609403610229492,,,,,none,0,0,,,-0.0001602172565071669,-0.011596675962209702,0,0,0,,0.0,0,0,0
20260628T143629Z_pid_c5eef621,pid,RouteScenario_0_rep0,0,0,Town12,12032441,0.800000011920929,basic_agent,basic_agent,0.0,basic_agent_pid,0,follow_lane,clear,0.9163045122730167,3.2986962441828602,5.555555555555555,20.0,4.639251043282538,-4.05169339501299e-06,0.75,0.0,1200.0526123046875,-82.53425598144531,342.9731140136719,-0.0382690466940403,0.827545702457428,-0.00012207029067212716,0.9162423610687256,-0.0004352390533313155,0.010914201848208904,3.761606216430664,0.01002301461994648,0.025461018085479736,3.761573990432719,0.012535405683306695,0.7514728307723999,94,1,1,,,,,0,14.277175903320312,9.277175903320312,2.51116060196535,2.546451870946743,11.730724032373569,16.993924134834828,-0.8401341438293457,2,0.033897291868925095,0.003257243661209941,14.277100563049316,0.04650415852665901,0.04650415852665901,0,10.46525764465332,,,,,none,0,0,,,-0.00018310543600819074,-0.0066528357565402985,0,0,0,,0.0,0,0,0
20260628T143629Z_pid_c5eef621,pid,RouteScenario_0_rep0,0,0,Town12,12032442,0.850000012665987,basic_agent,basic_agent,0.0,basic_agent_pid,0,follow_lane,clear,1.071044704661258,3.8557609367805283,5.555555555555555,20.0,4.4845108508942975,-0.0007773451507091522,0.75,0.0,1200.104248046875,-82.5343246459961,342.9735412597656,-0.027099609375,0.8662455081939697,2.0135183149250224e-05,1.0709863901138306,-0.001470714807510376,0.011915330775082111,3.0948805809020996,-0.020709514617919922,0.020022578537464142,3.0948390849749363,-0.019245694195656225,0.575404703617096,94,1,1,,,,,0,12.671740531921387,7.671740531921387,2.5657990471688006,2.617260456837866,10.054480075083521,12.490517568264496,-1.014508843421936,5,0.046902768313884735,0.011097047477960587,12.670960426330566,0.1406160145998001,0.1406160145998001,0,9.181571006774902,,,,,none,0,0,,,-0.00022125240184323047,0.0045166015625,0,0,0,,0.0,0,0,0
20260628T143629Z_pid_c5eef621,pid,RouteScenario_0_rep0,0,0,Town12,12032443,0.9000000134110451,basic_agent,basic_agent,0.0,basic_agent_pid,0,follow_lane,clear,1.2231981366854727,4.403513292067702,5.555555555555555,20.0,4.332357418870083,-0.00025682843988761306,0.75,0.0,1200.1636962890625,-82.5344009399414,342.97406005859375,-0.02432251162827015,0.8884709477424622,0.0003384838637430221,1.2231379747390747,-0.00199855281971395,0.013315916061401367,3.043031692504883,-0.010556760244071484,0.028011705726385117,3.043104322484251,-0.009264854601790676,0.754869282245636,94,1,1,,,,,0,17.029972076416016,12.029972076416016,2.617874583102345,2.6863944965728845,14.343577579843132,14.547572662883994,-1.1706401109695435,1,0.10141739249229431,-0.10141739249229431,16.942466735839844,-1.7241761684417725,1.7241761684417725,0,14.732670783996582,,,,,none,0,0,,,-0.00026702876084527816,0.007293699309229851,0,0,0,,0.0,0,0,0
20260628T143629Z_pid_c5eef621,pid,RouteScenario_0_rep0,0,0,Town12,12032444,0.9500000141561031,basic_agent,basic_agent,0.0,basic_agent_pid,0,follow_lane,clear,1.4072076942338074,5.065947699241707,5.555555555555555,20.0,4.1483478613217475,-0.0011332277208566666,0.75,0.0,1200.23095703125,-82.53447723388672,342.97479248046875,-0.013824462890625,0.9023772478103638,-0.000579833984375,1.4071600437164307,-0.00012347832671366632,0.014107598923146725,3.680441379547119,0.037501487880945206,0.01583365723490715,3.6802251814770313,0.03838908725091632,0.306405633687973,94,1,1,,,,,0,13.795607566833496,8.795607566833496,2.6756919541383,2.7647216822928034,11.030885884540693,10.338518526724215,-1.3343892097473145,2,0.02945059910416603,0.048699699342250824,13.779251098632812,0.6715763807296753,0.6715763807296753,0,10.072959899902344,,,,,none,0,0,,,-0.0003051757266803179,0.017791748046875,0,0,0,,0.0,0,0,0
20260628T143629Z_pid_c5eef621,pid,RouteScenario_0_rep0,0,0,Town12,12032445,1.0000000149011612,basic_agent,basic_agent,0.0,basic_agent_pid,0,follow_lane,clear,1.5122474415730005,5.444090789662802,5.555555555555555,20.0,4.043308113982555,-0.0024400947149842978,0.75,0.0,1200.304443359375,-82.53459167480469,342.97552490234375,0.0045755659230053425,0.9036135077476501,-0.0010986326960846782,1.512198805809021,-0.0010070588905364275,0.01501411385834217,2.1007752418518066,-0.0176716111600399,0.01813029870390892,2.1007985519551493,-0.017839663987534143,0.028077762573957443,94,1,1,,,,,0,14.670127868652344,9.670127868652344,2.723661888144462,2.8307813675151605,11.839346501137182,10.022698698723156,-1.4636904001235962,3,0.055817145854234695,0.07044225931167603,14.633745193481445,1.0325425863265991,1.0325425863265991,0,12.849845886230469,,,,,none,0,0,,,-0.0003738402651833894,0.03619177686050534,0,0,0,,0.0,0,0,0
20260628T143629Z_pid_c5eef621,pid,RouteScenario_0_rep0,0,0,Town12,12032446,1.0500000156462193,basic_agent,basic_agent,0.0,basic_agent_pid,0,follow_lane,clear,1.6029902642405178,5.770764951265864,5.555555555555555,20.0,3.9525652913150378,-0.0006998281460255384,0.75,0.0,1200.3824462890625,-82.53467559814453,342.9763488769531,0.0011694604763761163,0.8915855288505554,-0.0007324218167923391,1.602952480316162,-0.0021122589241713285,0.014903096482157707,1.8150734901428223,-0.02210400067269802,-0.00222034752368927,1.8148187619591687,-0.02214143744187542,-0.08763444423675537,94,1,1,,,,,0,14.145735740661621,9.145735740661621,2.760808512435749,2.882523858305893,11.263211882355728,9.066462593698457,-1.560226559638977,6,0.03525451943278313,-0.052252039313316345,14.126429557800293,-0.738807201385498,0.738807201385498,0,9.929767608642578,,,,,none,0,0,,,-0.0004196166241854371,0.032785671413876116,0,0,0,,0.0,0,0,0
20260628T143629Z_pid_c5eef621,pid,RouteScenario_0_rep0,0,0,Town12,12032447,1.1000000163912773,basic_agent,basic_agent,0.0,basic_agent_pid,0,follow_lane,clear,1.790696668814928,6.44650800773374,5.555555555555555,20.0,3.7648588867406274,-0.0008472214685752988,0.75,0.0,1200.46728515625,-82.53472137451172,342.9771423339844,2.3876104023656808e-05,0.8862375020980835,-0.0013122556265443563,1.7906458377838135,-0.0013730756472796202,0.017135342583060265,3.7538671493530273,0.014783665537834167,0.04464492201805115,3.7541086229453278,0.0147817938319977,0.024220649152994156,94,1,1,,,,,0,17.342334747314453,12.342334747314453,2.8101536471046265,2.9519677498841386,14.390366997430315,10.29752502870824,-1.6841264963150024,3,0.11220031976699829,0.08569905906915665,17.278690338134766,1.4844032526016235,1.4844032526016235,0,19.239009857177734,,,,,none,0,0,,,-0.0004196166241854371,0.03164008704152366,0,0,0,,0.0,0,0,0
20260628T143629Z_pid_c5eef621,pid,RouteScenario_0_rep0,0,0,Town12,12032448,1.1500000171363354,basic_agent,basic_agent,0.0,basic_agent_pid,0,follow_lane,clear,1.9641803115720013,7.071049121659205,5.555555555555555,20.0,3.591375243983554,-0.003107651835307479,0.75,0.0,1200.5621337890625,-82.53483581542969,342.97808837890625,0.02169870026409626,0.8953079581260681,-0.00238037109375,1.9641271829605103,-0.000662588223349303,0.01877131499350071,3.4696269035339355,0.0142097482457757,0.0327194482088089,3.4697197946975877,0.012894858746653404,0.9029387831687927,94,1,1,,,,,0,19.0412540435791,14.041254043579102,2.891187520387806,3.06755608277436,15.973697960804742,10.13841261007532,-1.8781297206878662,2,0.12083874642848969,0.1356184482574463,18.86641502380371,2.574436664581299,2.574436664581299,0,15.105731010437012,,,,,none,0,0,,,-0.0004806517695215007,0.05331491120159626,0,0,0,,0.0,0,0,0
20260628T143629Z_pid_c5eef621,pid,RouteScenario_0_rep0,0,0,Town12,12032449,1.2000000178813934,basic_agent,basic_agent,0.0,basic_agent_pid,0,follow_lane,clear,2.1535944971705043,7.752940189813816,5.555555555555555,20.0,3.401961058385051,-0.002792702754959464,0.75,0.0,1200.666015625,-82.53498840332031,342.97900390625,0.03384526073932648,0.9055191278457642,-0.0014038084773346782,2.153543472290039,-0.0025362535379827023,0.020365208387374878,3.788325786590576,-0.03747330605983734,0.03187786787748337,3.788333707382631,-0.03971179168436424,-0.1111401915550232,94,1,1,,,,,0,15.954961776733398,10.954961776733398,2.971666319312533,3.183999178521344,12.770962598212055,7.742338701373468,-2.060741901397705,3,0.10187375545501709,-0.11957850307226181,15.84102725982666,-1.9033269882202148,1.9033269882202148,0,16.04933738708496,,,,,none,0,0,,,-0.000572204487525596,0.06546147167682648,0,0,0,,0.0,0,0,0
20260628T143629Z_pid_c5eef621,pid,RouteScenario_0_rep0,0,0,Town12,12032450,1.2500000186264515,basic_agent,basic_agent,0.0,basic_agent_pid,0,follow_lane,clear,2.2968192910948018,8.268549447941286,5.555555555555555,20.0,3.2587362644607536,-0.003564425278455019,0.75,0.0,1200.778076171875,-82.53516387939453,342.98004150390625,0.05003702640533447,0.9104027152061462,-0.00274658203125,2.2967543601989746,-0.0024794915225356817,0.022525500506162643,2.864217758178711,0.0011352403089404106,0.04320584237575531,2.864542630181593,-0.0013662228126906512,0.6713113784790039,94,1,1,,,,,0,13.19597053527832,8.19597053527832,3.0489839335014177,3.2971969813523425,9.898773553925977,5.922622274394152,-2.228062152862549,1,0.04520745947957039,-0.04520745947957039,13.182488441467285,-0.5963531136512756,0.5963531136512756,0,9.233166694641113,,,,,none,0,0,,,-0.0006866453850307153,0.08165323734283447,0,0,0,,0.0,0,0,0
20260628T143629Z_pid_c5eef621,pid,RouteScenario_0_rep0,0,0,Town12,12032451,1.3000000193715096,basic_agent,basic_agent,0.0,basic_agent_pid,0,follow_lane,clear,2.483553454978113,8.940792437921207,5.555555555555555,20.0,3.0720021005774423,-0.0026497216895222664,0.75,0.0,1200.8984375,-82.53532409667969,342.981201171875,0.05238685756921768,0.9148150086402893,-0.0023498532827943563,2.48349928855896,-0.0028585109394043684,0.023448189720511436,3.734898567199707,-0.0075803883373737335,0.01845378428697586,3.7347087535197367,-0.010996977725702576,-0.35897117853164673,94,1,1,,,,,0,16.657861709594727,11.657861709594727,3.128453679261111,3.414729491467733,13.243132218126993,6.961645857894539,-2.3928050994873047,3,0.10493838787078857,0.07816091179847717,16.607004165649414,1.3006683588027954,1.3006683588027954,0,14.34250259399414,,,,,none,0,0,,,-0.0007781981030348106,0.08400306850671768,0,0,0,,0.0,0,0,0
20260628T143629Z_pid_c5eef621,pid,RouteScenario_0_rep0,0,0,Town12,12032452,1.3500000201165676,basic_agent,basic_agent,0.0,basic_agent_pid,0,follow_lane,clear,2.63059789246382,9.470152412869753,5.555555555555555,20.0,2.9249576630917353,-0.003291449975222349,0.75,0.0,1201.0272216796875,-82.53545379638672,342.9824523925781,0.06018933281302452,0.9159078001976013,-0.0022583010140806437,2.6305296421051025,-0.0020853341557085514,0.025523241609334946,2.9406070709228516,0.01546353567391634,0.041501037776470184,2.940909339698411,0.012374197118388972,0.7188223600387573,94,1,1,,,,,0,14.45682430267334,9.45682430267334,3.2167557843845627,3.546562439080719,10.91026186359262,5.628960458884695,-2.568293809890747,3,0.02702670730650425,-0.008555404841899872,14.456295013427734,-0.12368247658014297,0.12368247658014297,0,10.132776260375977,,,,,none,0,0,,,-0.0008392332483708742,0.09180554375052452,0,0,0,,0.0,0,0,0
20260628T143629Z_pid_c5eef621,pid,RouteScenario_0_rep0,0,0,Town12,12032453,1.4000000208616257,basic_agent,basic_agent,0.0,basic_agent_pid,0,follow_lane,clear,2.7701798028914437,9.972647290409197,5.555555555555555,20.0,2.7853757526641116,-0.0012473695678636432,0.75,0.0,1201.162841796875,-82.5355453491211,342.9837951660156,0.04558710381388664,0.9094191193580627,-0.0016174317570403218,2.7701146602630615,-0.002980478573590517,0.026293544098734856,2.7917003631591797,-0.017902888357639313,0.0154060497879982,2.791578209048122,-0.020124901354203344,-0.8958698511123657,94,1,1,,,,,0,14.984450340270996,9.984450340270996,3.2894760223472845,3.656002603199397,11.328447737071599,5.534432323748934,-2.7074954509735107,3,0.03642578423023224,-0.0538349412381649,14.96274185180664,-0.8062974214553833,0.8062974214553833,0,10.38122272491455,,,,,none,0,0,,,-0.0008544920347048901,0.07720331475138664,0,0,0,,0.0,0,0,0
20260628T143629Z_pid_c5eef621,pid,RouteScenario_0_rep0,0,0,Town12,12032454,1.4500000216066837,basic_agent,basic_agent,0.0,basic_agent_pid,0,follow_lane,clear,2.937041315744834,10.573348736681403,5.555555555555555,20.0,2.6185142398107213,-0.0023501303512603045,0.75,0.0,1201.3062744140625,-82.53561401367188,342.9851989746094,0.046233776956796646,0.9043306708335876,-0.0021972658578306437,2.936983823776245,-0.0007325292681343853,0.02691919356584549,3.337383270263672,0.04495898634195328,0.012512989342212677,3.337200290910372,0.04226439305780323,0.5496822595596313,94,1,1,,,,,0,12.967876434326172,7.967876434326172,3.371605365425598,3.7804505394268237,9.187425894899349,4.53497009938191,-2.8595285415649414,3,0.024633945897221565,-0.017318719998002052,12.96593189239502,-0.22457578778266907,0.22457578778266907,0,9.114136695861816,,,,,none,0,0,,,-0.0008468626415378822,0.07784998789429665,0,0,0,,0.0,0,0,0
20260628T143629Z_pid_c5eef621,pid,RouteScenario_0_rep0,0,0,Town12,12032455,1.5000000223517418,basic_agent,basic_agent,0.0,basic_agent_pid,0,follow_lane,clear,3.1245852376833128,11.248506855659926,5.555555555555555,20.0,2.4309703178722426,-0.0013123314129188657,0.75,0.0,1201.4586181640625,-82.53565216064453,342.98663330078125,0.0331353135406971,0.9052322506904602,-0.0019836428109556437,3.1245086193084717,-0.002046353882178664,0.029640665277838707,3.7504959106445312,-0.026276493445038795,0.05442943423986435,3.7508718486039214,-0.02844564369130797,-0.7395145893096924,94,1,1,,,,,0,13.565682411193848,8.565682411193848,3.4721601359021896,3.9339187347477553,9.631763676446091,4.463948256463529,-3.038942575454712,4,0.03451035916805267,0.06374599039554596,13.538128852844238,0.8641723394393921,0.8641723394393921,0,9.582033157348633,,,,,none,0,0,,,-0.0008010862825358345,0.0647515244781971,0,0,0,,0.0,0,0,0
20260628T143629Z_pid_c5eef621,pid,RouteScenario_0_rep0,0,0,Town12,12032456,1.5500000230967999,basic_agent,basic_agent,0.0,basic_agent_pid,0,follow_lane,clear,3.3272756692849814,11.978192409425933,5.555555555555555,20.0,2.228279886270574,-0.0019251080229878426,0.75,0.0,1201.6209716796875,-82.53571319580078,342.9881591796875,0.032428547739982605,0.9109969139099121,-0.0019226073054596782,3.3272035121917725,-0.0011062906123697758,0.03106294572353363,4.053897857666016,0.018801264464855194,0.028445608913898468,4.05384753612094,0.016505607770709602,0.3798280656337738,94,1,1,,,,,0,15.279398918151855,10.279398918151855,3.585843146698694,4.1087249597943565,11.170673958357499,4.724866081431013,-3.2338268756866455,1,0.03669469803571701,0.03669469803571701,15.269113540649414,0.5605471134185791,0.5605471134185791,0,10.958378791809082,,,,,none,0,0,,,-0.0007705687098678027,0.0640447586774826,0,0,0,,0.0,0,0,0
20260628T143629Z_pid_c5eef621,pid,RouteScenario_0_rep0,0,0,Town12,12032457,1.600000023841858,basic_agent,basic_agent,0.0,basic_agent_pid,0,follow_lane,clear,3.5456111884646706,12.764200278472815,5.555555555555555,20.0,2.0099443670908848,-0.0008745737140998244,0.75,0.0,1201.7938232421875,-82.53578186035156,342.9897155761719,0.021828532218933105,0.9212285280227661,0.0004421636986080557,3.545515298843384,-0.002077691024169326,0.03453318402171135,4.366235733032227,-0.019428007304668427,0.06940476596355438,4.366779468679114,-0.021091447428800363,-0.47127455472946167,94,1,1,,,,,0,13.290233612060547,8.290233612060547,3.712805696806697,4.305395787559473,8.984837824501074,3.8604721576885845,-3.4426445960998535,1,0.024746906012296677,0.024746906012296677,13.286164283752441,0.3288585841655731,0.3288585841655731,0,9.427215576171875,,,,,none,0,0,,,-0.0007476805303667788,0.053444743156433105,0,0,0,,0.0,0,0,0
20260628T143629Z_pid_c5eef621,pid,RouteScenario_0_rep0,0,0,Town12,12032458,1.650000024586916,basic_agent,basic_agent,0.0,basic_agent_pid,0,follow_lane,clear,3.7698564927460065,13.571483373885624,5.555555555555555,20.0,1.7856990628095488,-0.0013503747759386897,0.75,0.0,1201.9781494140625,-82.53582763671875,342.9914245605469,0.01899874396622181,0.9338575601577759,-0.0007934569148346782,3.769763708114624,-0.0011770684504881501,0.03645176813006401,4.484968185424805,0.018012451007962227,0.03837168216705322,4.485003678209857,0.016524795605291943,0.07309035956859589,94,1,1,,,,,0,13.790502548217773,8.790502548217773,3.8545580444388925,4.526565172031673,9.2639373761861,3.761648015231402,-3.6660799980163574,3,0.06373316794633865,0.03767906874418259,13.78071403503418,0.5194903612136841,0.5194903612136841,0,9.801040649414062,,,,,none,0,0,,,-0.0006866453850307153,0.05061495490372181,0,0,0,,0.0,0,0,0
20260628T143629Z_pid_c5eef621,pid,RouteScenario_0_rep0,0,0,Town12,12032459,1.700000025331974,basic_agent,basic_agent,0.0,basic_agent_pid,0,follow_lane,clear,3.985713391743547,14.348568210276769,5.555555555555555,20.0,1.5698421638120084,-0.0008736132294870913,0.75,0.0,1202.1732177734375,-82.53589630126953,342.99334716796875,0.012567820958793163,0.9443897008895874,-0.0008239745511673391,3.985629081726074,-0.0020898308139294386,0.03799664229154587,4.317307472229004,-0.018255246803164482,0.030897483229637146,4.317226260966693,-0.01920282657164077,-0.18508492410182953,94,1,1,,,,,0,13.006767272949219,8.006767272949219,3.999863510126315,4.754812479009127,8.251954793940092,3.3473072148770364,-3.8857405185699463,2,0.010394120588898659,0.014778207056224346,13.00534725189209,0.19220970571041107,0.19220970571041107,0,9.089741706848145,,,,,none,0,0,,,-0.0006484984191956755,0.04418403189629316,0,0,0,,0.0,0,0,0
20260628T143629Z_pid_c5eef621,pid,RouteScenario_0_rep0,0,0,Town12,12032460,1.750000026077032,basic_agent,basic_agent,0.0,basic_agent_pid,0,follow_lane,clear,4.193076819367182,15.095076549721854,5.555555555555555,20.0,1.3624787361883737,-0.0008509089821018279,0.75,0.0,1202.3787841796875,-82.5359878540039,342.99530029296875,0.008165432140231133,0.9504890441894531,-0.0001220703125,4.193004608154297,-0.0016983540263026953,0.039150286465883255,4.147510528564453,0.007829535752534866,0.02307288348674774,4.147323823776321,0.007238361345770377,-0.07399602234363556,94,1,1,,,,,0,15.070697784423828,10.070697784423828,4.134304515019432,4.967222831277008,10.10347495314682,3.692471541704466,-4.081466197967529,1,0.09234379231929779,0.09234379231929779,15.006486892700195,1.389708399772644,1.389708399772644,0,12.778735160827637,,,,,none,0,0,,,-0.0006256102396946517,0.03978164307773113,0,0,0,,0.0,0,0,0
20260628T143629Z_pid_c5eef621,pid,RouteScenario_0_rep0,0,0,Town12,12032461,1.8000000268220901,basic_agent,basic_agent,0.0,basic_agent_pid,0,follow_lane,clear,4.394834790284892,15.821405245025613,5.555555555555555,20.0,1.1607207652706633,-0.0007204454741440713,0.75,0.0,1202.594482421875,-82.53607177734375,342.9972229003906,0.003844853490591049,0.9553931355476379,0.0003103745693806559,4.394784450531006,-0.0018304431578144431,0.03966884687542915,4.03559684753418,-0.0026417826302349567,0.010371208190917969,4.035208659603052,-0.002912284430341926,-0.08649562299251556,94,1,1,,,,,0,14.784762382507324,9.784762382507324,4.276910499969051,5.193690403011578,9.591071979495746,3.452763316975914,-4.282008647918701,1,0.09506390243768692,0.09506390243768692,14.71800708770752,1.4033812284469604,1.4033812284469604,0,13.597039222717285,,,,,none,0,0,,,-0.0005950926670266199,0.03546106442809105,0,0,0,,0.0,0,0,0
20260628T143629Z_pid_c5eef621,pid,RouteScenario_0_rep0,0,0,Town12,12032462,1.8500000275671482,basic_agent,basic_agent,0.0,basic_agent_pid,0,follow_lane,clear,4.593920387823309,16.538113396163915,5.555555555555555,20.0,0.9616351677322461,-0.0007930347346700728,0.75,0.0,1202.8203125,-82.53616333007812,342.99920654296875,-6.103515261202119e-05,0.9591156244277954,0.0006280741654336452,4.593864440917969,-0.0019640678074210882,0.041793107986450195,3.981599807739258,-0.002672492992132902,0.04248522222042084,3.9817530246800024,-0.00266798660159606,-0.07578080147504807,94,1,1,,,,,0,14.709428787231445,9.709428787231445,4.439023389136172,5.452437477609202,9.256991309622244,3.267287426297018,-4.502030849456787,2,0.037281423807144165,0.04684366658329964,14.693292617797852,0.6887916326522827,0.6887916326522827,0,10.377275466918945,,,,,none,0,0,,,-0.0005569457011915802,0.03155517578488798,0,0,0,,0.0,0,0,0
20260628T143629Z_pid_c5eef621,pid,RouteScenario_0_rep0,0,0,Town12,12032463,1.9000000283122063,basic_agent,basic_agent,0.0,basic_agent_pid,0,follow_lane,clear,4.791747548453387,17.250291174432192,5.555555555555555,20.0,0.7638080071021687,-0.0005531528149731457,0.75,0.0,1203.055908203125,-82.53623962402344,343.0013732910156,-0.004058837424963713,0.9616222977638245,0.0004671827773563564,4.791717052459717,-0.0024190698750317097,0.04201939329504967,3.957052230834961,-0.009100041352212429,0.004525706171989441,3.9565714948158135,-0.008819218858084047,-0.08276743441820145,94,1,1,,,,,0,13.250158309936523,8.250158309936523,4.586734054886918,5.689285934339184,7.56087237559734,2.82167215445945,-4.695853233337402,4,0.03374826908111572,0.014672962948679924,13.24873161315918,0.19441211223602295,0.19441211223602295,0,9.164504051208496,,,,,none,0,0,,,-0.0005035399490225245,0.027557373512536287,0,0,0,,0.0,0,0,0
20260628T143629Z_pid_c5eef621,pid,RouteScenario_0_rep0,0,0,Town12,12032464,1.9500000290572643,basic_agent,basic_agent,0.0,basic_agent_pid,0,follow_lane,clear,4.989062210535382,17.960623957927375,5.555555555555555,20.0,0.5664933450201737,-0.00047523321700282395,0.75,0.0,1203.3013916015625,-82.53632354736328,343.00347900390625,-0.007568358443677425,0.9632751941680908,0.00034595245961099863,4.989041805267334,-0.0022377443965524435,0.04313845559954643,3.9464950561523438,0.0036265095695853233,0.022381246089935303,3.946313111246747,0.004148078537386532,-0.06611673533916473,94,1,1,,,,,0,14.27652645111084,9.27652645111084,4.741705013360155,5.938787557583095,8.337738893527746,2.9177327321942563,-4.8930206298828125,2,0.025401242077350616,-0.04216388240456581,14.263837814331055,-0.6017754673957825,0.6017754673957825,0,9.627843856811523,,,,,none,0,0,,,-0.00045776359002047684,0.024047852493822575,0,0,0,,0.0,0,0,0
20260628T143629Z_pid_c5eef621,pid,RouteScenario_0_rep0,0,0,Town12,12032465,2.0000000298023224,basic_agent,basic_agent,0.0,basic_agent_pid,0,follow_lane,clear,5.186575205077459,18.671670738278856,5.555555555555555,20.0,0.36898035047809596,-0.00042692827992141247,0.75,0.0,1203.556884765625,-82.53641510009766,343.005859375,-0.010467529296875,0.9646685719490051,0.0005171927623450756,5.186493396759033,-0.0022332777734845877,0.04850268363952637,3.9490318298339844,8.93324613571167e-05,0.1072845607995987,3.9502783048997148,0.0008104241650462031,-0.05085618793964386,94,1,1,,,,,0,14.82935905456543,9.82935905456543,4.9103456375645536,6.211369466356604,8.617989588208825,2.907132038323632,-5.101027011871338,3,0.03682896867394447,0.09200641512870789,14.766636848449707,1.3624720573425293,1.3624720573425293,0,11.46223258972168,,,,,none,0,0,,,-0.0004043578378514212,0.021148681640625,0,0,0,,0.0,0,0,0
20260628T143629Z_pid_c5eef621,pid,RouteScenario_0_rep0,0,0,Town12,12032466,2.0500000305473804,basic_agent,basic_agent,0.0,basic_agent_pid,0,follow_lane,clear,5.260016674981411,18.936060029933078,5.555555555555555,20.0,0.2955388805741448,-0.0006434270762838423,0.75,0.0,1203.820068359375,-82.53652954101562,343.00830078125,-0.01025390625,0.9535626769065857,0.00019481335766613483,5.259947776794434,-0.002305141417309642,0.04789144545793533,1.4690876007080078,-0.0014372728765010834,-0.012224763631820679,1.4686810006645998,-0.0011742337518017053,0.05348680913448334,94,1,1,,,,,0,14.208195686340332,9.208195686340332,5.034124570534914,6.412093363108579,7.796102323231753,2.706476378782396,-5.249702453613281,4,0.036381796002388,0.02927553281188011,14.202107429504395,0.4158930778503418,0.4158930778503418,0,9.8875732421875,,,,,none,0,0,,,-0.0003738402651833894,0.0213623046875,0,0,0,,0.0,0,0,0
20260628T143629Z_pid_c5eef621,pid,RouteScenario_0_rep0,0,0,Town12,12032467,2.1000000312924385,basic_agent,basic_agent,0.0,basic_agent_pid,0,follow_lane,clear,5.21995734832225,18.7918464539601,5.555555555555555,20.0,0.33559820723330525,1.1354891285009217e-05,0.75,0.0,1204.0811767578125,-82.53665924072266,343.0108947753906,-0.01629638671875,0.893142819404602,0.0007271342910826206,5.219873428344727,-0.0028307074680924416,0.04603090137243271,-0.8014869689941406,-0.010511321015655994,-0.03721088171005249,-0.801966602098741,-0.010738970163890358,-0.13747455179691315,94,1,1,,,,,0,13.921574592590332,8.921574592590332,5.0196309860443264,6.38856288012143,7.533011712468902,2.660617478992577,-5.232460021972656,3,0.023060038685798645,-0.03785901889204979,13.911599159240723,-0.5269312262535095,0.5269312262535095,0,9.629648208618164,,,,,none,0,0,,,-0.0003585814788493735,0.01531982421875,0,0,0,,0.0,0,0,0
20260628T143629Z_pid_c5eef621,pid,RouteScenario_0_rep0,0,0,Town12,12032468,2.1500000320374966,basic_agent,basic_agent,0.0,basic_agent_pid,0,follow_lane,clear,5.174872053911629,18.629539394081863,5.555555555555555,20.0,0.3806835016439267,-2.7641608539852314e-05,0.75,0.0,1204.3399658203125,-82.5367431640625,343.0134582519531,-0.0204162560403347,0.8215692639350891,0.00037152584991417825,5.174757480621338,-0.002150187036022544,0.045061320066452026,-0.9023189544677734,0.013610408641397953,-0.019391626119613647,-0.9025090240610764,0.013288925543512605,-0.059361185878515244,94,1,1,,,,,0,14.642929077148438,9.642929077148438,4.972561796789523,6.312194821843877,8.33073425530456,2.828915911268332,-5.1761627197265625,2,0.07982960343360901,-0.09128739684820175,14.581958770751953,-1.3348591327667236,1.3348591327667236,0,11.127111434936523,,,,,none,0,0,,,-0.0003051757266803179,0.011199954897165298,0,0,0,,0.0,0,0,0
20260628T143629Z_pid_c5eef621,pid,RouteScenario_0_rep0,0,0,Town12,12032469,2.2000000327825546,basic_agent,basic_agent,0.0,basic_agent_pid,0,follow_lane,clear,5.202719767774633,18.72979116398868,5.555555555555555,20.0,0.35283578778092206,-0.0001914943422889337,0.75,0.0,1204.598876953125,-82.53683471679688,343.0159606933594,-0.02246093563735485,0.7626998424530029,9.435407991986722e-05,5.202579021453857,-0.0021274855826050043,0.04516877979040146,0.5564308166503906,0.00045402906835079193,0.0021491944789886475,0.556409929466625,0.0006721681890080551,-0.024655712768435478,94,1,1,,,,,0,13.968453407287598,8.968453407287598,4.971427582076117,6.3103555389803905,7.658097868307207,2.6993221648080974,-5.174800395965576,4,0.0668058842420578,-0.07511541247367859,13.929064750671387,-1.0482597351074219,1.0482597351074219,0,10.481501579284668,,,,,none,0,0,,,-0.00025176997451126226,0.00915527530014515,0,0,0,,0.0,0,0,0
20260628T143629Z_pid_c5eef621,pid,RouteScenario_0_rep0,0,0,Town12,12032470,2.2500000335276127,basic_agent,basic_agent,0.0,basic_agent_pid,0,follow_lane,clear,5.191048615260667,18.6877750149384,5.555555555555555,20.0,0.3645069402948886,-0.00017071956244762987,0.75,0.0,1204.8585205078125,-82.53693389892578,343.0184020996094,-0.02352905087172985,0.71744304895401,0.0007097889902070165,5.190893650054932,-0.0023423139937222004,0.04483409598469734,-0.23370742797851562,-0.004296568222343922,-0.006693676114082336,-0.23377114605001764,-0.004392495459212591,-0.016683893278241158,94,1,1,,,,,0,15.487811088562012,10.487811088562012,4.968310752261049,6.30530140679599,9.182509681766021,2.9950967721946142,-5.171055316925049,1,0.10493488609790802,-0.10493488609790802,15.402618408203125,-1.6222307682037354,1.6222307682037354,0,11.76488971710205,,,,,none,0,0,,,-0.00020599361550921458,0.00808716006577015,0,0,0,,0.0,0,0,0
20260628T143629Z_pid_c5eef621,pid,RouteScenario_0_rep0,0,0,Town12,12032471,2.3000000342726707,basic_agent,basic_agent,0.0,basic_agent_pid,0,follow_lane,clear,5.207459464777858,18.74685407320029,5.555555555555555,20.0,0.3480960907776973,-0.00013227216550149024,0.75,0.0,1205.1181640625,-82.53704071044922,343.02069091796875,-0.02465820126235485,0.6768170595169067,0.0011278627207502723,5.207301616668701,-0.002548058982938528,0.04406736418604851,0.3281593322753906,-0.004114899784326553,-0.015334635972976685,0.3279570203722673,-0.003973292258700209,-0.02000441402196884,94,1,1,,,,,0,16.353654861450195,11.353654861450195,4.987420776562714,6.336294777965588,10.017360083484608,3.148575690451919,-5.1939849853515625,2,0.037797387689352036,-0.06355483084917068,16.32063865661621,-1.0386542081832886,1.0386542081832886,0,12.306941986083984,,,,,none,0,0,,,-0.00016784664967417484,0.006958009675145149,0,0,0,,0.0,0,0,0
20260628T143629Z_pid_c5eef621,pid,RouteScenario_0_rep0,0,0,Town12,12032472,2.350000035017729,basic_agent,basic_agent,0.0,basic_agent_pid,0,follow_lane,clear,5.390390999317552,19.40540759754319,5.555555555555555,20.0,0.16516455623800308,-7.63915159041062e-05,0.6299545764923096,0.0,1205.3797607421875,-82.53717803955078,343.0229187011719,-0.02578735165297985,0.6518527269363403,0.0007592810434289277,5.390242576599121,-0.002772030420601368,0.0436471551656723,3.6588191986083984,-0.004479428753256798,-0.008404180407524109,3.6584883285711474,-0.0028320253224368404,-0.007501749321818352,94,1,1,,,,,0,16.7469425201416,11.746942520141602,4.980530313876726,6.3251181071950775,10.421824412946524,3.2294305531750243,-5.185726165771484,1,0.13526973128318787,-0.13526973128318787,16.59395980834961,-2.2584521770477295,2.2584521770477295,0,15.516215324401855,,,,,none,0,0,,,-0.0001602172565071669,0.005828859284520149,0,0,0,,0.0,0,0,0
20260628T143629Z_pid_c5eef621,pid,RouteScenario_0_rep0,0,0,Town12,12032473,2.400000035762787,basic_agent,basic_agent,0.0,basic_agent_pid,0,follow_lane,clear,6.02204308040804,21.679355089468945,5.555555555555555,20.0,-0.4664875248524849,-0.00010894895967794582,0.0,0.30000001192092896,1205.670654296875,-82.53731536865234,343.0248718261719,-0.0263671837747097,0.7595511674880981,-0.0003662109375,6.021944046020508,-0.0030639006290584803,0.047328539192676544,12.634029388427734,-0.005837404169142246,0.07362768054008484,12.633896606603523,-2.3897090050316316e-05,-0.02683902531862259,94,1,1,,,,,0,18.36577796936035,13.365777969360352,5.468192918827279,7.119857403238873,11.245920566121479,3.1954602293015952,-5.747459411621094,3,0.07818491756916046,0.07664858549833298,18.31185531616211,1.4063329696655273,1.4063329696655273,0,17.484716415405273,,,,,none,0,0,,,-0.00013732907700614305,0.0052490271627902985,0,0,0,,0.0,0,0,0
20260628T143629Z_pid_c5eef621,pid,RouteScenario_0_rep0,0,0,Town12,12032474,2.450000036507845,basic_agent,basic_agent,0.0,basic_agent_pid,0,follow_lane,clear,6.163221420937519,22.187597115375066,5.555555555555555,20.0,-0.6076658653819633,-0.0001363341580145061,0.0,0.30000001192092896,1205.977294921875,-82.53746032714844,343.0269775390625,-0.02685546875,0.8344783186912537,-3.0517578125e-05,6.163161277770996,-0.003185964422300458,0.04895571619272232,2.8243446350097656,-0.002441275864839554,0.03254354000091553,2.8245199185644547,-0.001117463775577032,0.013072283938527107,94,1,1,,,,,0,14.290474891662598,9.290474891662598,5.77873501710377,7.629425801874686,6.6610490897879115,2.348901104714771,-6.083898067474365,3,0.038055043667554855,-0.013845273293554783,14.289105415344238,-0.19784921407699585,0.19784921407699585,0,10.10035514831543,,,,,none,0,0,,,-0.00011444089750511921,0.0047607421875,0,0,0,,0.0,0,0,0
20260628T143629Z_pid_c5eef621,pid,RouteScenario_0_rep0,0,0,Town12,12032475,2.500000037252903,basic_agent,basic_agent,0.0,basic_agent_pid,0,follow_lane,clear,6.20387241325504,22.333940687718144,5.555555555555555,20.0,-0.6483168576994842,-8.414651529164985e-05,0.0,0.30000001192092896,1206.286865234375,-82.53760528564453,343.02935791015625,-0.0275268517434597,0.8341914415359497,9.984776261262596e-05,6.203822612762451,-0.003366664284840226,0.04852144047617912,0.8132266998291016,-0.0036139972507953644,-0.008685514330863953,0.81301570431393,-0.0032232591616059934,-0.006712727248668671,94,1,1,,,,,0,13.295000076293945,8.295000076293945,5.865221432121461,7.771763400005329,5.523236676288616,2.1530303978007637,-6.175017356872559,2,0.034444376826286316,0.025058096274733543,13.290825843811035,0.33311253786087036,0.33311253786087036,0,9.563369750976562,,,,,none,0,0,,,-9.155271800409537e-05,0.0040893591940402985,0,0,0,,0.0,0,0,0
20260628T143629Z_pid_c5eef621,pid,RouteScenario_0_rep0,0,0,Town12,12032476,2.550000037997961,basic_agent,basic_agent,0.0,basic_agent_pid,0,follow_lane,clear,6.1512313859683045,22.144432989485896,5.555555555555555,20.0,-0.5956758304127492,-3.530711910570972e-05,0.0,0.30000001192092896,1206.5953369140625,-82.53775024414062,343.031982421875,-0.028503412380814552,0.7854375839233398,0.0005178196588531137,6.151139259338379,-0.0032390612177550793,0.048820629715919495,-1.0536670684814453,0.002552061341702938,0.005983784794807434,-1.0534872081326372,0.0020276998321785084,-0.02298361249268055,94,1,1,,,,,0,16.220945358276367,11.220945358276367,5.8423294726528585,7.734071296547012,8.486874061729356,2.6371220538206335,-6.151002883911133,4,0.09331890940666199,0.08096052706241608,16.167814254760742,1.3118220567703247,1.3118220567703247,0,13.206217765808105,,,,,none,0,0,,,-6.103514533606358e-05,0.0031127985566854477,0,0,0,,0.0,0,0,0
20260628T143629Z_pid_c5eef621,pid,RouteScenario_0_rep0,0,0,Town12,12032477,2.600000038743019,basic_agent,basic_agent,0.0,basic_agent_pid,0,follow_lane,clear,6.091795463704872,21.93046366933754,5.555555555555555,20.0,-0.5362399081493168,-2.3005297407507896e-05,0.0,0.30000001192092896,1206.900390625,-82.53791046142578,343.0346374511719,-0.029205316677689552,0.7117671370506287,0.0015271547017619014,6.091663837432861,-0.003156547201797366,0.04836798459291458,-1.1895084381103516,0.0016502803191542625,-0.009052902460098267,-1.1895297800631524,0.001043800730071373,-0.02346084639430046,94,1,1,,,,,0,13.440338134765625,8.440338134765625,5.806626748693032,7.675310298984778,5.765027835780847,2.1985042818541314,-6.113400936126709,3,0.05046561360359192,0.02503429539501667,13.436126708984375,0.3364342451095581,0.3364342451095581,0,10.102993965148926,,,,,none,0,0,,,-5.340575216905563e-05,0.0024108942598104477,0,0,0,,0.0,0,0,0
20260628T143629Z_pid_c5eef621,pid,RouteScenario_0_rep0,0,0,Town12,12032478,2.650000039488077,basic_agent,basic_agent,0.0,basic_agent_pid,0,follow_lane,clear,5.9564091278930915,21.44307286041513,5.555555555555555,20.0,-0.40085357233753616,-5.6512366427341476e-05,0.0,0.30000001192092896,1207.2003173828125,-82.53804779052734,343.03729248046875,-0.02954101376235485,0.6257887482643127,0.0010882292408496141,5.956236839294434,-0.0031190747395157814,0.0482274629175663,-2.7085399627685547,0.0007494492456316948,-0.002810433506965637,-2.708409118419284,-0.0006475500005177273,-0.010317348875105381,94,1,1,,,,,0,14.53582763671875,9.53582763671875,5.709789313999624,7.516083621487132,7.019744015231618,2.4184132304812107,-6.010481357574463,3,0.05228621885180473,-0.0034179703798145056,14.53574275970459,-0.04968293011188507,0.04968293011188507,0,11.198335647583008,,,,,none,0,0,,,-3.051757266803179e-05,0.0020751971751451492,0,0,0,,0.0,0,0,0
20260628T143629Z_pid_c5eef621,pid,RouteScenario_0_rep0,0,0,Town12,12032479,2.7000000402331352,basic_agent,basic_agent,0.0,basic_agent_pid,0,follow_lane,clear,5.852504273144822,21.06901538332136,5.555555555555555,20.0,-0.29694871758926666,-2.463977762090508e-05,0.0,0.30000001192092896,1207.4942626953125,-82.53820037841797,343.0399475097656,-0.0299987755715847,0.5396873950958252,0.001542121870443225,5.852314472198486,-0.0031169175636023283,0.04762499779462814,-2.0784473419189453,4.314351826906204e-05,-0.012049302458763123,-2.0784684407873844,-0.0010452870940263227,-0.010702183470129967,94,1,1,,,,,0,12.86827278137207,7.86827278137207,5.596386738896524,7.329912213629223,5.538360567742847,2.185446335029669,-5.888166904449463,3,0.04682895168662071,0.04212002456188202,12.856860160827637,0.5418516993522644,0.5418516993522644,0,10.381524085998535,,,,,none,0,0,,,-1.5258786334015895e-05,0.0016174353659152985,0,0,0,,0.0,0,0,0
20260628T143629Z_pid_c5eef621,pid,RouteScenario_0_rep0,0,0,Town12,12032480,2.7500000409781933,basic_agent,basic_agent,0.0,basic_agent_pid,0,follow_lane,clear,5.682205915885121,20.45594129718644,5.555555555555555,20.0,-0.1266503603295659,-0.00011704042844939977,0.0,0.30000001192092896,1207.7808837890625,-82.53834533691406,343.0426025390625,-0.029479974880814552,0.45631808042526245,0.0017345214728266,5.6820244789123535,-0.0030040417332202196,0.045308683067560196,-3.4057998657226562,0.0022575166076421738,-0.04632629454135895,-3.406061574856723,0.0005057365999722643,0.01893025077879429,94,1,1,,,,,0,12.842315673828125,7.842315673828125,5.461130217932061,7.108297425007089,5.734018248821036,2.2374817384080172,-5.73962926864624,4,0.06447377055883408,-0.055527523159980774,12.822522163391113,-0.7127355933189392,0.7127355933189392,0,10.354000091552734,,,,,none,0,0,,,-7.629393167007947e-06,0.0021362360566854477,0,0,0,,0.0,0,0,0
20260628T143629Z_pid_c5eef621,pid,RouteScenario_0_rep0,0,0,Town12,12032481,2.8000000417232513,basic_agent,basic_agent,0.0,basic_agent_pid,0,follow_lane,clear,5.625311384541575,20.251120984349672,5.555555555555555,20.0,-0.06975582898602006,-1.516307565907482e-05,0.0,0.2833811938762665,1208.062744140625,-82.53849792480469,343.04498291015625,-0.030059807002544403,0.39714133739471436,0.001837426912970841,5.625150680541992,-0.0031090339180082083,0.042556628584861755,-1.1374759674072266,-0.0020998436957597733,-0.05504108965396881,-1.1378289172935865,-0.002695099555509154,-0.017390435561537743,94,1,1,,,,,0,15.72443962097168,10.72443962097168,5.332992117546699,6.898806394487984,8.825633226483696,2.8098947644497896,-5.596095561981201,3,0.11658897250890732,0.13810859620571136,15.574713706970215,2.164783000946045,2.164783000946045,0,12.235675811767578,,,,,none,0,0,,,0.0,0.001556403934955597,0,0,0,,0.0,0,0,0
20260628T143629Z_pid_c5eef621,pid,RouteScenario_0_rep0,0,0,Town12,12032482,2.8500000424683094,basic_agent,basic_agent,0.0,basic_agent_pid,0,follow_lane,clear,5.517277088063163,19.862197517027386,5.555555555555555,20.0,0.03827846749239239,4.548973720375216e-06,0.10439514368772507,0.0,1208.34033203125,-82.53862762451172,343.04718017578125,-0.030761713162064552,0.3569798171520233,0.0018352681072428823,5.5171356201171875,-0.003040857147425413,0.03975878655910492,-2.1603012084960938,0.0013635354116559029,-0.05595684051513672,-2.1606083412872397,0.00020504550059632573,-0.002849272219464183,94,1,1,,,,,0,13.053006172180176,8.053006172180176,5.26760040107739,6.792079957025918,6.2609262151542575,2.363930713189482,-5.521738052368164,3,0.11164379119873047,0.10271840542554855,12.98420524597168,1.3384274244308472,1.3384274244308472,0,12.145442008972168,,,,,none,0,0,,,2.2888179501023842e-05,0.0008544977754354477,0,0,0,,0.0,0,0,0
20260628T143629Z_pid_c5eef621,pid,RouteScenario_0_rep0,0,0,Town12,12032483,2.9000000432133675,basic_agent,basic_agent,0.0,basic_agent_pid,0,follow_lane,clear,5.206721355057985,18.744196878208747,5.555555555555555,20.0,0.34883420049757063,8.055264515860472e-06,0.75,0.0,1208.6058349609375,-82.53878021240234,343.0494079589844,-0.03112793155014515,0.28906723856925964,0.0011172437807545066,5.206599235534668,-0.0028752232901751995,0.03718212991952896,-6.210727691650391,0.0033126771450042725,-0.051533132791519165,-6.210909523273599,-6.112373123600551e-05,-0.01586853340268135,94,1,1,,,,,0,12.991439819335938,7.9914398193359375,5.090531146549381,6.503736621725193,6.487703197610744,2.4436535427025503,-5.316400051116943,1,0.03684386610984802,0.03684386610984802,12.982623100280762,0.4785466194152832,0.4785466194152832,0,10.00234317779541,,,,,none,0,0,,,1.5258786334015895e-05,0.00048827938735485077,0,0,0,,0.0,0,0,0
20260628T143629Z_pid_c5eef621,pid,RouteScenario_0_rep0,0,0,Town12,12032484,2.9500000439584255,basic_agent,basic_agent,0.0,basic_agent_pid,0,follow_lane,clear,4.955809019728994,17.840912471024378,5.555555555555555,20.0,0.5997465358265615,7.296178227989003e-05,0.75,0.0,1208.85791015625,-82.5389175415039,343.0513916015625,-0.0320434533059597,0.2165716290473938,0.0010004362557083368,4.955708026885986,-0.0027692257426679134,0.035879869014024734,-5.017824172973633,0.0021199509501457214,-0.026045218110084534,-5.017887018813352,-0.0006862127259876535,-0.0203685462474823,94,1,1,,,,,0,12.504814147949219,7.504814147949219,4.866250729541126,6.1399944738549594,6.364819674094259,2.4775430614234644,-5.047264099121094,3,0.0572502464056015,0.047778815031051636,12.490543365478516,0.5972379446029663,0.5972379446029663,0,10.004079818725586,,,,,none,0,0,,,1.5258786334015895e-05,-0.00042724236845970154,0,0,0,,0.0,0,0,0
20260628T143629Z_pid_c5eef621,pid,RouteScenario_0_rep0,0,0,Town12,12032485,3.0000000447034836,basic_agent,basic_agent,0.0,basic_agent_pid,0,follow_lane,clear,4.693110103359983,16.89519637209594,5.555555555555555,20.0,0.8624454521955727,-2.3179523850558326e-05,0.75,0.0,1209.0972900390625,-82.5390625,343.0531921386719,-0.0316162146627903,0.15495648980140686,0.0006823634612374008,4.693042278289795,-0.0025212964974343777,0.0311745535582304,-5.253314971923828,0.004958584904670715,-0.09410630911588669,-5.253552178582639,0.002060719416267861,0.006693765986710787,94,1,1,,,,,0,16.75183868408203,11.751838684082031,4.648440729140986,5.788514147671332,10.963324536410699,3.5081735866857944,-4.775088310241699,3,0.1240965947508812,0.16291038691997528,16.5300350189209,2.7169930934906006,2.7169930934906006,0,10.225569725036621,,,,,none,0,0,,,0.0,-3.725290298461914e-09,0,0,0,,0.0,0,0,0
20260628T143629Z_pid_c5eef621,pid,RouteScenario_0_rep0,0,0,Town12,12032486,3.0500000454485416,basic_agent,basic_agent,0.0,basic_agent_pid,0,follow_lane,clear,4.581951460492082,16.495025257771495,5.555555555555555,20.0,0.9736040950634735,8.758610420045443e-06,0.75,0.0,1209.3275146484375,-82.53919982910156,343.0549011230469,-0.0316162109375,0.11898872256278992,0.0001984120754059404,4.5818963050842285,-0.002603299217298627,0.030960502102971077,-2.222919464111328,-0.0016400543972849846,-0.004281029105186462,-2.222922282363023,-0.0028666778346175485,-0.0018257573246955872,94,1,1,,,,,0,11.618042945861816,6.618042945861816,4.514365490118806,5.573122541543469,6.044920404318347,2.5247583766391894,-4.601645469665527,3,0.04229037091135979,0.04433112218976021,11.60662841796875,0.5148721933364868,0.5148721933364868,0,10.19943904876709,,,,,none,0,0,,,-7.629393167007947e-06,0.0,0,0,0,,0.0,0,0,0
20260628T143629Z_pid_c5eef621,pid,RouteScenario_0_rep0,0,0,Town12,12032487,3.1000000461935997,basic_agent,basic_agent,0.0,basic_agent_pid,0,follow_lane,clear,4.603318512159532,16.571946643774318,5.555555555555555,20.0,0.952237043396023,2.3939441234688275e-05,0.75,0.0,1209.5570068359375,-82.53935241699219,343.0564270019531,-0.0315856896340847,0.13021071255207062,0.0007966545526869595,4.603255271911621,-0.0024744572583585978,0.0327654629945755,0.42717933654785156,0.002576839178800583,0.03609921783208847,0.42725878397979156,0.002811843269509398,0.0018841023556888103,94,1,1,,,,,0,11.830387115478516,6.830387115478516,4.490324170832399,5.534584067526303,6.295803047952212,2.5886876877663343,-4.570032596588135,5,0.0359070710837841,-0.04057716205716133,11.820649147033691,-0.47991180419921875,0.47991180419921875,0,10.413999557495117,,,,,none,0,0,,,-3.051757266803179e-05,3.052130341529846e-05,0,0,0,,0.0,0,0,0
20260628T143629Z_pid_c5eef621,pid,RouteScenario_0_rep0,0,0,Town12,12032488,3.1500000469386578,basic_agent,basic_agent,0.0,basic_agent_pid,0,follow_lane,clear,4.70005817276761,16.9202094219634,5.555555555555555,20.0,0.8554973827879451,1.7089365428546444e-05,0.75,0.0,1209.7904052734375,-82.53949737548828,343.0579528808594,-0.0314941368997097,0.18015305697917938,0.0013188275042921305,4.69997501373291,-0.0024871653877198696,0.03362790122628212,1.9343948364257812,-0.00025416258722543716,0.017248764634132385,1.9344392950065132,0.000808871504936832,0.002447068225592375,94,1,1,,,,,0,12.051773071289062,7.0517730712890625,4.531079601943424,5.599930823391009,6.451842247898053,2.6066175727426,-4.623529434204102,3,0.07464981079101562,-0.04116504639387131,12.041563034057617,-0.4959716796875,0.4959716796875,0,10.71145248413086,,,,,none,0,0,,,-4.5776359002047684e-05,0.00012207403779029846,0,0,0,,0.0,0,0,0
20260628T143629Z_pid_c5eef621,pid,RouteScenario_0_rep0,0,0,Town12,12032489,3.200000047683716,basic_agent,basic_agent,0.0,basic_agent_pid,0,follow_lane,clear,4.8395295768056465,17.422306476500328,5.555555555555555,20.0,0.7160259787499088,3.4650254292500904e-06,0.75,0.0,1210.0301513671875,-82.53963470458984,343.0594482421875,-0.0313415490090847,0.2529560327529907,0.0010490984423086047,4.839425086975098,-0.002645011292770505,0.03418665751814842,2.78900146484375,-0.0031569181010127068,0.01117512583732605,2.7890247671258845,-0.00163127591850375,0.002859436208382249,94,1,1,,,,,0,13.381688117980957,8.381688117980957,4.627221854973913,5.754374710084958,7.627313407895999,2.8184121225499714,-4.747952938079834,3,0.05719827488064766,-0.04344810172915459,13.369059562683105,-0.5812260508537292,0.5812260508537292,0,10.85629940032959,,,,,none,0,0,,,-5.340575216905563e-05,0.00027466192841529846,0,0,0,,0.0,0,0,0
