run_id,run_label,route_id,route_index,repetition_index,town,frame,timestamp,controller,controller_mode,controller_compute_time_ms,controller_status,controller_fallback,maneuver_state,waiting_left_reason,speed_mps,speed_kph,target_speed_mps,target_speed_kph,speed_error_mps,steer,throttle,brake,x,y,z,yaw_deg,pitch_deg,roll_deg,velocity_x,velocity_y,velocity_z,accel_x,accel_y,accel_z,longitudinal_accel_mps2,lateral_accel_mps2,yaw_rate_dps,road_id,lane_id,target_lane_id,overtake_origin_lane_id,is_junction,front_distance_m,front_closing_speed_mps,front_radar_point_count,front_blocked,rear_distance_m,rear_approach_distance_m,rear_approach_speed_mps,rear_approach_mode,left_oncoming_detected,left_oncoming_confidence,left_oncoming_label,lateral_error_m,heading_error_deg,blocked_vehicle,rejoin_lane_clear,safety_override,safety_override_reason,requested_brake,emergency_brake
20260627T183442Z_RouteScenario_1_rep0_9126d578,RouteScenario_1_rep0,RouteScenario_1_rep0,0,0,Town12,1015534,0.05000000074505806,mpc,mpc,7.002111000474542,mpc_ok,0,follow_lane,clear,0.0002403607687238863,0.0008652987674059907,5.555555555555555,20.0,5.555315194786831,0.0,0.75,0.0,1199.9569091796875,-82.53407287597656,342.9453125,-0.0316467247903347,0.6043487787246704,-0.01141357421875,-0.0012569221435114741,0.0003848605847451836,0.1419672667980194,0.006495767738670111,-0.001741292653605342,-0.6099972128868103,6.231119299404321e-05,-0.0018592255204329415,-0.00019101999350823462,94,1,1,,0,12.900618553161621,0.008724714629352093,1,0,16.217891693115234,,,none,0,,,-4.5776359002047684e-05,-3.0513852834701538e-05,0,0,0,,0.0,0
20260627T183442Z_RouteScenario_1_rep0_9126d578,RouteScenario_1_rep0,RouteScenario_1_rep0,0,0,Town12,1015535,0.10000000149011612,mpc,mpc,7.351506967097521,mpc_ok,0,follow_lane,clear,0.0002006088474361022,0.000722191850769968,5.555555555555555,20.0,5.555354946708119,0.0,0.75,0.0,1199.9569091796875,-82.53408813476562,342.9515686035156,-0.0316162109375,0.6022518873214722,-0.00994872860610485,-0.0010052596917375922,0.00026402552612125874,0.11473207175731659,0.005033249035477638,-0.002416701056063175,-0.5447039008140564,-0.0006911251973505659,-0.0025085085361169954,-0.00010836437286343426,94,1,1,,0,12.76563549041748,0.006783084012567997,3,0,10.720157623291016,,,none,0,,,-6.103514533606358e-05,0.0,0,0,0,,0.0,0
20260627T183442Z_RouteScenario_1_rep0_9126d578,RouteScenario_1_rep0,RouteScenario_1_rep0,0,0,Town12,1015536,0.15000000223517418,mpc,mpc,20.31018497655168,mpc_ok,0,follow_lane,clear,0.00012413043561478344,0.0004468695682132204,5.555555555555555,20.0,5.555431425119941,0.0,0.75,0.0,1199.9569091796875,-82.53411102294922,342.95660400390625,-0.0316162072122097,0.6007082462310791,-0.007965086959302425,-0.0008328882977366447,0.00015805507428012788,0.09128642082214355,0.0034474278800189495,-0.0021194089204072952,-0.4689130187034607,-0.001467744842446084,-0.002182694546646946,-0.00016403761401306838,94,1,1,,0,12.262259483337402,0.0061362809501588345,5,0,9.739411354064941,,,none,0,,,-8.392332483708742e-05,3.725290298461914e-09,0,0,0,,0.0,0
20260627T183442Z_RouteScenario_1_rep0_9126d578,RouteScenario_1_rep0,RouteScenario_1_rep0,0,0,Town12,1015537,0.20000000298023224,mpc,mpc,7.922791002783924,mpc_ok,0,follow_lane,clear,7.948068572761733e-05,0.0002861304686194224,5.555555555555555,20.0,5.555476074869827,0.0,0.75,0.0,1199.9569091796875,-82.53411865234375,342.96051025390625,-0.0315856896340847,0.5995266437530518,-0.006469725631177425,-0.0006725849816575646,0.00019134381727781147,0.07188154757022858,0.003206066321581602,0.0006657748599536717,-0.38809746503829956,-0.0008553433362683515,0.0006237175763135507,-8.301316120196134e-05,94,1,1,,0,14.765910148620605,0.004539008252322674,1,0,18.070873260498047,,,none,0,,,-9.155271800409537e-05,3.052130341529846e-05,0,0,0,,0.0,0
20260627T183442Z_RouteScenario_1_rep0_9126d578,RouteScenario_1_rep0,RouteScenario_1_rep0,0,0,Town12,1015538,0.2500000037252903,mpc,mpc,19.730687025003135,mpc_ok,0,follow_lane,clear,7.019439852676012e-05,0.00025269983469633646,5.555555555555555,20.0,5.555485361157029,9.999999747378752e-05,0.75,0.0,1199.9569091796875,-82.53412628173828,342.963623046875,-0.0315856896340847,0.5984953045845032,-0.005767821334302425,-0.0005101047572679818,0.00010874647705350071,0.05555788427591324,0.0032496044877916574,-0.0016519468044862151,-0.32647326588630676,-0.00015984703143946333,-0.0016830219476725377,1.8116947103408165e-05,94,1,1,,0,13.347434043884277,0.00409513246268034,1,0,10.593972206115723,,,none,0,,,-9.918211117110332e-05,3.052130341529846e-05,0,0,0,,0.0,0
20260627T183442Z_RouteScenario_1_rep0_9126d578,RouteScenario_1_rep0,RouteScenario_1_rep0,0,0,Town12,1015539,0.30000000447034836,mpc,mpc,17.995147965848446,mpc_ok,0,follow_lane,clear,3.3091790461172624e-05,0.00011913044566022145,5.555555555555555,20.0,5.555522463765095,9.999999747378752e-05,0.75,0.0,1199.9569091796875,-82.53414154052734,342.9660339355469,-0.0315856896340847,0.5976278781890869,-0.004974364768713713,-0.0004066988767590374,0.00015688604617025703,0.04217053949832916,0.0020681177265942097,0.0009627913823351264,-0.2677468955516815,-0.0007252292206417853,0.0009406851734172818,1.5914418327156454e-05,94,1,1,,0,12.477140426635742,0.00332502624951303,4,0,9.907390594482422,,,none,0,,,-0.00011444089750511921,3.052130341529846e-05,0,0,0,,0.0,0
20260627T183442Z_RouteScenario_1_rep0_9126d578,RouteScenario_1_rep0,RouteScenario_1_rep0,0,0,Town12,1015540,0.3500000052154064,mpc,mpc,19.065216998569667,mpc_ok,0,follow_lane,clear,5.73334670386576e-05,0.00020640048133916737,5.555555555555555,20.0,5.5554982220885165,9.999999747378752e-05,0.75,0.0,1199.9569091796875,-82.53414916992188,342.96783447265625,-0.0315551720559597,0.5968219041824341,-0.003601073520258069,-0.00028013013070449233,0.00024814382777549326,0.032409243285655975,0.002531374804675579,0.0018251556903123856,-0.19522592425346375,0.0004966964767858201,0.0018142784423362218,-0.0001695733080850914,94,1,1,,0,14.132762908935547,0.0021248101256787777,3,0,11.851959228515625,,,none,0,,,-0.00012207029067212716,6.103888154029846e-05,0,0,0,,0.0,0
20260627T183442Z_RouteScenario_1_rep0_9126d578,RouteScenario_1_rep0,RouteScenario_1_rep0,0,0,Town12,1015541,0.4000000059604645,mpc,mpc,18.423132016323507,mpc_ok,0,follow_lane,clear,1.0348561651744988e-05,3.725482194628196e-05,5.555555555555555,20.0,5.555545206993903,9.999999747378752e-05,0.75,0.0,1199.9569091796875,-82.53414916992188,342.96923828125,-0.0315551795065403,0.5962276458740234,-0.003936767112463713,-0.0002490451734047383,4.1429593693464994e-05,0.024928342550992966,0.0006216991459950805,-0.004134284798055887,-0.1496180146932602,-0.0009329750110532423,-0.004144221737054012,0.0001528106804471463,94,1,1,,0,14.223381996154785,0.0015025967732071877,4,0,11.914008140563965,,,none,0,,,-0.00012207029067212716,6.103143095970154e-05,0,0,0,,0.0,0
20260627T183442Z_RouteScenario_1_rep0_9126d578,RouteScenario_1_rep0,RouteScenario_1_rep0,0,0,Town12,1015542,0.45000000670552254,mpc,mpc,20.24851000169292,mpc_ok,0,follow_lane,clear,2.8234454692255304e-05,0.0001016440368921191,5.555555555555555,20.0,5.555527321100863,9.999999747378752e-05,0.75,0.0,1199.9569091796875,-82.5341567993164,342.9703063964844,-0.03155517578125,0.5955036878585815,-0.0029296872671693563,-0.00017115189984906465,0.00045145308831706643,0.019207129254937172,0.0015578654129058123,0.008200470358133316,-0.11442426592111588,0.00036401768376976944,0.008195475541141115,-0.00020551405032165349,94,1,1,,0,12.737506866455078,-0.00017558618856128305,3,0,10.088171005249023,,,none,0,,,-0.0001296996838391351,6.103515625e-05,0,0,0,,0.0,0
20260627T183442Z_RouteScenario_1_rep0_9126d578,RouteScenario_1_rep0,RouteScenario_1_rep0,0,0,Town12,1015543,0.5000000074505806,mpc,mpc,19.237971981056035,mpc_ok,0,follow_lane,clear,-6.246592050464934e-06,-2.2487731381673764e-05,5.555555555555555,20.0,5.555561802147606,9.999999747378752e-05,0.75,0.0,1199.9569091796875,-82.5341567993164,342.97113037109375,-0.0315551795065403,0.595278263092041,-0.002532958984375,-0.00015695526963099837,0.00010211387416347861,0.014510628767311573,0.0002839326043613255,-0.006986784283071756,-0.09393000602722168,-0.0006881094214559176,-0.006990779068731576,-3.318700328236446e-05,94,1,1,,0,12.509129524230957,0.0011782839428633451,1,0,10.005337715148926,,,none,0,,,-0.0001296996838391351,6.103143095970154e-05,0,0,0,,0.0,0
20260627T183442Z_RouteScenario_1_rep0_9126d578,RouteScenario_1_rep0,RouteScenario_1_rep0,0,0,Town12,1015544,0.5500000081956387,mpc,mpc,18.771584960632026,mpc_ok,0,follow_lane,clear,-2.0200899804623968e-05,-7.272323929664629e-05,5.555555555555555,20.0,5.55557575645536,9.999999747378752e-05,0.75,0.0,1199.9569091796875,-82.5341567993164,342.9717102050781,-0.031524658203125,0.595093846321106,-0.0022583003155887127,-0.000131214561406523,8.20771383587271e-05,0.010692278854548931,0.0005148141644895077,-0.0004007347160950303,-0.07636699825525284,-0.00027815305717030533,-0.00040346142560885565,0.00011510951298987493,94,1,1,,0,13.093361854553223,0.0006900198641233146,3,0,10.715079307556152,,,none,0,,,-0.0001296996838391351,9.1552734375e-05,0,0,0,,0.0,0
20260627T183442Z_RouteScenario_1_rep0_9126d578,RouteScenario_1_rep0,RouteScenario_1_rep0,0,0,Town12,1015545,0.6000000089406967,mpc,mpc,19.24772997153923,mpc_ok,0,follow_lane,clear,1.2009529110429086e-05,4.323430479754471e-05,5.555555555555555,20.0,5.555543546026445,9.999999747378752e-05,0.75,0.0,1199.9569091796875,-82.53416442871094,342.9721374511719,-0.0315246544778347,0.5947523713111877,-0.0012817383976653218,-7.070958235999569e-05,9.215743193635717e-05,0.007973448373377323,0.0012100995518267155,0.00020160587155260146,-0.05437660962343216,0.0006454830728820784,0.00020105499282743402,-0.00016188841254916042,94,1,1,,0,12.75833797454834,0.0005817452911287546,2,0,10.096944808959961,,,none,0,,,-0.00013732907700614305,9.155645966529846e-05,0,0,0,,0.0,0
20260627T183442Z_RouteScenario_1_rep0_9126d578,RouteScenario_1_rep0,RouteScenario_1_rep0,0,0,Town12,1015546,0.6500000096857548,mpc,mpc,19.130900967866182,mpc_ok,0,follow_lane,clear,0.09986976051794218,0.35953113786459184,5.555555555555555,20.0,5.455685795037613,9.999999747378752e-05,0.75,0.0,1199.9578857421875,-82.53416442871094,342.9725341796875,-0.0320129431784153,0.600523829460144,-0.001220703125,0.09980138391256332,-0.00016563900862820446,0.007039585150778294,1.9974417686462402,-0.005155928432941437,-0.01867726445198059,1.9971387666860805,-0.004040738250261496,-0.03476709872484207,94,1,1,,0,12.905437469482422,-0.017877748236060143,2,0,10.176023483276367,,,none,0,,,-0.00013732907700614305,-0.00039673224091529846,0,0,0,,0.0,0
20260627T183442Z_RouteScenario_1_rep0_9126d578,RouteScenario_1_rep0,RouteScenario_1_rep0,0,0,Town12,1015547,0.7000000104308128,mpc,mpc,29.795572045259178,mpc_ok,0,follow_lane,clear,0.5017057285016535,1.8061406226059527,5.555555555555555,20.0,5.053849827053902,0.00019999999494757503,0.75,0.0,1199.976806640625,-82.5341796875,342.97259521484375,-0.032745361328125,0.6818236112594604,-0.0005798339261673391,0.5016414523124695,-0.0010035684099420905,0.008344965055584908,8.0368013381958,-0.016758589074015617,0.02610759809613228,8.036551064548592,-0.012166142839348155,0.976820707321167,94,1,1,,0,13.73252010345459,-0.3455161154270172,2,0,10.907470703125,,,none,0,,,-0.000144958470173151,-0.001129150390625,0,0,0,,0.0,0
20260627T183442Z_RouteScenario_1_rep0_9126d578,RouteScenario_1_rep0,RouteScenario_1_rep0,0,0,Town12,1015548,0.7500000111758709,mpc,mpc,31.105791975278407,mpc_ok,0,follow_lane,clear,0.744407374461726,2.6798665480622135,5.555555555555555,20.0,4.811148181093829,0.0027000000700354576,0.75,0.0,1200.01025390625,-82.5340576171875,342.9727783203125,-0.0596313439309597,0.7672145962715149,-0.0018615724984556437,0.7443368434906006,0.0004127425199840218,0.010313176549971104,4.853907585144043,0.028326217085123062,0.03936422988772392,4.853967460490885,0.03337713700866851,-0.7354826331138611,94,1,1,,0,15.557826042175293,-0.6317470073699951,2,0,11.60179615020752,,,none,0,,,-7.629393167007947e-06,-0.0280151329934597,0,0,0,,0.0,0
20260627T183442Z_RouteScenario_1_rep0_9126d578,RouteScenario_1_rep0,RouteScenario_1_rep0,0,0,Town12,1015549,0.800000011920929,mpc,mpc,28.231482952833176,mpc_ok,0,follow_lane,clear,0.9801076708726196,3.5283876151414306,5.555555555555555,20.0,4.575447884682935,0.0027000000700354576,0.75,0.0,1200.0538330078125,-82.53416442871094,342.9731140136719,-0.0426330529153347,0.8316301107406616,-0.0007934569730423391,0.9800488352775574,-0.0011676815338432789,0.011125173419713974,4.714240074157715,-0.03160848096013069,0.016239937394857407,4.714001385074229,-0.028101388971451157,0.2799019515514374,94,1,1,,0,14.293487548828125,-0.8461402058601379,2,0,10.459643363952637,,,none,0,,,-8.392332483708742e-05,-0.011016841977834702,0,0,0,,0.0,0
20260627T183442Z_RouteScenario_1_rep0_9126d578,RouteScenario_1_rep0,RouteScenario_1_rep0,0,0,Town12,1015550,0.850000012665987,mpc,mpc,27.849635982420295,mpc_ok,0,follow_lane,clear,1.0487510856027398,3.7755039081698634,5.555555555555555,20.0,4.506804469952815,0.0,0.75,0.0,1200.1055908203125,-82.53414916992188,342.97357177734375,-0.0378112830221653,0.8671197891235352,-0.0016174315242096782,1.0487022399902344,0.0011673416011035442,0.011229362338781357,1.37306809425354,0.04670046269893646,0.0020837783813476562,1.3729112692011405,0.04760605448650734,-0.9247689247131348,94,1,1,,0,12.675150871276855,-1.0144281387329102,5,0,9.179409980773926,,,none,0,,,-4.5776359002047684e-05,-0.0061950720846652985,0,0,0,,0.0,0
20260627T183442Z_RouteScenario_1_rep0_9126d578,RouteScenario_1_rep0,RouteScenario_1_rep0,0,0,Town12,1015551,0.9000000134110451,mpc,mpc,18.07794300839305,mpc_ok,0,follow_lane,clear,1.2495543434970617,4.498395636589422,5.555555555555555,20.0,4.306001212058494,0.0017000000225380063,0.75,0.0,1200.1651611328125,-82.53411865234375,342.9740905761719,-0.0531616136431694,0.8903765678405762,-0.00018310545419808477,1.249501347541809,-0.000785147596616298,0.01310698501765728,4.015982151031494,-0.03904978185892105,0.03755245357751846,4.016115278908683,-0.03532363571134715,-0.24435606598854065,94,1,1,,0,17.0413818359375,-1.176214337348938,1,0,14.72730541229248,,,none,0,,,2.2888179501023842e-05,-0.021545402705669403,0,0,0,,0.0,0
20260627T183442Z_RouteScenario_1_rep0_9126d578,RouteScenario_1_rep0,RouteScenario_1_rep0,0,0,Town12,1015552,0.9500000141561031,mpc,mpc,15.91385796200484,mpc_ok,0,follow_lane,clear,1.3844690671611932,4.984088641780295,5.555555555555555,20.0,4.171086488394362,0.0017000000225380063,0.75,0.0,1200.2322998046875,-82.53414154052734,342.9747619628906,-0.046600341796875,0.9011068344116211,-0.00024414061044808477,1.3844263553619385,0.0002207684883615002,0.013643274083733559,2.698500156402588,0.020118320360779762,0.010725781321525574,2.6983177614560523,0.022312947318748957,1.062062382698059,94,1,1,,0,13.790132522583008,-1.3330479860305786,2,0,10.073500633239746,,,none,0,,,3.051757266803179e-05,-0.014984130859375,0,0,0,,0.0,0
20260627T183442Z_RouteScenario_1_rep0_9126d578,RouteScenario_1_rep0,RouteScenario_1_rep0,0,0,Town12,1015553,1.0000000149011612,mpc,mpc,29.93415098171681,mpc_ok,0,follow_lane,clear,1.4667070537151974,5.280145393374711,5.555555555555555,20.0,4.088848501840358,0.0017000000225380063,0.75,0.0,1200.3037109375,-82.53408813476562,342.9755859375,-0.0536193810403347,0.8938258290290833,-0.0006103515625,1.4666680097579956,0.00042461982229724526,0.014009914360940456,1.6448330879211426,0.00407702662050724,0.007332805544137955,1.6447428762956509,0.00561612139495694,-0.886082112789154,94,1,1,,0,14.62935733795166,-1.4241235256195068,3,0,12.866073608398438,,,none,0,,,0.0001296996838391351,-0.0220031701028347,0,0,0,,0.0,0
20260627T183442Z_RouteScenario_1_rep0_9126d578,RouteScenario_1_rep0,RouteScenario_1_rep0,0,0,Town12,1015554,1.0500000156462193,mpc,mpc,29.69413995742798,mpc_ok,0,follow_lane,clear,1.5672974963913382,5.642270987008818,5.555555555555555,20.0,3.988258059164217,0.0017000000225380063,0.75,0.0,1200.3797607421875,-82.53412628173828,342.9764099121094,-0.04132080078125,0.8794550895690918,-0.0010986329289153218,1.5672607421875,0.0004447702958714217,0.014470528811216354,2.011854648590088,0.0004030094714835286,0.00921228900551796,2.011758321974498,0.001853511205199979,0.9860017895698547,94,1,1,,0,14.098000526428223,-1.5242176055908203,6,0,9.942997932434082,,,none,0,,,0.0001296996838391351,-0.00970458984375,0,0,0,,0.0,0
20260627T183442Z_RouteScenario_1_rep0_9126d578,RouteScenario_1_rep0,RouteScenario_1_rep0,0,0,Town12,1015555,1.1000000163912773,mpc,mpc,31.437294033821672,mpc_ok,0,follow_lane,clear,1.6921746330639136,6.091828679030089,5.555555555555555,20.0,3.8633809224916416,0.0017000000225380063,0.75,0.0,1200.4617919921875,-82.5340576171875,342.97723388671875,-0.047149658203125,0.8687521815299988,-0.0013732911320403218,1.6921346187591553,0.0007109940052032471,0.015544299967586994,2.4974775314331055,0.005324474070221186,0.021475423127412796,2.4975107142733326,0.0073792950660885575,-0.8469030857086182,94,1,1,,0,17.241588592529297,-1.6300530433654785,3,0,19.297313690185547,,,none,0,,,0.00024414058134425431,-0.015533447265625,0,0,0,,0.0,0
20260627T183442Z_RouteScenario_1_rep0_9126d578,RouteScenario_1_rep0,RouteScenario_1_rep0,0,0,Town12,1015556,1.1500000171363354,mpc,mpc,30.841986008454114,mpc_ok,0,follow_lane,clear,1.8357475862021466,6.608691310327728,5.555555555555555,20.0,3.7198079693534085,-0.0,0.75,0.0,1200.5506591796875,-82.53404998779297,342.9779968261719,-0.0348205603659153,0.8644218444824219,-0.0012817381648346782,1.835693597793579,0.000795635103713721,0.017480945214629173,2.8711795806884766,0.0016928219702094793,0.03873290494084358,2.8714356821236504,0.0034376307332780976,0.9524446129798889,94,1,1,,0,18.8272647857666,-1.7621657848358154,2,0,15.176092147827148,,,none,0,,,0.00029754633351330995,-0.0032043494284152985,0,0,0,,0.0,0
20260627T183442Z_RouteScenario_1_rep0_9126d578,RouteScenario_1_rep0,RouteScenario_1_rep0,0,0,Town12,1015557,1.2000000178813934,mpc,mpc,20.332819025497884,mpc_ok,0,follow_lane,clear,1.9966841746104915,7.18806302859777,5.555555555555555,20.0,3.558871380945064,0.000699999975040555,0.75,0.0,1200.647216796875,-82.53407287597656,342.9789733886719,-0.0416259765625,0.8667714595794678,-3.0517585400957614e-05,1.996626853942871,-0.0007737561827525496,0.018889646977186203,3.21866512298584,-0.031387824565172195,0.028174035251140594,3.2187450105488575,-0.029049434551423177,-0.8628136515617371,94,1,1,,0,15.766486167907715,-1.917206048965454,3,0,16.150285720825195,,,none,0,,,0.00032806390618134174,-0.010009765625,0,0,0,,0.0,0
20260627T183442Z_RouteScenario_1_rep0_9126d578,RouteScenario_1_rep0,RouteScenario_1_rep0,0,0,Town12,1015558,1.2500000186264515,mpc,mpc,29.01736000785604,mpc_ok,0,follow_lane,clear,2.1677871405869245,7.804033706112929,5.555555555555555,20.0,3.387768414968631,-0.0,0.75,0.0,1200.752197265625,-82.53411865234375,342.9799499511719,-0.0328063927590847,0.8743119835853577,0.00012812191562261432,2.167729616165161,-0.0004364963388070464,0.020316457375884056,3.422055244445801,0.006745196878910065,0.028536207973957062,3.422087851517815,0.008704647293501934,0.8338127136230469,94,1,1,,0,13.072235107421875,-2.0892562866210938,1,0,9.269831657409668,,,none,0,,,0.00034332269251535763,-0.0011901818215847015,0,0,0,,0.0,0
20260627T183442Z_RouteScenario_1_rep0_9126d578,RouteScenario_1_rep0,RouteScenario_1_rep0,0,0,Town12,1015559,1.3000000193715096,mpc,mpc,20.82198701100424,mpc_ok,0,follow_lane,clear,2.348305927876049,8.453901340353777,5.555555555555555,20.0,3.207249627679506,0.0006000000284984708,0.75,0.0,1200.8660888671875,-82.53414916992188,342.98101806640625,-0.039581298828125,0.8844684958457947,0.0006331178592517972,2.348236322402954,-0.0012609787518158555,0.022614173591136932,3.6101341247558594,-0.016489647328853607,0.045954324305057526,3.6104238713168377,-0.013995568331871697,-0.7712923288345337,94,1,1,,0,16.493806838989258,-2.2606098651885986,3,0,14.413976669311523,,,none,0,,,0.0003738402651833894,-0.007965087890625,0,0,0,,0.0,0
20260627T183442Z_RouteScenario_1_rep0_9126d578,RouteScenario_1_rep0,RouteScenario_1_rep0,0,0,Town12,1015560,1.3500000201165676,mpc,mpc,31.69988701120019,mpc_ok,0,follow_lane,clear,2.5371390059618397,9.133700421462624,5.555555555555555,20.0,3.0184165495937156,-0.0,0.75,0.0,1200.9892578125,-82.53422546386719,342.9821472167969,-0.0308837853372097,0.896038830280304,0.00014113019278738648,2.5370662212371826,-0.0008693109848536551,0.02448667399585247,3.7765979766845703,0.007833355106413364,0.03745000809431076,3.7767170441140805,0.009869083354030046,0.7701389789581299,94,1,1,,0,14.374152183532715,-2.452439308166504,3,0,10.156225204467773,,,none,0,,,0.00036621087201638147,0.0007324256002902985,0,0,0,,0.0,0
20260627T183442Z_RouteScenario_1_rep0_9126d578,RouteScenario_1_rep0,RouteScenario_1_rep0,0,0,Town12,1015561,1.4000000208616257,mpc,mpc,18.594031978864223,mpc_ok,0,follow_lane,clear,2.7358021381363384,9.848887697290818,5.555555555555555,20.0,2.819753417419217,0.00039999998989515007,0.75,0.0,1201.1221923828125,-82.53425598144531,342.98333740234375,-0.0372314453125,0.9088385701179504,0.000624427804723382,2.735727548599243,-0.0013839825987815857,0.02638007141649723,3.973226547241211,-0.010293432511389256,0.0378679484128952,3.9733329997794344,-0.0077113085769557384,-0.6821523904800415,94,1,1,,0,14.980330467224121,-2.6456005573272705,3,0,10.382125854492188,,,none,0,,,0.00041198723101842916,-0.005615234375,0,0,0,,0.0,0
20260627T183442Z_RouteScenario_1_rep0_9126d578,RouteScenario_1_rep0,RouteScenario_1_rep0,0,0,Town12,1015562,1.4500000216066837,mpc,mpc,31.268246995750815,mpc_ok,0,follow_lane,clear,2.943585601135855,10.596908164089077,5.555555555555555,20.0,2.6119699544197004,-0.0,0.75,0.0,1201.2652587890625,-82.5343246459961,342.98468017578125,-0.02981567196547985,0.9224306344985962,2.6058478291846043e-11,2.9435086250305176,-0.0011322364443913102,0.028464602306485176,4.155621528625488,0.00503492308780551,0.04169061779975891,4.155751093086142,0.007197431754575793,0.6511208415031433,94,1,1,,0,13.02660846710205,-2.8457419872283936,2,0,9.097041130065918,,,none,0,,,0.0004196166241854371,0.0018005389720201492,0,0,0,,0.0,0
20260627T183442Z_RouteScenario_1_rep0_9126d578,RouteScenario_1_rep0,RouteScenario_1_rep0,0,0,Town12,1015563,1.5000000223517418,mpc,mpc,17.82123203156516,mpc_ok,0,follow_lane,clear,3.1585613334000056,11.37082080024002,5.555555555555555,20.0,2.39699422215555,0.0,0.75,0.0,1201.4190673828125,-82.53437042236328,342.9861755371094,-0.0350646935403347,0.936261773109436,-6.1035112594254315e-05,3.1584877967834473,-0.001596111455000937,0.030283555388450623,4.299583435058594,-0.009277500212192535,0.03637906163930893,4.299608725290775,-0.006646214084680765,-0.5414056777954102,94,1,1,,0,13.677190780639648,-3.0589799880981445,4,0,9.548173904418945,,,none,0,,,0.00045776359002047684,-0.0034484826028347015,0,0,0,,0.0,0
20260627T183442Z_RouteScenario_1_rep0_9126d578,RouteScenario_1_rep0,RouteScenario_1_rep0,0,0,Town12,1015564,1.5500000230967999,mpc,mpc,20.8134509739466,mpc_ok,0,follow_lane,clear,3.380853537238016,12.171072734056859,5.555555555555555,20.0,2.1747020183175394,0.0,0.75,0.0,1201.583740234375,-82.53450012207031,342.9877014160156,-0.030212396755814552,0.9494918584823608,0.0005116585525684059,3.380793571472168,-0.0018293156754225492,0.03160236403346062,4.446115493774414,-0.004664084408432245,0.02637617290019989,4.445943921337955,-0.0023191989238799727,0.42599231004714966,94,1,1,,0,15.454550743103027,-3.280648708343506,1,0,10.914461135864258,,,none,0,,,0.0004196166241854371,0.0014038141816854477,0,0,0,,0.0,0
20260627T183442Z_RouteScenario_1_rep0_9126d578,RouteScenario_1_rep0,RouteScenario_1_rep0,0,0,Town12,1015565,1.600000023841858,mpc,mpc,18.470270035322756,mpc_ok,0,follow_lane,clear,3.6131042108678826,13.007175159124378,5.555555555555555,20.0,1.9424513446876728,0.0,0.75,0.0,1201.760009765625,-82.53457641601562,342.9892883300781,-0.0332641564309597,0.9628380537033081,0.0001789029483916238,3.6130359172821045,-0.0020623356103897095,0.03438783437013626,4.6448469161987305,-0.0046603986993432045,0.05570940673351288,4.645129058134452,-0.001963674189944228,-0.24416851997375488,94,1,1,,0,13.436488151550293,-3.506716251373291,1,0,9.387433052062988,,,none,0,,,0.00044250480368646095,-0.0016479454934597015,0,0,0,,0.0,0
20260627T183442Z_RouteScenario_1_rep0_9126d578,RouteScenario_1_rep0,RouteScenario_1_rep0,0,0,Town12,1015566,1.650000024586916,mpc,mpc,19.632794021163136,mpc_ok,0,follow_lane,clear,3.8397773356125096,13.823198408205034,5.555555555555555,20.0,1.7157782199430458,0.0,0.75,0.0,1201.947509765625,-82.53468322753906,342.9909973144531,-0.031524658203125,0.9738619923591614,6.868402851978317e-05,3.8397045135498047,-0.00209537404589355,0.03688365966081619,4.533371925354004,-0.0006607687100768089,0.04991650581359863,4.533565154316456,0.0018335663271608644,0.12024595588445663,94,1,1,,0,13.940792083740234,-3.7350971698760986,3,0,9.761914253234863,,,none,0,,,0.000434875410519453,9.1552734375e-05,0,0,0,,0.0,0
20260627T183442Z_RouteScenario_1_rep0_9126d578,RouteScenario_1_rep0,RouteScenario_1_rep0,0,0,Town12,1015567,1.700000025331974,mpc,mpc,20.354929962195456,mpc_ok,0,follow_lane,clear,4.054380513613106,14.595769849007182,5.555555555555555,20.0,1.5011750419424494,0.0,0.75,0.0,1202.1461181640625,-82.53477478027344,342.9929504394531,-0.0321960411965847,0.9799066781997681,-0.000579833984375,4.0543107986450195,-0.002289749449118972,0.03870914503931999,4.292125701904297,-0.003887508064508438,0.03650970757007599,4.292123690586866,-0.0014760199710578538,-0.04099079594016075,94,1,1,,0,13.1259126663208,-3.954749584197998,2,0,9.05701732635498,,,none,0,,,0.00045776359002047684,-0.0005798302590847015,0,0,0,,0.0,0
20260627T183442Z_RouteScenario_1_rep0_9126d578,RouteScenario_1_rep0,RouteScenario_1_rep0,0,0,Town12,1015568,1.750000026077032,mpc,mpc,17.911982024088502,mpc_ok,0,follow_lane,clear,4.260317489518635,15.337142962267087,5.555555555555555,20.0,1.2952380660369203,0.0,0.75,0.0,1202.35498046875,-82.53487396240234,342.9949035644531,-0.0319213829934597,0.9802209138870239,-0.0003356933011673391,4.260252475738525,-0.0022819398436695337,0.04020796716213226,4.118833541870117,0.0001561921089887619,0.029976442456245422,4.118742826349724,0.0024506938732115563,0.007022374775260687,94,1,1,,0,15.200601577758789,-4.150754928588867,1,0,12.72501277923584,,,none,0,,,0.00047302237635449274,-0.00030517205595970154,0,0,0,,0.0,0
20260627T183442Z_RouteScenario_1_rep0_9126d578,RouteScenario_1_rep0,RouteScenario_1_rep0,0,0,Town12,1015569,1.8000000268220901,mpc,mpc,19.068913999944925,mpc_ok,0,follow_lane,clear,4.461514625793532,16.061452652856715,5.555555555555555,20.0,1.0940409297620235,0.0,0.75,0.0,1202.573974609375,-82.53498077392578,342.9969482421875,-0.0318908728659153,0.9794217348098755,-6.1035138060105965e-05,4.461464881896973,-0.0024114339612424374,0.04100542142987251,4.024248123168945,-0.0025898823514580727,0.015949085354804993,4.023933561041359,-0.000350038712104702,0.0009974263375625014,94,1,1,,0,14.886470794677734,-4.351062297821045,1,0,13.555184364318848,,,none,0,,,0.00048828116268850863,-0.00027466192841529846,0,0,0,,0.0,0
20260627T183442Z_RouteScenario_1_rep0_9126d578,RouteScenario_1_rep0,RouteScenario_1_rep0,0,0,Town12,1015570,1.8500000275671482,mpc,mpc,8.098419988527894,mpc_ok,0,follow_lane,clear,4.660348377976967,16.77725416071708,5.555555555555555,20.0,0.8952071775785884,0.0,0.75,0.0,1202.802978515625,-82.53512573242188,342.9990234375,-0.03179931640625,0.9782606363296509,0.00023970412439666688,4.660313129425049,-0.0025748624466359615,0.04180867224931717,3.9769649505615234,-0.0032685697078704834,0.016065016388893127,3.976660755455443,-0.0010611257184669756,0.0009637662442401052,94,1,1,,0,14.79028034210205,-4.5677289962768555,2,0,10.356149673461914,,,none,0,,,0.0004653929831874848,-0.00018310546875,0,0,0,,0.0,0
20260627T183442Z_RouteScenario_1_rep0_9126d578,RouteScenario_1_rep0,RouteScenario_1_rep0,0,0,Town12,1015571,1.9000000283122063,mpc,mpc,17.730330990161747,mpc_ok,0,follow_lane,clear,4.858087589393805,17.4891153218177,5.555555555555555,20.0,0.6974679661617502,0.0,0.75,0.0,1203.0421142578125,-82.53527069091797,343.00115966796875,-0.0317382775247097,0.9770585298538208,0.0005280521581880748,4.858058929443359,-0.002675004303455353,0.04306052252650261,3.954916000366211,-0.002002837136387825,0.0250370055437088,3.9547683862294765,0.00018833016630087109,0.0012815463123843074,94,1,1,,0,13.302692413330078,-4.766390323638916,4,0,9.14981460571289,,,none,0,,,0.00045776359002047684,-0.00012206658720970154,0,0,0,,0.0,0
20260627T183442Z_RouteScenario_1_rep0_9126d578,RouteScenario_1_rep0,RouteScenario_1_rep0,0,0,Town12,1015572,1.9500000290572643,mpc,mpc,19.238854001741856,mpc_ok,0,follow_lane,clear,5.055693949796025,18.20049821926569,5.555555555555555,20.0,0.49986160575953065,0.0,0.75,0.0,1203.2908935546875,-82.53541564941406,343.0033874511719,-0.0316772423684597,0.9755421876907349,0.0003240782243665308,5.055586338043213,-0.002776552690193057,0.049316126853227615,3.9505481719970703,-0.0020309677347540855,0.12511208653450012,3.952106031012494,0.00015285365149752097,0.001615938963368535,94,1,1,,0,14.325911521911621,-4.961543560028076,2,0,9.613751411437988,,,none,0,,,0.0004501341968534689,-6.103143095970154e-05,0,0,0,,0.0,0
20260627T183442Z_RouteScenario_1_rep0_9126d578,RouteScenario_1_rep0,RouteScenario_1_rep0,0,0,Town12,1015573,2.0000000298023224,mpc,mpc,23.306912975385785,mpc_ok,0,follow_lane,clear,5.25279729743881,18.910070270779716,5.555555555555555,20.0,0.3027582581167456,0.0,0.75,0.0,1203.549560546875,-82.53557586669922,343.00579833984375,-0.0311584435403347,0.9742854237556458,0.0009643425000831485,5.252729892730713,-0.0028777867555618286,0.04857884347438812,3.94287109375,-0.002024681307375431,-0.014745667576789856,3.9420508515945363,0.00012089751378543349,0.05551183223724365,94,1,1,,0,14.870967864990234,-5.163552284240723,3,0,11.449305534362793,,,none,0,,,0.00042724601735244505,0.00045776739716529846,0,0,0,,0.0,0
20260627T183442Z_RouteScenario_1_rep0_9126d578,RouteScenario_1_rep0,RouteScenario_1_rep0,0,0,Town12,1015574,2.0500000305473804,mpc,mpc,20.686001982539892,mpc_ok,0,follow_lane,clear,5.341362758419102,19.228905930308766,5.555555555555555,20.0,0.21419279713645345,0.0,0.75,0.0,1203.8155517578125,-82.53572082519531,343.0082702636719,-0.0349426306784153,0.9587262868881226,0.0005385734839364886,5.3413004875183105,-0.0028410751838237047,0.04836629703640938,1.7714118957519531,0.0007342314347624779,-0.00425092875957489,1.7710919864065229,0.0018148700236021997,-0.8816568851470947,94,1,1,,0,14.228275299072266,-5.309210777282715,4,0,9.882143020629883,,,none,0,,,0.000434875410519453,-0.0033264197409152985,0,0,0,,0.0,0
20260627T183442Z_RouteScenario_1_rep0_9126d578,RouteScenario_1_rep0,RouteScenario_1_rep0,0,0,Town12,1015575,2.1000000312924385,mpc,mpc,21.217720001004636,mpc_ok,0,follow_lane,clear,5.279656560048116,19.006763616173217,5.555555555555555,20.0,0.2758989955074398,0.0,0.75,0.0,1204.079833984375,-82.53596496582031,343.01080322265625,-0.010711669921875,0.8985864520072937,-0.00039672848652116954,5.279562950134277,-0.0029774229042232037,0.047340717166662216,-1.234750747680664,-0.002726954407989979,-0.020511597394943237,-1.2349200837453973,-0.0029578038226871608,0.4895164966583252,94,1,1,,0,13.941365242004395,-5.29536771774292,3,0,9.622246742248535,,,none,0,,,0.0003356932993483497,0.020904541015625,0,0,0,,0.0,0
20260627T183442Z_RouteScenario_1_rep0_9126d578,RouteScenario_1_rep0,RouteScenario_1_rep0,0,0,Town12,1015576,2.1500000320374966,mpc,mpc,19.105624000076205,mpc_ok,0,follow_lane,clear,5.253090922601552,18.911127321365587,5.555555555555555,20.0,0.3024646329540035,-0.0010999999940395355,0.75,0.0,1204.34228515625,-82.53607940673828,343.013427734375,-0.007171631325036287,0.8272724747657776,-0.0012817383976653218,5.25296688079834,-0.0020149657502770424,0.046500127762556076,-0.53192138671875,0.019249143078923225,-0.016811788082122803,-0.5321110745545946,0.01918235899450936,-0.2044522613286972,94,1,1,,0,14.665776252746582,-5.248945236206055,2,0,11.117477416992188,,,none,0,,,0.00036621087201638147,0.024444579612463713,0,0,0,,0.0,0
20260627T183442Z_RouteScenario_1_rep0_9126d578,RouteScenario_1_rep0,RouteScenario_1_rep0,0,0,Town12,1015577,2.2000000327825546,mpc,mpc,30.806239985395223,mpc_ok,0,follow_lane,clear,5.26094425424167,18.939399315270013,5.555555555555555,20.0,0.2946113013138856,-0.0010999999940395355,0.75,0.0,1204.604248046875,-82.53624725341797,343.0159606933594,-0.004241943359375,0.7669414281845093,0.00024810779723338783,5.260801792144775,-0.003073501866310835,0.04583745077252388,0.15669822692871094,-0.02117072232067585,-0.013253539800643921,0.15650835426451465,-0.021159054560489957,0.2685754597187042,94,1,1,,0,13.984559059143066,-5.2369842529296875,4,0,10.475969314575195,,,none,0,,,0.00034332269251535763,0.027374267578125,0,0,0,,0.0,0
20260627T183442Z_RouteScenario_1_rep0_9126d578,RouteScenario_1_rep0,RouteScenario_1_rep0,0,0,Town12,1015578,2.2500000335276127,mpc,mpc,30.534629011526704,mpc_ok,0,follow_lane,clear,5.261077547691714,18.939879171690173,5.555555555555555,20.0,0.29447800786384093,-0.00039999998989515007,0.75,0.0,1204.866943359375,-82.53639221191406,343.01849365234375,-0.010803221724927425,0.71989506483078,0.0006736395298503339,5.260927200317383,-0.0036135544069111347,0.04497053846716881,0.0025081634521484375,-0.010801050812005997,-0.01733824610710144,0.0022921605765007353,-0.010800373689183209,-0.36210694909095764,94,1,1,,0,15.500200271606445,-5.232154846191406,1,0,11.76159381866455,,,none,0,,,0.00034332269251535763,0.020812989212572575,0,0,0,,0.0,0
20260627T183442Z_RouteScenario_1_rep0_9126d578,RouteScenario_1_rep0,RouteScenario_1_rep0,0,0,Town12,1015579,2.3000000342726707,mpc,mpc,30.277715995907784,mpc_ok,0,follow_lane,clear,5.2560032122578395,18.921611564128224,5.555555555555555,20.0,0.29955234329771585,-0.0007999999797903001,0.75,0.0,1205.12939453125,-82.53654479980469,343.02081298828125,-0.01116943359375,0.6766189932823181,2.3360607883660123e-05,5.255851745605469,-0.002934571821242571,0.0438205786049366,-0.10150909423828125,0.013579651713371277,-0.022999197244644165,-0.10177625879972545,0.013559872073691736,0.23576942086219788,94,1,1,,0,16.35331153869629,-5.251782417297363,2,0,12.305961608886719,,,none,0,,,0.0003356932993483497,0.02044677734375,0,0,0,,0.0,0
20260627T183442Z_RouteScenario_1_rep0_9126d578,RouteScenario_1_rep0,RouteScenario_1_rep0,0,0,Town12,1015580,2.350000035017729,mpc,mpc,16.899631009437144,mpc_ok,0,follow_lane,clear,5.591156834648456,20.12816460473444,5.555555555555555,20.0,-0.03560127909290056,-0.0007999999797903001,0.0,0.09999503195285797,1205.3974609375,-82.53668975830078,343.02301025390625,-0.019287109375,0.6707245111465454,0.0012313687475398183,5.591009616851807,-0.0036519814748317003,0.04522376134991646,6.703157424926758,-0.014348193071782589,0.028063654899597168,6.703030900283139,-0.012090668338860994,-0.7136313915252686,94,1,1,,0,16.849925994873047,-5.304890155792236,1,0,15.465591430664062,,,none,0,,,0.0003356932993483497,0.0123291015625,0,0,0,,0.0,0
20260627T183442Z_RouteScenario_1_rep0_9126d578,RouteScenario_1_rep0,RouteScenario_1_rep0,0,0,Town12,1015581,2.400000035762787,mpc,mpc,30.638483993243426,mpc_ok,0,follow_lane,clear,6.046401775179363,21.767046390645707,5.555555555555555,20.0,-0.4908462196238075,-0.0007999999797903001,0.0,0.30000001192092896,1205.69140625,-82.53694152832031,343.0250244140625,-0.001861572265625,0.7643868923187256,0.0011497472878545523,6.046309471130371,-0.004342330154031515,0.047241371124982834,9.105997085571289,-0.013806973583996296,0.040352195501327515,9.105725519287343,-0.013509486533111063,1.5787720680236816,94,1,1,,0,18.39777374267578,-5.8184967041015625,3,0,17.473588943481445,,,none,0,,,0.00024414058134425431,0.029754638671875,0,0,0,,0.0,0
20260627T183442Z_RouteScenario_1_rep0_9126d578,RouteScenario_1_rep0,RouteScenario_1_rep0,0,0,Town12,1015582,2.450000036507845,mpc,mpc,31.7674339748919,mpc_ok,0,follow_lane,clear,6.167033897390204,22.201322030604736,5.555555555555555,20.0,-0.6114783418346486,-0.0007999999797903001,0.0,0.30000001192092896,1205.9991455078125,-82.53707122802734,343.0271911621094,-0.019256591796875,0.8253941535949707,0.0005067421006970108,6.16697359085083,-0.0038168574683368206,0.04854253679513931,2.4132823944091797,0.01050945371389389,0.026023313403129578,2.4134031632868744,0.011320612739659697,-3.2074882984161377,94,1,1,,0,14.254677772521973,-6.111446380615234,3,0,10.110885620117188,,,none,0,,,0.00028228754717929405,0.012359619140625,0,0,0,,0.0,0
20260627T183442Z_RouteScenario_1_rep0_9126d578,RouteScenario_1_rep0,RouteScenario_1_rep0,0,0,Town12,1015583,2.500000037252903,mpc,mpc,31.136128993239254,mpc_ok,0,follow_lane,clear,6.1480564336253565,22.133003161051285,5.555555555555555,20.0,-0.5925008780698011,-0.0007999999797903001,0.0,0.30000001192092896,1206.30712890625,-82.53736877441406,343.0296325683594,0.011710093356668949,0.8073965907096863,-0.000701904296875,6.147980690002441,-0.003980382811278105,0.048760611563920975,-0.37985801696777344,-0.0032705068588256836,0.00436149537563324,-0.3797595059404943,-0.003192752597001404,3.3033649921417236,94,1,1,,0,13.203155517578125,-6.147921085357666,2,0,9.588783264160156,,,none,0,,,0.0001602172565071669,0.04332630429416895,0,0,0,,0.0,0
20260627T183442Z_RouteScenario_1_rep0_9126d578,RouteScenario_1_rep0,RouteScenario_1_rep0,0,0,Town12,1015584,2.550000037997961,mpc,mpc,31.667215982452035,mpc_ok,0,follow_lane,clear,6.078052883214585,21.880990379572506,5.555555555555555,20.0,-0.5224973276590292,0.0,0.0,0.30000001192092896,1206.612060546875,-82.53743743896484,343.0322265625,-0.025543212890625,0.7459248900413513,0.0005153699312359095,6.077935218811035,-0.0039946651086211205,0.04851227626204491,-1.400909423828125,-0.0002856459468603134,-0.004966706037521362,-1.400855050437027,-0.0009103091425573149,-3.4619174003601074,94,1,1,,0,16.0231876373291,-6.083893775939941,4,0,13.272976875305176,,,none,0,,,0.0002593993676782702,0.006072998046875,0,0,0,,0.0,0
20260627T183442Z_RouteScenario_1_rep0_9126d578,RouteScenario_1_rep0,RouteScenario_1_rep0,0,0,Town12,1015585,2.600000038743019,mpc,mpc,19.9895539553836,mpc_ok,0,follow_lane,clear,5.977132144611745,21.51767572060228,5.555555555555555,20.0,-0.42157658905618955,0.0,0.0,0.30000001192092896,1206.912353515625,-82.53768157958984,343.034912109375,0.006328279618173838,0.665185272693634,-6.103515625e-05,5.976973533630371,-0.0023245858028531075,0.04838327318429947,-2.0192337036132812,0.03340158611536026,-0.0025800615549087524,-2.0191238453737954,0.03362463131874913,3.362877130508423,94,1,1,,0,13.277313232421875,-6.020242214202881,3,0,10.151453971862793,,,none,0,,,0.0001754760428411828,0.03794449055567384,0,0,0,,0.0,0
20260627T183442Z_RouteScenario_1_rep0_9126d578,RouteScenario_1_rep0,RouteScenario_1_rep0,0,0,Town12,1015586,2.650000039488077,mpc,mpc,20.58095403481275,mpc_ok,0,follow_lane,clear,5.853989715837323,21.074362977014363,5.555555555555555,20.0,-0.2984341602817677,0.0,0.0,0.30000001192092896,1207.2066650390625,-82.53767395019531,343.0375671386719,-0.02792358212172985,0.5790156126022339,-0.00048828122089616954,5.853811740875244,-0.002357190242037177,0.047145478427410126,-2.463235855102539,-0.0006520887836813927,-0.024755895137786865,-2.463359590786357,-0.001852566286790816,-3.3970656394958496,94,1,1,,0,14.34549617767334,-5.896847248077393,3,0,11.2610445022583,,,none,0,,,0.0003509520856823656,0.0036926288157701492,0,0,0,,0.0,0
20260627T183442Z_RouteScenario_1_rep0_9126d578,RouteScenario_1_rep0,RouteScenario_1_rep0,0,0,Town12,1015587,2.7000000402331352,mpc,mpc,18.838803051039577,mpc_ok,0,follow_lane,clear,5.713531064142873,20.568711830914342,5.555555555555555,20.0,-0.15797550858731757,0.0,0.0,0.30000001192092896,1207.494384765625,-82.53788757324219,343.0401611328125,0.007010571658611298,0.49475154280662537,-0.00042724606464616954,5.713356971740723,-0.0014274955028668046,0.04485427588224411,-2.8090953826904297,0.018593894317746162,-0.04582405090332031,-2.809384148463715,0.0189374475477566,3.4103338718414307,94,1,1,,0,12.722505569458008,-5.770212173461914,4,0,10.427956581115723,,,none,0,,,0.00029754633351330995,0.0386267825961113,0,0,0,,0.0,0
20260627T183442Z_RouteScenario_1_rep0_9126d578,RouteScenario_1_rep0,RouteScenario_1_rep0,0,0,Town12,1015588,2.7500000409781933,mpc,mpc,19.88699199864641,mpc_ok,0,follow_lane,clear,5.581802335371203,20.094488407336332,5.555555555555555,20.0,-0.026246779815648047,0.0,0.0,0.12021613121032715,1207.7750244140625,-82.53784942626953,343.0426940917969,-0.0260314978659153,0.417727530002594,-0.000518798828125,5.58162784576416,-0.0015993400011211634,0.04425980523228645,-2.63458251953125,-0.0034368899650871754,-0.011889412999153137,-2.6345972887518463,-0.004633807219016089,-3.379136085510254,94,1,1,,0,12.716309547424316,-5.6175432205200195,4,0,10.401721954345703,,,none,0,,,0.00048828116268850863,0.0055847130715847015,0,0,0,,0.0,0
20260627T183442Z_RouteScenario_1_rep0_9126d578,RouteScenario_1_rep0,RouteScenario_1_rep0,0,0,Town12,1015589,2.8000000417232513,mpc,mpc,19.348398956935853,mpc_ok,0,follow_lane,clear,5.524903656829015,19.889653164584455,5.555555555555555,20.0,0.03065189872654006,0.0,0.08219078928232193,0.0,1208.0516357421875,-82.53802490234375,343.04498291015625,0.011964021250605583,0.369369775056839,-0.001434326171875,5.524750232696533,-0.0006147113163024187,0.04164586961269379,-1.137552261352539,0.019692573696374893,-0.05227871239185333,-1.1378615098308367,0.019928982632208776,3.4816930294036865,94,1,1,,0,15.594671249389648,-5.488883018493652,3,0,12.230854034423828,,,none,0,,,0.0004653929831874848,0.04358023218810558,0,0,0,,0.0,0
20260627T183442Z_RouteScenario_1_rep0_9126d578,RouteScenario_1_rep0,RouteScenario_1_rep0,0,0,Town12,1015590,2.8500000424683094,mpc,mpc,18.61079502850771,mpc_ok,0,follow_lane,clear,5.419838970374377,19.511420293347758,5.555555555555555,20.0,0.13571658518117857,-9.999999747378752e-05,0.4619583487510681,0.0,1208.326171875,-82.53799438476562,343.04705810546875,-0.0029907221905887127,0.34482207894325256,-0.0019226073054596782,5.419693946838379,0.0003911513776984066,0.0404106043279171,-2.101125717163086,0.020117254927754402,-0.024705305695533752,-2.1012373777831046,0.02000717580028524,-1.665887713432312,94,1,1,,0,13.012171745300293,-5.455012321472168,3,0,12.133538246154785,,,none,0,,,0.0006484984191956755,0.028625488746911287,0,0,0,,0.0,0
20260627T183442Z_RouteScenario_1_rep0_9126d578,RouteScenario_1_rep0,RouteScenario_1_rep0,0,0,Town12,1015591,2.9000000432133675,mpc,mpc,31.46003797883168,mpc_ok,0,follow_lane,clear,5.136679401416691,18.492045845100087,5.555555555555555,20.0,0.41887615413886436,-9.999999747378752e-05,0.75,0.0,1208.5867919921875,-82.5380859375,343.0492858886719,0.01918463408946991,0.27876049280166626,-0.0017700194148346782,5.136559963226318,-0.00014278505113907158,0.037113599479198456,-5.662679672241211,-0.01067872904241085,-0.06594009697437286,-5.662936559730742,-0.008783850877062294,3.2392289638519287,94,1,1,,0,12.95698070526123,-5.220117092132568,1,0,10.000144004821777,,,none,0,,,0.0007019041713647312,0.05080084502696991,0,0,0,,0.0,0
20260627T183442Z_RouteScenario_1_rep0_9126d578,RouteScenario_1_rep0,RouteScenario_1_rep0,0,0,Town12,1015592,2.9500000439584255,mpc,mpc,31.388193019665778,mpc_ok,0,follow_lane,clear,4.921663649708795,17.717989138951662,5.555555555555555,20.0,0.6338919058467605,-0.0013000000035390258,0.75,0.0,1208.8369140625,-82.53805541992188,343.05120849609375,0.012073952704668045,0.2198842614889145,-0.0014953612117096782,4.9215803146362305,-0.00024235164164565504,0.031200455501675606,-4.299592971801758,-0.001991331810131669,-0.118262879550457,-4.300015470091505,-0.0010879334694009171,-0.29680135846138,94,1,1,,0,12.515007019042969,-5.0044636726379395,3,0,9.997488021850586,,,none,0,,,0.000869750821038906,0.043690163642168045,0,0,0,,0.0,0
20260627T183442Z_RouteScenario_1_rep0_9126d578,RouteScenario_1_rep0,RouteScenario_1_rep0,0,0,Town12,1015593,3.0000000447034836,mpc,mpc,30.113858985714614,mpc_ok,0,follow_lane,clear,4.723630338178515,17.005069217442657,5.555555555555555,20.0,0.83192521737704,-0.0013000000035390258,0.75,0.0,1209.07568359375,-82.53810119628906,343.0529479980469,3.638599446276203e-05,0.17064543068408966,-0.00036621090839616954,4.723557949066162,-0.00229383516125381,0.031339988112449646,-3.960447311401367,-0.0410296730697155,0.0027906522154808044,-3.96042155748333,-0.04102706473780864,-0.19488470256328583,94,1,1,,0,16.840471267700195,-4.756749153137207,3,0,10.21287727355957,,,none,0,,,0.0009536741458759934,0.03165259693196276,0,0,0,,0.0,0
20260627T183442Z_RouteScenario_1_rep0_9126d578,RouteScenario_1_rep0,RouteScenario_1_rep0,0,0,Town12,1015594,3.0500000454485416,mpc,mpc,31.828359002247453,mpc_ok,0,follow_lane,clear,4.694204149348917,16.899134937656104,5.555555555555555,20.0,0.8613514062066381,-0.0013000000035390258,0.75,0.0,1209.3101806640625,-82.53825378417969,343.0545654296875,-0.007751463912427425,0.15850135684013367,0.0017208653734996915,4.6941304206848145,-0.003510868176817894,0.03298848867416382,-0.5885505676269531,-0.024340659379959106,0.03297001123428345,-0.588453822331719,-0.024421322684651227,-0.1352251023054123,94,1,1,,0,11.726628303527832,-4.676911354064941,3,0,10.182205200195312,,,none,0,,,0.0009307859663749696,0.023864747025072575,0,0,0,,0.0,0
20260627T183442Z_RouteScenario_1_rep0_9126d578,RouteScenario_1_rep0,RouteScenario_1_rep0,0,0,Town12,1015595,3.1000000461935997,mpc,mpc,32.24629402393475,mpc_ok,0,follow_lane,clear,4.762524357036164,17.145087685330193,5.555555555555555,20.0,0.7930311985193912,-0.0003000000142492354,0.75,0.0,1209.5469970703125,-82.5384292602539,343.05621337890625,-0.014923096634447575,0.18841758370399475,0.0022108242847025394,4.762438774108887,-0.004356957972049713,0.033559609204530716,1.3661670684814453,-0.016921795904636383,0.011422410607337952,1.3662015469225839,-0.01656623428422354,-0.14332838356494904,94,1,1,,0,11.99849796295166,-4.708162307739258,5,0,10.40591049194336,,,none,0,,,0.0008850096073729219,0.016693114303052425,0,0,0,,0.0,0
20260627T183442Z_RouteScenario_1_rep0_9126d578,RouteScenario_1_rep0,RouteScenario_1_rep0,0,0,Town12,1015596,3.1500000469386578,mpc,mpc,33.331843034829944,mpc_ok,0,follow_lane,clear,4.885897127781582,17.589229660013693,5.555555555555555,20.0,0.6696584277739737,-0.0005000000237487257,0.75,0.0,1209.7890625,-82.53857421875,343.0577697753906,-0.01882934384047985,0.24711623787879944,0.002333107404410839,4.885794639587402,-0.0029271994717419147,0.03413708508014679,2.4671173095703125,0.028595170006155968,0.011549517512321472,2.4671346380237393,0.029405910016681747,-0.054796889424324036,94,1,1,,0,12.252144813537598,-4.794850826263428,3,0,10.641127586364746,,,none,0,,,0.000869750821038906,0.01278686709702015,0,0,0,,0.0,0
20260627T183442Z_RouteScenario_1_rep0_9126d578,RouteScenario_1_rep0,RouteScenario_1_rep0,0,0,Town12,1015597,3.200000047683716,mpc,mpc,20.742697990499437,mpc_ok,0,follow_lane,clear,5.040275540029966,18.14499194410788,5.555555555555555,20.0,0.5152800155255894,-0.0005000000237487257,0.75,0.0,1210.0386962890625,-82.53871154785156,343.05926513671875,-0.02160644344985485,0.3228835165500641,0.001910681719891727,5.04012393951416,-0.003301838180050254,0.04094589129090309,3.0865859985351562,-0.007492774166166782,0.13617612421512604,3.0873071029407266,-0.006332772165553349,-0.05532146990299225,94,1,1,,0,13.635260581970215,-4.941601276397705,3,0,10.865443229675293,,,none,0,,,0.000869750821038906,0.01000976748764515,0,0,0,,0.0,0
20260627T183442Z_RouteScenario_1_rep0_9126d578,RouteScenario_1_rep0,RouteScenario_1_rep0,0,0,Town12,1015598,3.250000048428774,mpc,mpc,30.600712983869016,mpc_ok,0,follow_lane,clear,5.2102655309214025,18.75695591131705,5.555555555555555,20.0,0.3452900246341528,-0.0003000000142492354,0.75,0.0,1210.296630859375,-82.53888702392578,343.06097412109375,-0.02496337704360485,0.40601375699043274,0.0021324276458472013,5.21010684967041,-0.0036282683722674847,0.040699854493141174,3.399658203125,-0.006528603844344616,-0.004920735955238342,3.399540463331882,-0.005046315581292578,-0.1336691528558731,94,1,1,,0,12.439733505249023,-5.11187744140625,2,0,10.366446495056152,,,none,0,,,0.0008392332483708742,0.006652833893895149,0,0,0,,0.0,0
20260627T183442Z_RouteScenario_1_rep0_9126d578,RouteScenario_1_rep0,RouteScenario_1_rep0,0,0,Town12,1015599,3.300000049173832,mpc,mpc,19.1068560234271,mpc_ok,0,follow_lane,clear,5.206594547368008,18.74374037052483,5.555555555555555,20.0,0.3489610081875476,-0.0003000000142492354,0.75,0.0,1210.558349609375,-82.53903198242188,343.0627136230469,-0.0250244140625,0.45297813415527344,0.001505962572991848,5.206460475921631,-0.0033212443813681602,0.03741892799735069,-0.07292747497558594,0.006140479817986488,-0.06561852991580963,-0.07344664247304628,0.006110336906888806,0.05653347447514534,94,1,1,,0,12.3176851272583,-5.198718070983887,6,0,9.954914093017578,,,none,0,,,0.0008392332483708742,0.006591796875,0,0,0,,0.0,0
20260627T183442Z_RouteScenario_1_rep0_9126d578,RouteScenario_1_rep0,RouteScenario_1_rep0,0,0,Town12,1015600,3.35000004991889,mpc,mpc,29.50245002284646,mpc_ok,0,follow_lane,clear,5.136433955731356,18.49116224063288,5.555555555555555,20.0,0.4191215998241997,-0.0003000000142492354,0.75,0.0,1210.81640625,-82.53917694091797,343.0645751953125,-0.02398681454360485,0.4494469165802002,0.001165637164376676,5.136305809020996,-0.0032829279080033302,0.036364104598760605,-1.4030933380126953,0.0007663294672966003,-0.021096467971801758,-1.4032159076041402,0.00017913124376781487,-0.001616331865079701,94,1,1,,0,16.823143005371094,-5.113211154937744,2,0,11.17162799835205,,,none,0,,,0.0008392332483708742,0.007629396393895149,0,0,0,,0.0,0
20260627T183442Z_RouteScenario_1_rep0_9126d578,RouteScenario_1_rep0,RouteScenario_1_rep0,0,0,Town12,1015601,3.400000050663948,mpc,mpc,30.83879000041634,mpc_ok,0,follow_lane,clear,5.137128627822591,18.493663060161328,5.555555555555555,20.0,0.4184269277329644,-0.0003000000142492354,0.75,0.0,1211.072998046875,-82.53932189941406,343.06634521484375,-0.02432250790297985,0.436339795589447,0.0011899889213964343,5.1370062828063965,-0.0032373357098549604,0.03550630435347557,0.014009475708007812,0.0009118439629673958,-0.017156004905700684,0.013878028874983945,0.0009181495090098649,-0.007737194187939167,94,1,1,,0,12.1312837600708,-5.119139194488525,3,0,9.796601295471191,,,none,0,,,0.0008316038552038663,0.007293703034520149,0,0,0,,0.0,0
20260627T183442Z_RouteScenario_1_rep0_9126d578,RouteScenario_1_rep0,RouteScenario_1_rep0,0,0,Town12,1015602,3.450000051409006,mpc,mpc,31.040959991514683,mpc_ok,0,follow_lane,clear,5.132803549402376,18.478092777848556,5.555555555555555,20.0,0.4227520061531793,-0.0003000000142492354,0.75,0.0,1211.3294677734375,-82.53947448730469,343.0681457519531,-0.02526855282485485,0.4264633357524872,0.0012124015484005213,5.132682800292969,-0.003167980583384633,0.035204123705625534,-0.08646965026855469,0.0013871025294065475,-0.006043612957000732,-0.0865128384140727,0.0013490818281285588,-0.02703508362174034,94,1,1,,0,12.563316345214844,-5.1056647300720215,1,0,11.615406036376953,,,none,0,,,0.0008239744620368583,0.006347658112645149,0,0,0,,0.0,0
20260627T183442Z_RouteScenario_1_rep0_9126d578,RouteScenario_1_rep0,RouteScenario_1_rep0,0,0,Town12,1015603,3.500000052154064,mpc,mpc,18.800591002218425,mpc_ok,0,follow_lane,clear,5.155976348812675,18.56151485572563,5.555555555555555,20.0,0.3995792067428807,-0.0003000000142492354,0.75,0.0,1211.5870361328125,-82.53960418701172,343.0699157714844,-0.027252197265625,0.4226657450199127,0.0013457359746098518,5.155858516693115,-0.0032712332904338837,0.03485862538218498,0.4635143280029297,-0.002065054140985012,-0.006909966468811035,0.46345168302669965,-0.001844345096628417,-0.027395620942115784,94,1,1,,0,12.435425758361816,-5.129570960998535,3,0,10.356618881225586,,,none,0,,,0.0008316038552038663,0.004364013671875,0,0,0,,0.0,0
20260627T183442Z_RouteScenario_1_rep0_9126d578,RouteScenario_1_rep0,RouteScenario_1_rep0,0,0,Town12,1015604,3.5500000528991222,mpc,mpc,18.822741985786706,mpc_ok,0,follow_lane,clear,5.130938249433349,18.471377697960058,5.555555555555555,20.0,0.4246173061222063,-0.0003000000142492354,0.75,0.0,1211.843994140625,-82.53974151611328,343.07171630859375,-0.0286865197122097,0.4143602252006531,0.0004224714357405901,5.130821228027344,-0.0033767521381378174,0.034589461982250214,-0.5007457733154297,-0.0021103769540786743,-0.0053832679986953735,-0.5007704854925484,-0.002361074219825186,-0.03684393689036369,94,1,1,,0,12.80655574798584,-5.11197566986084,2,0,11.122458457946777,,,none,0,,,0.0008392332483708742,0.0029296912252902985,0,0,0,,0.0,0
20260627T183442Z_RouteScenario_1_rep0_9126d578,RouteScenario_1_rep0,RouteScenario_1_rep0,0,0,Town12,1015605,3.6000000536441803,mpc,mpc,27.75667200330645,mpc_ok,0,follow_lane,clear,5.510131127444441,19.836472058799988,5.555555555555555,20.0,0.045424428111114246,-0.00019999999494757503,0.1995985358953476,0.0,1212.1070556640625,-82.5399169921875,343.0733642578125,-0.0305480919778347,0.44469308853149414,-0.0003662109375,5.510008335113525,-0.0038730192463845015,0.03703867644071579,7.583742141723633,-0.009925342164933681,0.04898428916931152,7.583898436904161,-0.005882019870001936,-0.04212522879242897,94,1,1,,0,13.004298210144043,-5.230710983276367,2,0,10.494101524353027,,,none,0,,,0.0008087156757028424,0.0010681189596652985,0,0,0,,0.0,0
20260627T183442Z_RouteScenario_1_rep0_9126d578,RouteScenario_1_rep0,RouteScenario_1_rep0,0,0,Town12,1015606,3.6500000543892384,mpc,mpc,31.794906011782587,mpc_ok,0,follow_lane,clear,6.004413769932115,21.615889571755613,5.555555555555555,20.0,-0.4488582143765596,-0.0,0.0,0.30000001192092896,1212.4007568359375,-82.54012298583984,343.0748291015625,-0.0319213829934597,0.5868361592292786,0.00041332386899739504,6.004305839538574,-0.003967111464589834,0.0411621555685997,9.885950088500977,-0.0018818443641066551,0.08246958255767822,9.886275487513043,0.003626082609224506,-0.022362593561410904,94,1,1,,0,15.454967498779297,-5.802450656890869,3,0,11.709333419799805,,,none,0,,,0.0007629393167007947,-0.00030517205595970154,0,0,0,,0.0,0
20260627T183442Z_RouteScenario_1_rep0_9126d578,RouteScenario_1_rep0,RouteScenario_1_rep0,0,0,Town12,1015607,3.7000000551342964,mpc,mpc,19.317420956213027,mpc_ok,0,follow_lane,clear,6.09085457249661,21.9270764609878,5.555555555555555,20.0,-0.535299016941055,0.0,0.0,0.30000001192092896,1212.7044677734375,-82.54031372070312,343.0766296386719,-0.0325927659869194,0.6610939502716064,0.0002493505598977208,6.090786457061768,-0.003783476073294878,0.040941398590803146,1.7296123504638672,0.003672707825899124,-0.004415139555931091,1.7294438553734022,0.004656705005320208,-0.0010566298151388764,94,1,1,,0,13.523530960083008,-6.017407417297363,2,0,9.939889907836914,,,none,0,,,0.0007400511371997709,-0.0009765550494194031,0,0,0,,0.0,0
20260627T183442Z_RouteScenario_1_rep0_9126d578,RouteScenario_1_rep0,RouteScenario_1_rep0,0,0,Town12,1015608,3.7500000558793545,mpc,mpc,17.080580990295857,mpc_ok,0,follow_lane,clear,6.062325127637792,21.824370459496052,5.555555555555555,20.0,-0.5067695720822369,0.0,0.0,0.30000001192092896,1213.008544921875,-82.54049682617188,343.0787048339844,-0.0328674279153347,0.6594274044036865,-0.0008544920710846782,6.062250137329102,-0.0036602639593183994,0.04130621999502182,-0.5707263946533203,0.0024642422795295715,0.007296428084373474,-0.5706059381269372,0.0021370544082670003,0.005953461863100529,94,1,1,,0,12.968217849731445,-6.05727481842041,5,0,9.533536911010742,,,none,0,,,0.000724792350865755,-0.0012512169778347015,0,0,0,,0.0,0
20260627T183442Z_RouteScenario_1_rep0_9126d578,RouteScenario_1_rep0,RouteScenario_1_rep0,0,0,Town12,1015609,3.8000000566244125,mpc,mpc,19.14630102692172,mpc_ok,0,follow_lane,clear,6.016703917620455,21.660134103433638,5.555555555555555,20.0,-0.4611483620648995,0.0,0.0,0.30000001192092896,1213.3099365234375,-82.54070281982422,343.0808410644531,-0.0330200158059597,0.6155707836151123,-0.00018310545419808477,6.016613006591797,-0.003526718355715275,0.04068652167916298,-0.9127426147460938,0.0026709120720624924,-0.012393966317176819,-0.9128244828878476,0.002144882519032631,0.004561943933367729,94,1,1,,0,12.978442192077637,-6.024909496307373,3,0,9.922808647155762,,,none,0,,,0.0006866453850307153,-0.0014038048684597015,0,0,0,,0.0,0
20260627T183442Z_RouteScenario_1_rep0_9126d578,RouteScenario_1_rep0,RouteScenario_1_rep0,0,0,Town12,1015610,3.8500000573694706,mpc,mpc,18.045271979644895,mpc_ok,0,follow_lane,clear,5.894801994452898,21.221287180030433,5.555555555555555,20.0,-0.33924643889734263,0.0,0.0,0.30000001192092896,1213.6068115234375,-82.54087829589844,343.0830383300781,-0.033111572265625,0.5526646971702576,-0.0008850097074173391,5.894695281982422,-0.0034534791484475136,0.03938819840550423,-2.4383544921875,0.0014647841453552246,-0.02596646547317505,-2.438492003511756,5.560667755434871e-05,0.00041595115908421576,94,1,1,,0,14.299527168273926,-5.940371513366699,4,0,10.933956146240234,,,none,0,,,0.0006713865986966994,-0.001495361328125,0,0,0,,0.0,0
20260627T183442Z_RouteScenario_1_rep0_9126d578,RouteScenario_1_rep0,RouteScenario_1_rep0,0,0,Town12,1015611,3.9000000581145287,mpc,mpc,18.9742170041427,mpc_ok,0,follow_lane,clear,5.801289535287572,20.88464232703526,5.555555555555555,20.0,-0.24573397973201683,0.0,0.0,0.30000001192092896,1213.8980712890625,-82.54106140136719,343.0851745605469,-0.032958984375,0.4847043454647064,-0.0007019042386673391,5.801182270050049,-0.003422235371544957,0.0370987206697464,-1.870260238647461,0.0006248755380511284,-0.045789554715156555,-1.8705807386059876,-0.00045134534516405546,-0.0015659058699384332,94,1,1,,0,12.123183250427246,-5.833829879760742,2,0,9.478084564208984,,,none,0,,,0.0006561278123626835,-0.0013427734375,0,0,0,,0.0,0
20260627T183442Z_RouteScenario_1_rep0_9126d578,RouteScenario_1_rep0,RouteScenario_1_rep0,0,0,Town12,1015612,3.9500000588595867,mpc,mpc,6.9431199808605015,mpc_ok,0,follow_lane,clear,5.633488651588524,20.280559145718687,5.555555555555555,20.0,-0.07793309603296894,0.0,0.0,0.2962755858898163,1214.1824951171875,-82.54120635986328,343.0873107910156,-0.033111572265625,0.41541892290115356,-0.0009765623253770173,5.633370399475098,-0.0032793942373245955,0.03660043701529503,-3.3562374114990234,0.002856822684407234,-0.009965673089027405,-3.356222496173394,0.0009174776191404614,-0.0042750034481287,94,1,1,,0,13.788928031921387,-5.672016620635986,4,0,12.332181930541992,,,none,0,,,0.0006637572055296914,-0.001495361328125,0,0,0,,0.0,0
20260627T183442Z_RouteScenario_1_rep0_9126d578,RouteScenario_1_rep0,RouteScenario_1_rep0,0,0,Town12,1015613,4.000000059604645,mpc,mpc,16.80108398431912,mpc_ok,0,follow_lane,clear,5.529824553514732,19.907368392653037,5.555555555555555,20.0,0.025731002040823014,0.0,0.07355479896068573,0.0,1214.460205078125,-82.5413589477539,343.08929443359375,-0.033050537109375,0.3537081480026245,-0.0005187987699173391,5.529705047607422,-0.003191297873854637,0.036277759820222855,-2.0733070373535156,0.001761927269399166,-0.0064535439014434814,-2.07330797762931,0.0005660165850140122,-0.003640789072960615,94,1,1,,0,12.374971389770508,-5.556181907653809,3,0,10.353327751159668,,,none,0,,,0.0006637572055296914,-0.001434326171875,0,0,0,,0.0,0
20260627T183442Z_RouteScenario_1_rep0_9126d578,RouteScenario_1_rep0,RouteScenario_1_rep0,0,0,Town12,1015614,4.050000060349703,mpc,mpc,17.120825999882072,mpc_ok,0,follow_lane,clear,5.4633942925673935,19.668219453242617,5.555555555555555,20.0,0.09216126298816185,0.0,0.30970004200935364,0.0,1214.7337646484375,-82.54150390625,343.0911560058594,-0.033721923828125,0.3146668076515198,-0.0007324218167923391,5.463276386260986,-0.003182517597451806,0.03630230948328972,-1.328573226928711,0.00017560552805662155,0.0004909932613372803,-1.3285503613549305,-0.0006062381032638413,-0.006642242893576622,94,1,1,,0,11.602243423461914,-5.469791889190674,3,0,9.59339714050293,,,none,0,,,0.0006713865986966994,-0.002105712890625,0,0,0,,0.0,0
