run_id,run_label,route_id,route_index,repetition_index,town,frame,timestamp,controller,controller_mode,controller_compute_time_ms,controller_status,controller_fallback,maneuver_state,waiting_left_reason,speed_mps,speed_kph,target_speed_mps,target_speed_kph,speed_error_mps,steer,throttle,brake,x,y,z,yaw_deg,pitch_deg,roll_deg,velocity_x,velocity_y,velocity_z,accel_x,accel_y,accel_z,longitudinal_accel_mps2,lateral_accel_mps2,yaw_rate_dps,road_id,lane_id,target_lane_id,overtake_origin_lane_id,is_junction,front_distance_m,front_closing_speed_mps,front_radar_point_count,front_blocked,rear_distance_m,rear_approach_distance_m,rear_approach_speed_mps,rear_approach_mode,left_oncoming_detected,left_oncoming_confidence,left_oncoming_label,lateral_error_m,heading_error_deg,blocked_vehicle,rejoin_lane_clear,safety_override,safety_override_reason,requested_brake,emergency_brake
20260627T210343Z_mpc_e3235b39,mpc,RouteScenario_1_rep0,0,0,Town12,297104,0.05000000074505806,mpc,mpc,8.49903398193419,mpc_ok,0,follow_lane,clear,0.0002403607687238863,0.0008652987674059907,5.555555555555555,20.0,5.555315194786831,0.0,0.75,0.0,1199.9569091796875,-82.53407287597656,342.9453125,-0.0316467247903347,0.6043487787246704,-0.01141357421875,-0.0012569221435114741,0.0003848605847451836,0.1419672667980194,0.006495767738670111,-0.001741292653605342,-0.6099972128868103,6.231119299404321e-05,-0.0018592255204329415,-0.00019101999350823462,94,1,1,,0,12.900618553161621,0.008724714629352093,1,0,16.217891693115234,,,none,0,,,-4.5776359002047684e-05,-3.0513852834701538e-05,0,0,0,,0.0,0
20260627T210343Z_mpc_e3235b39,mpc,RouteScenario_1_rep0,0,0,Town12,297105,0.10000000149011612,mpc,mpc,9.104878001380712,mpc_ok,0,follow_lane,clear,0.0002006088474361022,0.000722191850769968,5.555555555555555,20.0,5.555354946708119,0.0,0.75,0.0,1199.9569091796875,-82.53408813476562,342.9515686035156,-0.0316162109375,0.6022518873214722,-0.00994872860610485,-0.0010052596917375922,0.00026402552612125874,0.11473207175731659,0.005033249035477638,-0.002416701056063175,-0.5447039008140564,-0.0006911251973505659,-0.0025085085361169954,-0.00010836437286343426,94,1,1,,0,12.76563549041748,0.006783084012567997,3,0,10.720157623291016,,,none,0,,,-6.103514533606358e-05,0.0,0,0,0,,0.0,0
20260627T210343Z_mpc_e3235b39,mpc,RouteScenario_1_rep0,0,0,Town12,297106,0.15000000223517418,mpc,mpc,33.75986200990155,mpc_ok,0,follow_lane,clear,0.00012413043561478344,0.0004468695682132204,5.555555555555555,20.0,5.555431425119941,9.999999747378752e-05,0.75,0.0,1199.9569091796875,-82.53411102294922,342.95660400390625,-0.0316162072122097,0.6007082462310791,-0.007965086959302425,-0.0008328882977366447,0.00015805507428012788,0.09128642082214355,0.0034474278800189495,-0.0021194089204072952,-0.4689130187034607,-0.001467744842446084,-0.002182694546646946,-0.00016403761401306838,94,1,1,,0,12.262259483337402,0.0061362809501588345,5,0,9.739411354064941,,,none,0,,,-8.392332483708742e-05,3.725290298461914e-09,0,0,0,,0.0,0
20260627T210343Z_mpc_e3235b39,mpc,RouteScenario_1_rep0,0,0,Town12,297107,0.20000000298023224,mpc,mpc,26.843714993447065,mpc_ok,0,follow_lane,clear,7.947583162184068e-05,0.00028611299383862645,5.555555555555555,20.0,5.555476079723934,9.999999747378752e-05,0.75,0.0,1199.9569091796875,-82.53411865234375,342.96051025390625,-0.0315856896340847,0.5995266437530518,-0.006469725631177425,-0.0006725897546857595,0.0001914913736982271,0.07188154757022858,0.003205970861017704,0.0006687259883619845,-0.38809746503829956,-0.0008554404183840629,0.0006266686516819936,-8.275554864667356e-05,94,1,1,,0,14.765910148620605,0.004539008252322674,1,0,18.070873260498047,,,none,0,,,-9.155271800409537e-05,3.052130341529846e-05,0,0,0,,0.0,0
20260627T210343Z_mpc_e3235b39,mpc,RouteScenario_1_rep0,0,0,Town12,297108,0.2500000037252903,mpc,mpc,26.192785007879138,mpc_ok,0,follow_lane,clear,7.019124139430841e-05,0.0002526884690195103,5.555555555555555,20.0,5.555485364314161,9.999999747378752e-05,0.75,0.0,1199.9569091796875,-82.53412628173828,342.963623046875,-0.0315856896340847,0.5984953045845032,-0.005767821334302425,-0.0005101078422740102,0.00010887762618949637,0.05555788427591324,0.0032496382482349873,-0.0016522749792784452,-0.32647326588630676,-0.00015981309193895972,-0.0016833501038303214,1.834202339523472e-05,94,1,1,,0,13.347434043884277,0.00409513246268034,1,0,10.593972206115723,,,none,0,,,-9.918211117110332e-05,3.052130341529846e-05,0,0,0,,0.0,0
20260627T210343Z_mpc_e3235b39,mpc,RouteScenario_1_rep0,0,0,Town12,297109,0.30000000447034836,mpc,mpc,25.462746038101614,mpc_ok,0,follow_lane,clear,3.3091265569963934e-05,0.00011912855605187016,5.555555555555555,20.0,5.555522464289985,9.999999747378752e-05,0.75,0.0,1199.9569091796875,-82.53414154052734,342.9660339355469,-0.0315856896340847,0.5976278781890869,-0.004974364768713713,-0.0004066994006279856,0.00015688795247115195,0.04217053949832916,0.0020681689493358135,0.0009602064965292811,-0.2677468955516815,-0.000725176575793261,0.0009381003162650459,1.5913356037344784e-05,94,1,1,,0,12.477140426635742,0.00332502624951303,4,0,9.907390594482422,,,none,0,,,-0.00011444089750511921,3.052130341529846e-05,0,0,0,,0.0,0
20260627T210343Z_mpc_e3235b39,mpc,RouteScenario_1_rep0,0,0,Town12,297110,0.3500000052154064,mpc,mpc,24.095816013868898,mpc_ok,0,follow_lane,clear,5.6652031405085556e-05,0.00020394731305830801,5.555555555555555,20.0,5.555498903524151,9.999999747378752e-05,0.75,0.0,1199.9569091796875,-82.53414154052734,342.96783447265625,-0.0315551720559597,0.5968902111053467,-0.004333495162427425,-0.0002809461147990078,-3.09475672111148e-06,0.03240516409277916,0.0025150657165795565,-0.0031996541656553745,-0.19530750811100006,0.0004820726880507047,-0.003213041463737422,0.00011755607556551695,94,1,1,,0,14.133292198181152,0.002124774968251586,3,0,11.85059928894043,,,none,0,,,-0.00011444089750511921,6.103888154029846e-05,0,0,0,,0.0,0
20260627T210343Z_mpc_e3235b39,mpc,RouteScenario_1_rep0,0,0,Town12,297111,0.4000000059604645,mpc,mpc,22.593431000132114,mpc_ok,0,follow_lane,clear,3.3352259020926976e-05,0.00012006813247533711,5.555555555555555,20.0,5.555522203296534,9.999999747378752e-05,0.75,0.0,1199.9569091796875,-82.53414916992188,342.96923828125,-0.0315551795065403,0.5962276458740234,-0.003936767112463713,-0.00022723048459738493,0.00016749052156228572,0.025049390271306038,0.0010743126040324569,0.003411705605685711,-0.14711546897888184,-0.00045850043805995304,0.003402188206378868,2.475240034982562e-05,94,1,1,,0,14.223381996154785,0.0015025967732071877,4,0,11.914008140563965,,,none,0,,,-0.00012207029067212716,6.103143095970154e-05,0,0,0,,0.0,0
20260627T210343Z_mpc_e3235b39,mpc,RouteScenario_1_rep0,0,0,Town12,297112,0.45000000670552254,mpc,mpc,23.952216957695782,mpc_ok,0,follow_lane,clear,5.0694058306731736e-05,0.00018249860990423425,5.555555555555555,20.0,5.555504861497249,9.999999747378752e-05,0.75,0.0,1199.9569091796875,-82.5341567993164,342.9703063964844,-0.0315551720559597,0.595565140247345,-0.0026245112530887127,-0.00015005521709099412,7.538674981333315e-05,0.019316453486680984,0.0015435053501278162,-0.0018420754931867123,-0.11465873569250107,0.0003526291228087395,-0.001846477642027126,-0.000152516076923348,94,1,1,,0,12.737720489501953,-0.00017554848454892635,3,0,10.088338851928711,,,none,0,,,-0.0001296996838391351,6.103888154029846e-05,0,0,0,,0.0,0
20260627T210343Z_mpc_e3235b39,mpc,RouteScenario_1_rep0,0,0,Town12,297113,0.5000000074505806,mpc,mpc,25.801272015087306,mpc_ok,0,follow_lane,clear,-5.211263708587287e-06,-1.8760549350914236e-05,5.555555555555555,20.0,5.555560766819264,9.999999747378752e-05,0.75,0.0,1199.9569091796875,-82.5341567993164,342.97113037109375,-0.0315551795065403,0.5953260660171509,-0.0027465822640806437,-0.00015567190712317824,-0.00015851433272473514,0.014471784234046936,-0.00011233380064368248,-0.004678021650761366,-0.09689338505268097,-0.001116494357102453,-0.0046827271432112036,0.0002627996727824211,94,1,1,,0,12.509129524230957,0.0011783348163589835,1,0,10.0048828125,,,none,0,,,-0.0001296996838391351,6.103143095970154e-05,0,0,0,,0.0,0
20260627T210343Z_mpc_e3235b39,mpc,RouteScenario_1_rep0,0,0,Town12,297114,0.5500000081956387,mpc,mpc,23.588436015415937,mpc_ok,0,follow_lane,clear,2.2919157310073322e-05,8.250896631626396e-05,5.555555555555555,20.0,5.555532636398246,9.999999747378752e-05,0.75,0.0,1199.9569091796875,-82.5341567993164,342.9717102050781,-0.03155517578125,0.5952919125556946,-0.0025939939077943563,-9.040176519192755e-05,-8.012221769604366e-06,0.010906236246228218,0.0013054028386250138,0.0030100420117378235,-0.07131095975637436,0.0005627809055516915,0.00300753146027201,4.248253026162274e-05,94,1,1,,0,13.094331741333008,0.0007414225256070495,3,0,10.714261054992676,,,none,0,,,-0.0001296996838391351,6.103515625e-05,0,0,0,,0.0,0
20260627T210343Z_mpc_e3235b39,mpc,RouteScenario_1_rep0,0,0,Town12,297115,0.6000000089406967,mpc,mpc,24.447595002129674,mpc_ok,0,follow_lane,clear,-1.2977878589823629e-05,-4.6720362923365066e-05,5.555555555555555,20.0,5.555568533434145,9.999999747378752e-05,0.75,0.0,1199.9569091796875,-82.5341567993164,342.9721374511719,-0.031524658203125,0.5951143503189087,-0.002166748046875,-9.436003892915323e-05,2.1002388166380115e-05,0.007835986092686653,-7.916547474451363e-05,0.0005802921950817108,-0.0614050030708313,-0.0007172645799816721,0.000577926544052145,4.820093818125315e-05,94,1,1,,0,12.759406089782715,0.0005286825471557677,2,0,10.09592056274414,,,none,0,,,-0.0001296996838391351,9.1552734375e-05,0,0,0,,0.0,0
20260627T210343Z_mpc_e3235b39,mpc,RouteScenario_1_rep0,0,0,Town12,297116,0.6500000096857548,mpc,mpc,20.824156992603093,mpc_ok,0,follow_lane,clear,0.09844923703197324,0.35441725331510365,5.555555555555555,20.0,5.457106318523582,9.999999747378752e-05,0.75,0.0,1199.9578857421875,-82.53416442871094,342.9725341796875,-0.031829833984375,0.6005921363830566,-0.0013427734375,0.09838401526212692,-4.301566514186561e-05,0.006737012881785631,1.9695675373077393,-0.0012803610879927874,-0.02197946421802044,1.9692292664864128,-0.00018719530234649292,-0.017277585342526436,94,1,1,,0,12.905657768249512,-0.017865758389234543,2,0,10.175837516784668,,,none,0,,,-0.00013732907700614305,-0.000213623046875,0,0,0,,0.0,0
20260627T210343Z_mpc_e3235b39,mpc,RouteScenario_1_rep0,0,0,Town12,297117,0.7000000104308128,mpc,mpc,39.807222958188504,mpc_ok,0,follow_lane,clear,0.5092204738623385,1.8331937059044185,5.555555555555555,20.0,5.046335081693217,0.00019999999494757503,0.75,0.0,1199.9761962890625,-82.53416442871094,342.97259521484375,-0.033447265625,0.6787636876106262,-0.0011596678523346782,0.5091589093208313,-0.00010266039316775277,0.008215121924877167,8.215497970581055,-0.0011928945314139128,0.02956218086183071,8.215271047252848,0.0036016533096042873,-0.025328470394015312,94,1,1,,0,13.721067428588867,-0.33473318815231323,2,0,10.9102783203125,,,none,0,,,-0.0001296996838391351,-0.0018310546875,0,0,0,,0.0,0
20260627T210343Z_mpc_e3235b39,mpc,RouteScenario_1_rep0,0,0,Town12,297118,0.7500000111758709,mpc,mpc,42.37486404599622,mpc_ok,0,follow_lane,clear,0.779818229292097,2.8073456254515494,5.555555555555555,20.0,4.775737326263458,-0.0003000000142492354,0.75,0.0,1200.0115966796875,-82.53421783447266,342.9728088378906,-0.0291137658059597,0.7735257148742676,-0.00036621090839616954,0.7797479629516602,-0.001018587383441627,0.010437574237585068,5.411781311035156,-0.01831853948533535,0.04444904625415802,5.411896837124961,-0.015568825937922078,0.08419858664274216,94,1,1,,0,15.589106559753418,-0.6664324998855591,2,0,11.595634460449219,,,none,0,,,-0.00016784664967417484,0.0025024451315402985,0,0,0,,0.0,0
20260627T210343Z_mpc_e3235b39,mpc,RouteScenario_1_rep0,0,0,Town12,297119,0.800000011920929,mpc,mpc,41.4818599820137,mpc_ok,0,follow_lane,clear,0.9132202747307826,3.2875929890308173,5.555555555555555,20.0,4.642335280824772,-0.0010000000474974513,0.75,0.0,1200.0555419921875,-82.53429412841797,342.97314453125,-0.01858520321547985,0.8322926759719849,-0.0005187987117096782,0.9131731390953064,7.467819523299113e-05,0.009882554411888123,2.668503522872925,0.02186531201004982,-0.011100396513938904,2.6680535029109285,0.022730449705066987,0.14972460269927979,94,1,1,,0,14.296884536743164,-0.8527402281761169,2,0,10.459747314453125,,,none,0,,,-0.00021362300867622253,0.01303100772202015,0,0,0,,0.0,0
20260627T210343Z_mpc_e3235b39,mpc,RouteScenario_1_rep0,0,0,Town12,297120,0.850000012665987,mpc,mpc,39.02676998404786,mpc_ok,0,follow_lane,clear,1.1308197588006654,4.070951131682396,5.555555555555555,20.0,4.42473579675489,-0.0010000000474974513,0.75,0.0,1200.1077880859375,-82.5343246459961,342.9736328125,-0.02041625790297985,0.8708695769309998,-0.000213623046875,1.1307778358459473,-0.0012358797248452902,0.011327847838401794,4.352093696594238,-0.02621115930378437,0.028905868530273438,4.35203938810022,-0.024660511065048605,-0.5051586031913757,94,1,1,,0,12.687692642211914,-1.0249491930007935,5,0,9.177694320678711,,,none,0,,,-0.00022125240184323047,0.01119995303452015,0,0,0,,0.0,0
20260627T210343Z_mpc_e3235b39,mpc,RouteScenario_1_rep0,0,0,Town12,297121,0.9000000134110451,mpc,mpc,42.99684800207615,mpc_ok,0,follow_lane,clear,1.2561131317673884,4.522007274362598,5.555555555555555,20.0,4.299442423788167,-0.0010000000474974513,0.75,0.0,1200.16845703125,-82.53438568115234,342.97412109375,-0.01818847469985485,0.894939124584198,-0.000274658203125,1.256066083908081,-0.001414835569448769,0.012797364965081215,2.505764961242676,-0.003579116892069578,0.02939034253358841,2.5059192655234517,-0.0027837114218108214,0.5342991352081299,94,1,1,,0,17.06735610961914,-1.1969722509384155,1,0,14.719375610351562,,,none,0,,,-0.00024414058134425431,0.01342773623764515,0,0,0,,0.0,0
20260627T210343Z_mpc_e3235b39,mpc,RouteScenario_1_rep0,0,0,Town12,297122,0.9500000141561031,mpc,mpc,40.40379001526162,mpc_ok,0,follow_lane,clear,1.403391361918597,5.0522089029069495,5.555555555555555,20.0,4.152164193636958,-0.0013000000035390258,0.75,0.0,1200.2366943359375,-82.53447723388672,342.9748229980469,-0.0079345703125,0.9068236947059631,-0.00067138671875,1.4033464193344116,-0.001106470008380711,0.013936547562479973,2.9456067085266113,0.00616731122136116,0.02278365194797516,2.9455975612734857,0.006574952416279108,0.05156019702553749,94,1,1,,0,13.812744140625,-1.354787826538086,2,0,10.06851863861084,,,none,0,,,-0.00029754633351330995,0.023681640625,0,0,0,,0.0,0
20260627T210343Z_mpc_e3235b39,mpc,RouteScenario_1_rep0,0,0,Town12,297123,1.0000000149011612,mpc,mpc,40.60599999502301,mpc_ok,0,follow_lane,clear,1.481320754094204,5.332754714739134,5.555555555555555,20.0,4.074234801461351,-0.0013000000035390258,0.75,0.0,1200.3089599609375,-82.5345230102539,342.9755859375,-0.008026122115552425,0.8975619673728943,-0.00091552734375,1.481279969215393,-0.0013683504657819867,0.014194965362548828,1.558670997619629,-0.005237609148025513,0.005168356001377106,1.5585614029398276,-0.0050195745780304175,0.13436977565288544,94,1,1,,0,14.644675254821777,-1.4415578842163086,3,0,12.860148429870605,,,none,0,,,-0.0003051757266803179,0.023590088821947575,0,0,0,,0.0,0
20260627T210343Z_mpc_e3235b39,mpc,RouteScenario_1_rep0,0,0,Town12,297124,1.0500000156462193,mpc,mpc,40.9300759783946,mpc_ok,0,follow_lane,clear,1.6531460849076478,5.951325905667532,5.555555555555555,20.0,3.9024094706479078,-0.0013000000035390258,0.75,0.0,1200.3876953125,-82.53459167480469,342.9764099121094,-0.01315307430922985,0.8914967179298401,-0.00024414058134425431,1.6531026363372803,-0.001676115789450705,0.015631617978215218,3.436453342437744,-0.006155306473374367,0.02873305231332779,3.436485803877792,-0.0053665243593652235,-0.04781807214021683,94,1,1,,0,14.145557403564453,-1.5740667581558228,6,0,9.92966365814209,,,none,0,,,-0.00032806390618134174,0.01846313662827015,0,0,0,,0.0,0
20260627T210343Z_mpc_e3235b39,mpc,RouteScenario_1_rep0,0,0,Town12,297125,1.1000000163912773,mpc,mpc,35.106786992400885,mpc_ok,0,follow_lane,clear,1.8021776430089773,6.487839514832318,5.555555555555555,20.0,3.7533779125465783,-0.0013000000035390258,0.75,0.0,1200.474365234375,-82.53468322753906,342.9771728515625,-0.01611328311264515,0.8906224966049194,0.0008433325565420091,1.802127480506897,-0.001770784961991012,0.017206430435180664,2.980496883392334,-0.001893383450806141,0.03149624913930893,2.9806267059037532,-0.0010549602938006936,-0.22585150599479675,94,1,1,,0,17.36689567565918,-1.7179534435272217,3,0,19.230581283569336,,,none,0,,,-0.0003738402651833894,0.01550292782485485,0,0,0,,0.0,0
20260627T210343Z_mpc_e3235b39,mpc,RouteScenario_1_rep0,0,0,Town12,297126,1.1500000171363354,mpc,mpc,33.083355985581875,mpc_ok,0,follow_lane,clear,1.9069409132524173,6.864987287708702,5.555555555555555,20.0,3.648614642303138,-0.0013000000035390258,0.75,0.0,1200.5673828125,-82.53477478027344,342.9781494140625,-0.021331787109375,0.8850421905517578,0.0013773631071671844,1.9068937301635742,-0.002119559096172452,0.017740219831466675,2.095324993133545,-0.0069754826836287975,0.010675787925720215,2.095242334258295,-0.006194850555375817,-0.059717126190662384,94,1,1,,0,18.96769905090332,-1.845599889755249,2,0,15.135869979858398,,,none,0,,,-0.00041198723101842916,0.010284423828125,0,0,0,,0.0,0
20260627T210343Z_mpc_e3235b39,mpc,RouteScenario_1_rep0,0,0,Town12,297127,1.2000000178813934,mpc,mpc,30.978602007962763,mpc_ok,0,follow_lane,clear,2.0345954297910915,7.32454354724793,5.555555555555555,20.0,3.520960125764464,9.999999747378752e-05,0.75,0.0,1200.666259765625,-82.53487396240234,342.9791259765625,-0.02465820126235485,0.8772489428520203,0.00122841855045408,2.0345473289489746,-0.0024747406132519245,0.01866014488041401,2.553071975708008,-0.007103630341589451,0.018398500978946686,2.5530572385061023,-0.006004428392336439,-0.07187202572822571,94,1,1,,0,15.818510055541992,-1.968827486038208,3,0,16.126554489135742,,,none,0,,,-0.00045776359002047684,0.006958009675145149,0,0,0,,0.0,0
20260627T210343Z_mpc_e3235b39,mpc,RouteScenario_1_rep0,0,0,Town12,297128,1.2500000186264515,mpc,mpc,9.479261003434658,mpc_ok,0,follow_lane,clear,2.1892984825867994,7.881474537312478,5.555555555555555,20.0,3.366257072968756,9.999999747378752e-05,0.75,0.0,1200.7725830078125,-82.53494262695312,342.98016357421875,-0.02569580264389515,0.8743529319763184,0.00022554672614205629,2.1892521381378174,-0.001319482340477407,0.019717378541827202,3.0940961837768555,0.023105164989829063,0.021144673228263855,3.0940479391817837,0.024492893740243663,-0.011210358701646328,94,1,1,,0,13.073043823242188,-2.1180851459503174,1,0,9.269482612609863,,,none,0,,,-0.0004653929831874848,0.005920408293604851,0,0,0,,0.0,0
20260627T210343Z_mpc_e3235b39,mpc,RouteScenario_1_rep0,0,0,Town12,297129,1.3000000193715096,mpc,mpc,25.028934003785253,mpc_ok,0,follow_lane,clear,2.3533123581081097,8.471924489189195,5.555555555555555,20.0,3.2022431974474457,-9.999999747378752e-05,0.75,0.0,1200.886962890625,-82.53498077392578,342.981201171875,-0.02551269344985485,0.8763405680656433,-0.000732421875,2.353243589401245,-0.0010718497214838862,0.02247718721628189,3.2798290252685547,0.004952652379870415,0.05519617348909378,3.2802870659747545,0.006413159785542448,0.006320551037788391,94,1,1,,0,16.45191192626953,-2.2720508575439453,3,0,14.43005084991455,,,none,0,,,-0.00044250480368646095,0.006103517487645149,0,0,0,,0.0,0
20260627T210343Z_mpc_e3235b39,mpc,RouteScenario_1_rep0,0,0,Town12,297130,1.3500000201165676,mpc,mpc,32.558551989495754,mpc_ok,0,follow_lane,clear,2.538187051475126,9.137473385310454,5.555555555555555,20.0,3.0173685040804292,-9.999999747378752e-05,0.75,0.0,1201.0101318359375,-82.53502655029297,342.98236083984375,-0.02566528134047985,0.8838537335395813,-0.000823974609375,2.538116931915283,-0.0012585469521582127,0.024102725088596344,3.6974668502807617,-0.0037339446134865284,0.03251075744628906,3.6975296872420955,-0.0020780401611547594,-0.0028559251222759485,94,1,1,,0,14.325274467468262,-2.4557156562805176,3,0,10.169233322143555,,,none,0,,,-0.0004196166241854371,0.005950929597020149,0,0,0,,0.0,0
20260627T210343Z_mpc_e3235b39,mpc,RouteScenario_1_rep0,0,0,Town12,297131,1.4000000208616257,mpc,mpc,26.407085999380797,mpc_ok,0,follow_lane,clear,2.727045482763586,9.81736373794891,5.555555555555555,20.0,2.8285100727919694,-9.999999747378752e-05,0.75,0.0,1201.1427001953125,-82.53508758544922,342.9836120605469,-0.02603149600327015,0.8944746851921082,5.809181311633438e-05,2.7269740104675293,-0.001246503903530538,0.025846661999821663,3.777141571044922,0.0002408609725534916,0.03487873822450638,3.7772253233368924,0.0019569740209281544,-0.0039056374225765467,94,1,1,,0,14.91828441619873,-2.6376399993896484,3,0,10.400696754455566,,,none,0,,,-0.00041198723101842916,0.005584714934229851,0,0,0,,0.0,0
20260627T210343Z_mpc_e3235b39,mpc,RouteScenario_1_rep0,0,0,Town12,297132,1.4500000216066837,mpc,mpc,22.970908030401915,mpc_ok,0,follow_lane,clear,2.9341749315125867,10.563029753445312,5.555555555555555,20.0,2.6213806240429687,-9.999999747378752e-05,0.75,0.0,1201.285400390625,-82.53514099121094,342.9849548339844,-0.0263061486184597,0.9073222875595093,-0.00042724609375,2.934110641479492,-0.0015311248134821653,0.02726753242313862,4.142732620239258,-0.005692418199032545,0.02841740846633911,4.142665199612512,-0.0037906466279547775,-0.005085555370897055,94,1,1,,0,12.977133750915527,-2.8380603790283203,2,0,9.11148452758789,,,none,0,,,-0.00038146965835039737,0.0053100623190402985,0,0,0,,0.0,0
20260627T210343Z_mpc_e3235b39,mpc,RouteScenario_1_rep0,0,0,Town12,297133,1.5000000223517418,mpc,mpc,25.947063986677676,mpc_ok,0,follow_lane,clear,3.141985027914968,11.311146100493886,5.555555555555555,20.0,2.413570527640587,-9.999999747378752e-05,0.75,0.0,1201.4383544921875,-82.53524017333984,342.9863586425781,-0.0264892578125,0.9210304617881775,-0.00012207030522404239,3.141904830932617,-0.0017498699016869068,0.03021332621574402,4.1558837890625,-0.0043749017640948296,0.058915875852108,4.156295313435655,-0.0024535502182418878,-0.0030613120179623365,94,1,1,,0,13.621830940246582,-3.045039653778076,4,0,9.564862251281738,,,none,0,,,-0.00039672844468441326,0.005126953125,0,0,0,,0.0,0
20260627T210343Z_mpc_e3235b39,mpc,RouteScenario_1_rep0,0,0,Town12,297134,1.5500000230967999,mpc,mpc,24.11719597876072,mpc_ok,0,follow_lane,clear,3.363482852063496,12.108538267428585,5.555555555555555,20.0,2.1920727034920593,-9.999999747378752e-05,0.75,0.0,1201.6021728515625,-82.53534698486328,342.9878845214844,-0.02679443359375,0.9352031350135803,0.000171743769897148,3.363415479660034,-0.001805511536076665,0.031548671424388885,4.43021297454834,-0.0011128326877951622,0.02670690417289734,4.430058690570471,0.0009590979280958535,-0.005572316702455282,94,1,1,,0,15.388802528381348,-3.2617578506469727,1,0,10.930842399597168,,,none,0,,,-0.0004196166241854371,0.00482177734375,0,0,0,,0.0,0
20260627T210343Z_mpc_e3235b39,mpc,RouteScenario_1_rep0,0,0,Town12,297135,1.600000023841858,mpc,mpc,20.45668801292777,mpc_ok,0,follow_lane,clear,3.5895850537102203,12.922506193356794,5.555555555555555,20.0,1.965970501845335,-9.999999747378752e-05,0.75,0.0,1201.777099609375,-82.53543853759766,342.9895324707031,-0.02713012509047985,0.9489044547080994,-0.00042724606464616954,3.589508056640625,-0.002028681570664048,0.034340180456638336,4.521851539611816,-0.004463400691747665,0.055830180644989014,4.522157530169496,-0.002322400463355038,-0.006409713067114353,94,1,1,,0,13.387626647949219,-3.483252763748169,1,0,9.400014877319336,,,none,0,,,-0.00041198723101842916,0.004486085847020149,0,0,0,,0.0,0
20260627T210343Z_mpc_e3235b39,mpc,RouteScenario_1_rep0,0,0,Town12,297136,1.650000024586916,mpc,mpc,19.761674979235977,mpc_ok,0,follow_lane,clear,3.819303719799222,13.7494933912772,5.555555555555555,20.0,1.7362518357563332,-9.999999747378752e-05,0.75,0.0,1201.963623046875,-82.53553771972656,342.9912414550781,-0.0274963341653347,0.9616973996162415,-3.0517559935105965e-05,3.8192296028137207,-0.0020294450223445892,0.03643734008073807,4.594430923461914,-1.526903361082077e-05,0.04194319248199463,4.594487251337051,0.0021895866825563065,-0.007712970022112131,94,1,1,,0,13.895657539367676,-3.711517810821533,3,0,9.774195671081543,,,none,0,,,-0.0004043578378514212,0.0041198767721652985,0,0,0,,0.0,0
20260627T210343Z_mpc_e3235b39,mpc,RouteScenario_1_rep0,0,0,Town12,297137,1.700000025331974,mpc,mpc,19.014446006622165,mpc_ok,0,follow_lane,clear,4.033247731443437,14.519691833196372,5.555555555555555,20.0,1.5223078241121186,-9.999999747378752e-05,0.75,0.0,1202.1610107421875,-82.53562927246094,342.99310302734375,-0.027862548828125,0.9694018363952637,-6.103516352595761e-05,4.033167839050293,-0.002255621599033475,0.03880547359585762,4.278764724731445,-0.004523531533777714,0.04736267030239105,4.278955379694,-0.0024428234562572076,-0.007876881398260593,94,1,1,,0,13.090673446655273,-3.932866334915161,2,0,9.066959381103516,,,none,0,,,-0.0003890990515174053,0.003753662109375,0,0,0,,0.0,0
20260627T210343Z_mpc_e3235b39,mpc,RouteScenario_1_rep0,0,0,Town12,297138,1.750000026077032,mpc,mpc,19.262931018602103,mpc_ok,0,follow_lane,clear,4.238512559406398,15.258645213863032,5.555555555555555,20.0,1.3170429961491577,-9.999999747378752e-05,0.75,0.0,1202.368896484375,-82.53572845458984,342.99505615234375,-0.0282897911965847,0.9716626405715942,-9.155270527116954e-05,4.238440036773682,-0.002336095552891493,0.040179185569286346,4.105443954467773,-0.0016094790771603584,0.027474239468574524,4.105319940109085,0.0004175165047870088,-0.008446267805993557,94,1,1,,0,15.1632080078125,-4.128812313079834,1,0,12.740400314331055,,,none,0,,,-0.0003738402651833894,0.0033264197409152985,0,0,0,,0.0,0
20260627T210343Z_mpc_e3235b39,mpc,RouteScenario_1_rep0,0,0,Town12,297139,1.8000000268220901,mpc,mpc,33.69264694629237,mpc_ok,0,follow_lane,clear,4.438939931672441,15.980183754020787,5.555555555555555,20.0,1.1166156238831144,-9.999999747378752e-05,0.75,0.0,1202.5869140625,-82.53585052490234,342.9971008300781,-0.028717031702399254,0.9721749424934387,0.00016990528092719615,4.438878536224365,-0.002450245199725032,0.04123862087726593,4.008769989013672,-0.00228299293667078,0.021188706159591675,4.008553117343878,-0.0002736313973151264,-0.008983979932963848,94,1,1,,0,14.856141090393066,-4.329162120819092,1,0,13.567967414855957,,,none,0,,,-0.0003738402651833894,0.002899179235100746,0,0,0,,0.0,0
20260627T210343Z_mpc_e3235b39,mpc,RouteScenario_1_rep0,0,0,Town12,297140,1.8500000275671482,mpc,mpc,20.23316896520555,mpc_ok,0,follow_lane,clear,4.637309554793874,16.694314397257948,5.555555555555555,20.0,0.9182460007616813,-0.0,0.75,0.0,1202.8148193359375,-82.53599548339844,342.9991760253906,-0.029144281521439552,0.9720656275749207,0.00016315965331159532,4.63726806640625,-0.0026077397633343935,0.0417410172522068,3.9677906036376953,-0.003149891272187233,0.010047927498817444,3.967391287060821,-0.001131456953651124,-0.009223696775734425,94,1,1,,0,14.765141487121582,-4.544262886047363,2,0,10.362994194030762,,,none,0,,,-0.00039672844468441326,0.0024719294160604477,0,0,0,,0.0,0
20260627T210343Z_mpc_e3235b39,mpc,RouteScenario_1_rep0,0,0,Town12,297141,1.9000000283122063,mpc,mpc,22.883234021719545,mpc_ok,0,follow_lane,clear,4.834750865285178,17.40510311502664,5.555555555555555,20.0,0.7208046902703771,0.0,0.75,0.0,1203.052734375,-82.5361328125,343.0013122558594,-0.029327386990189552,0.9718197584152222,-0.0003356933011673391,4.834731578826904,-0.002667871303856373,0.04209698736667633,3.949270248413086,-0.0012026308104395866,0.007119402289390564,3.9488231349548304,0.0008184900749096708,-0.0005609162617474794,94,1,1,,0,13.2857666015625,-4.742918491363525,4,0,9.154277801513672,,,none,0,,,-0.0004043578378514212,0.0022888239473104477,0,0,0,,0.0,0
20260627T210343Z_mpc_e3235b39,mpc,RouteScenario_1_rep0,0,0,Town12,297142,1.9500000290572643,mpc,mpc,23.457820003386587,mpc_ok,0,follow_lane,clear,5.031860973925076,18.114699506130272,5.555555555555555,20.0,0.5236945816304797,0.0,0.75,0.0,1203.3004150390625,-82.5362777709961,343.00347900390625,-0.029296875,0.9715670347213745,-6.1035138060105965e-05,5.0318450927734375,-0.002652333118021488,0.04355904459953308,3.942270278930664,0.00031076371669769287,0.02924114465713501,3.942198703670533,0.002326512701184188,0.0008628747309558094,94,1,1,,0,14.3098726272583,-4.938239097595215,2,0,9.617889404296875,,,none,0,,,-0.00041198723101842916,0.0023193359375,0,0,0,,0.0,0
20260627T210343Z_mpc_e3235b39,mpc,RouteScenario_1_rep0,0,0,Town12,297143,2.0000000298023224,mpc,mpc,25.705421983730048,mpc_ok,0,follow_lane,clear,5.2292220359944555,18.82519932958004,5.555555555555555,20.0,0.3263335195610999,0.0,0.75,0.0,1203.5577392578125,-82.53642272949219,343.0058898925781,-0.029327386990189552,0.9711435437202454,-0.00048828116268850863,5.22914981842041,-0.0027324624825268984,0.048536013811826706,3.946094512939453,-0.0016025872901082039,0.0995393842458725,3.947215094368736,0.00041753710364658084,-0.008259289897978306,94,1,1,,0,14.858237266540527,-5.138524532318115,3,0,11.451557159423828,,,none,0,,,-0.00041198723101842916,0.0022888239473104477,0,0,0,,0.0,0
20260627T210343Z_mpc_e3235b39,mpc,RouteScenario_1_rep0,0,0,Town12,297144,2.0500000305473804,mpc,mpc,28.614311944693327,mpc_ok,0,follow_lane,clear,5.319756584711418,19.151123704961105,5.555555555555555,20.0,0.23579897084413748,0.0,0.75,0.0,1203.8233642578125,-82.53658294677734,343.00830078125,-0.02664184756577015,0.959545910358429,-0.000732421875,5.319687366485596,-0.00274470541626215,0.0486375130712986,1.810750961303711,-0.00024485867470502853,0.002029985189437866,1.810530897007312,0.0005967570021673991,0.33954256772994995,94,1,1,,0,14.231552124023438,-5.299699783325195,4,0,9.880053520202637,,,none,0,,,-0.00042724601735244505,0.004974363371729851,0,0,0,,0.0,0
20260627T210343Z_mpc_e3235b39,mpc,RouteScenario_1_rep0,0,0,Town12,297145,2.1000000312924385,mpc,mpc,19.664764986373484,mpc_ok,0,follow_lane,clear,5.256923830106847,18.92492578838465,5.555555555555555,20.0,0.29863172544870853,0.0,0.75,0.0,1204.0865478515625,-82.5367202758789,343.0108642578125,-0.03045654296875,0.8981834650039673,-0.0004272460355423391,5.256830215454102,-0.002649912843480706,0.047134075313806534,-1.2571430206298828,0.001895851455628872,-0.03006875514984131,-1.257460790708119,0.0012275182692631764,-0.29802194237709045,94,1,1,,0,13.939525604248047,-5.273191928863525,3,0,9.622282028198242,,,none,0,,,-0.0004196166241854371,0.00115966796875,0,0,0,,0.0,0
20260627T210343Z_mpc_e3235b39,mpc,RouteScenario_1_rep0,0,0,Town12,297146,2.1500000320374966,mpc,mpc,23.05276202969253,mpc_ok,0,follow_lane,clear,5.230120374088393,18.828433346718214,5.555555555555555,20.0,0.32543518146716277,0.0,0.75,0.0,1204.34765625,-82.536865234375,343.0134582519531,-0.02749633602797985,0.8257288336753845,-0.0008544921292923391,5.230000019073486,-0.0026634770911186934,0.04599181190133095,-0.5366039276123047,-0.00027128495275974274,-0.02284526824951172,-0.5368772446384132,-0.0005290273205772874,0.3214484751224518,94,1,1,,0,14.659185409545898,-5.224020957946777,2,0,11.119330406188965,,,none,0,,,-0.0004196166241854371,0.004119874909520149,0,0,0,,0.0,0
20260627T210343Z_mpc_e3235b39,mpc,RouteScenario_1_rep0,0,0,Town12,297147,2.2000000327825546,mpc,mpc,20.526148029603064,mpc_ok,0,follow_lane,clear,5.236514892157533,18.85145361176712,5.555555555555555,20.0,0.31904066339802206,0.0,0.75,0.0,1204.608642578125,-82.5370101928711,343.01605224609375,-0.03048705868422985,0.7651587128639221,-0.00036621090839616954,5.23637056350708,-0.002605481306090951,0.04572465643286705,0.127410888671875,0.0011599157005548477,-0.005343109369277954,0.12732754266138854,0.0012276658211384486,-0.3101333677768707,94,1,1,,0,13.977875709533691,-5.216821670532227,4,0,10.477368354797363,,,none,0,,,-0.0004196166241854371,0.0011291522532701492,0,0,0,,0.0,0
20260627T210343Z_mpc_e3235b39,mpc,RouteScenario_1_rep0,0,0,Town12,297148,2.2500000335276127,mpc,mpc,24.09851097036153,mpc_ok,0,follow_lane,clear,5.236896899393264,18.85282883781575,5.555555555555555,20.0,0.3186586561622917,0.0,0.75,0.0,1204.8701171875,-82.53716278076172,343.01849365234375,-0.02743530087172985,0.7180508971214294,2.3161259377957322e-05,5.236738681793213,-0.0026122918352484703,0.04538791626691818,0.00736236572265625,-0.0001362105831503868,-0.006734803318977356,0.007277451400593733,-0.00013268243940020352,0.2866569459438324,94,1,1,,0,15.491531372070312,-5.208083152770996,1,0,11.762805938720703,,,none,0,,,-0.00042724601735244505,0.004180910065770149,0,0,0,,0.0,0
20260627T210343Z_mpc_e3235b39,mpc,RouteScenario_1_rep0,0,0,Town12,297149,2.3000000342726707,mpc,mpc,21.823468967340887,mpc_ok,0,follow_lane,clear,5.2307444491703095,18.830680017013115,5.555555555555555,20.0,0.3248111063852459,0.0,0.75,0.0,1205.1314697265625,-82.53730010986328,343.02081298828125,-0.030700678005814552,0.674344539642334,0.0004209477046970278,5.230589389801025,-0.002636483870446682,0.04389986768364906,-0.12298583984375,-0.0004838407039642334,-0.029760971665382385,-0.12332731249431397,-0.0005495318903788633,-0.29317203164100647,94,1,1,,0,16.341411590576172,-5.228423595428467,2,0,12.30972957611084,,,none,0,,,-0.0004196166241854371,0.0009155329316854477,0,0,0,,0.0,0
20260627T210343Z_mpc_e3235b39,mpc,RouteScenario_1_rep0,0,0,Town12,297150,2.350000035017729,mpc,mpc,25.568434968590736,mpc_ok,0,follow_lane,clear,5.569929315563802,20.05174553602969,5.555555555555555,20.0,-0.014373760008246528,0.0,0.0,0.021472617983818054,1205.398193359375,-82.53746032714844,343.02301025390625,-0.026397705078125,0.6696112155914307,4.0593142330180854e-05,5.569780349731445,-0.0028644369449466467,0.04523148387670517,6.783819198608398,-0.004559061489999294,0.02663232386112213,6.783668351187338,-0.0014335360968419477,0.5703685283660889,94,1,1,,0,16.84261703491211,-5.278992176055908,1,0,15.466205596923828,,,none,0,,,-0.000434875410519453,0.005218505859375,0,0,0,,0.0,0
20260627T210343Z_mpc_e3235b39,mpc,RouteScenario_1_rep0,0,0,Town12,297151,2.400000035762787,mpc,mpc,41.36297700461,mpc_ok,0,follow_lane,clear,6.040136858479604,21.744492690526577,5.555555555555555,20.0,-0.4845813029240489,0.0,0.0,0.30000001192092896,1205.6915283203125,-82.53754425048828,343.0249938964844,-0.047943115234375,0.7662242650985718,0.0005406442214734852,6.040040016174316,-0.0032812997233122587,0.047582320868968964,9.405193328857422,-0.00833725556731224,0.04701673984527588,9.404984793727508,-0.0004665717554859193,-1.5198184251785278,94,1,1,,0,18.408573150634766,-5.801502704620361,3,0,17.462841033935547,,,none,0,,,-0.0003585814788493735,-0.016326904296875,0,0,0,,0.0,0
20260627T210343Z_mpc_e3235b39,mpc,RouteScenario_1_rep0,0,0,Town12,297152,2.450000036507845,mpc,mpc,37.353746010921896,mpc_ok,0,follow_lane,clear,6.17726902402233,22.238168486480387,5.555555555555555,20.0,-0.6217134684667744,0.0,0.0,0.30000001192092896,1205.999755859375,-82.53780364990234,343.0271301269531,-0.035003662109375,0.832319974899292,0.0013855986762791872,6.177211284637451,-0.004220196511596441,0.04874483123421669,2.7434253692626953,-0.018777936697006226,0.02325020730495453,2.7434846549485634,-0.017101493437579413,3.2216989994049072,94,1,1,,0,14.281855583190918,-6.117246150970459,3,0,10.103276252746582,,,none,0,,,-0.0004501341968534689,-0.003387451171875,0,0,0,,0.0,0
20260627T210343Z_mpc_e3235b39,mpc,RouteScenario_1_rep0,0,0,Town12,297153,2.500000037252903,mpc,mpc,37.923472991678864,mpc_ok,0,follow_lane,clear,6.1547265877767465,22.157015715996287,5.555555555555555,20.0,-0.5991710322211912,0.0,0.0,0.30000001192092896,1206.30810546875,-82.53791046142578,343.02960205078125,-0.069915771484375,0.8160573244094849,0.0020202435553073883,6.154660701751709,-0.004698901902884245,0.04837600514292717,-0.45101165771484375,-0.009574107825756073,-0.007376521825790405,-0.45105895900123505,-0.010124418921119817,-3.372731924057007,94,1,1,,0,13.232597351074219,-6.154604911804199,2,0,9.5816650390625,,,none,0,,,-0.00038146965835039737,-0.038299560546875,0,0,0,,0.0,0
20260627T210343Z_mpc_e3235b39,mpc,RouteScenario_1_rep0,0,0,Town12,297154,2.550000037997961,mpc,mpc,45.55902996798977,mpc_ok,0,follow_lane,clear,6.082490169798751,21.896964611275504,5.555555555555555,20.0,-0.5269346142431957,0.0,0.0,0.30000001192092896,1206.61328125,-82.53826141357422,343.0322570800781,-0.036712646484375,0.7533630132675171,0.0012331058969721198,6.082378387451172,-0.0047767674550414085,0.04835201054811478,-1.4456462860107422,-0.0015573110431432724,-0.00047989189624786377,-1.4455263970053416,-0.002484016746551513,3.3711891174316406,94,1,1,,0,16.060937881469727,-6.093951225280762,4,0,13.261972427368164,,,none,0,,,-0.0005645750943585881,-0.005096435546875,0,0,0,,0.0,0
20260627T210343Z_mpc_e3235b39,mpc,RouteScenario_1_rep0,0,0,Town12,297155,2.600000038743019,mpc,mpc,41.52377898572013,mpc_ok,0,follow_lane,clear,5.979307724254855,21.525507807317478,5.555555555555555,20.0,-0.4237521686992993,0.0,0.0,0.30000001192092896,1206.91357421875,-82.53841400146484,343.0348815917969,-0.0709838792681694,0.6714075803756714,0.0027830936014652252,5.9791483879089355,-0.005312807857990265,0.04846050962805748,-2.0645999908447266,-0.010720808058977127,0.002169981598854065,-2.0644179172626997,-0.01327991748914957,-3.4011147022247314,94,1,1,,0,13.298001289367676,-6.019649028778076,3,0,10.146153450012207,,,none,0,,,-0.0005493163080245722,-0.0393676683306694,0,0,0,,0.0,0
20260627T210343Z_mpc_e3235b39,mpc,RouteScenario_1_rep0,0,0,Town12,297156,2.650000039488077,mpc,mpc,40.16394098289311,mpc_ok,0,follow_lane,clear,5.854943322414923,21.077795960693724,5.555555555555555,20.0,-0.2993877668593674,0.0,0.0,0.30000001192092896,1207.2078857421875,-82.53878784179688,343.03753662109375,-0.037353515625,0.5834142565727234,0.002357548102736473,5.8547587394714355,-0.004836718551814556,0.04774860292673111,-2.48779296875,0.009521786123514175,-0.014238134026527405,-2.4878145531396667,0.007899431242248622,3.382040023803711,94,1,1,,0,14.36289119720459,-5.900989055633545,3,0,11.25823974609375,,,none,0,,,-0.0007629393167007947,-0.0057373046875,0,0,0,,0.0,0
20260627T210343Z_mpc_e3235b39,mpc,RouteScenario_1_rep0,0,0,Town12,297157,2.7000000402331352,mpc,mpc,38.45956799341366,mpc_ok,0,follow_lane,clear,5.716218165635934,20.578385396289363,5.555555555555555,20.0,-0.16066261008037852,0.0,0.0,0.30000001192092896,1207.4957275390625,-82.53893280029297,343.0401916503906,-0.0709533616900444,0.4979139268398285,0.0019355611875653267,5.716036796569824,-0.00564460689201951,0.04540771245956421,-2.7744388580322266,-0.016157766804099083,-0.04681780934333801,-2.774718708236026,-0.0195927674588924,-3.362422227859497,94,1,1,,0,12.733002662658691,-5.771336555480957,4,0,10.426413536071777,,,none,0,,,-0.0007476805303667788,-0.0393371507525444,0,0,0,,0.0,0
20260627T210343Z_mpc_e3235b39,mpc,RouteScenario_1_rep0,0,0,Town12,297158,2.7500000409781933,mpc,mpc,36.940813006367534,mpc_ok,0,follow_lane,clear,5.583585674554622,20.10090842839664,5.555555555555555,20.0,-0.028030118999066822,0.0,0.0,0.12642213702201843,1207.7764892578125,-82.53932189941406,343.04266357421875,-0.0372314415872097,0.42060303688049316,0.0026035860646516085,5.583407402038574,-0.004947435576468706,0.044501397758722305,-2.652587890625,0.013943426311016083,-0.018126294016838074,-2.652657916634723,0.012219680515324412,3.37379789352417,94,1,1,,0,12.725137710571289,-5.6183905601501465,4,0,10.400726318359375,,,none,0,,,-0.0009841917185440252,-0.0056152306497097015,0,0,0,,0.0,0
20260627T210343Z_mpc_e3235b39,mpc,RouteScenario_1_rep0,0,0,Town12,297159,2.8000000417232513,mpc,mpc,41.76995001034811,mpc_ok,0,follow_lane,clear,5.527476605906728,19.898915781264222,5.555555555555555,20.0,0.028078949648826956,0.0,0.0728902816772461,0.0,1208.05322265625,-82.5394515991211,343.04498291015625,-0.0757751315832138,0.37160325050354004,0.002219484420493245,5.527316093444824,-0.005593013484030962,0.0422779843211174,-1.121826171875,-0.012911558151245117,-0.044468268752098083,-1.1220728954942303,-0.01439374927943385,-3.4843218326568604,94,1,1,,0,15.602643966674805,-5.485966682434082,3,0,12.216548919677734,,,none,0,,,-0.0009613035390430014,-0.044158920645713806,0,0,0,,0.0,0
20260627T210343Z_mpc_e3235b39,mpc,RouteScenario_1_rep0,0,0,Town12,297160,2.8500000424683094,mpc,mpc,39.304491016082466,mpc_ok,0,follow_lane,clear,5.420216223165368,19.512778403395323,5.555555555555555,20.0,0.13533933239018747,0.00019999999494757503,0.4603726863861084,0.0,1208.327880859375,-82.53977966308594,343.0470886230469,-0.0607604905962944,0.34659793972969055,0.0029834730084985495,5.420070171356201,-0.006252025719732046,0.039945438504219055,-2.144918441772461,-0.013180244714021683,-0.04665091633796692,-2.145146267610075,-0.015453106624991563,1.5982108116149902,94,1,1,,0,13.016668319702148,-5.458570957183838,3,0,12.125744819641113,,,none,0,,,-0.0011367795818841842,-0.029144279658794403,0,0,0,,0.0,0
20260627T210343Z_mpc_e3235b39,mpc,RouteScenario_1_rep0,0,0,Town12,297161,2.9000000432133675,mpc,mpc,36.255037994123995,mpc_ok,0,follow_lane,clear,5.106699404584027,18.384117856502495,5.555555555555555,20.0,0.44885615097152876,0.00019999999494757503,0.75,0.0,1208.587890625,-82.54000854492188,343.0492858886719,-0.0809020921587944,0.27529075741767883,0.0028919398318976164,5.106579780578613,-0.005950756371021271,0.03647583723068237,-6.269807815551758,0.0060253869742155075,-0.06939202547073364,-6.270070879255049,-0.0028256519519466363,-3.4406118392944336,94,1,1,,0,12.94452953338623,-5.208633899688721,1,0,10.051852226257324,,,none,0,,,-0.0012207029067212716,-0.0492858812212944,0,0,0,,0.0,0
20260627T210343Z_mpc_e3235b39,mpc,RouteScenario_1_rep0,0,0,Town12,297162,2.9500000439584255,mpc,mpc,40.579511027317494,mpc_ok,0,follow_lane,clear,4.870972365350141,17.53550051526051,5.555555555555555,20.0,0.684583190205414,0.00019999999494757503,0.75,0.0,1208.836181640625,-82.54036712646484,343.05120849609375,-0.046630859375,0.2121729850769043,0.0026089148595929146,4.870888710021973,-0.004595709498971701,0.031034907326102257,-4.7138214111328125,0.0271009374409914,-0.10881859809160233,-4.714212437661504,0.023268688140804863,-0.2116623818874359,94,1,1,,0,12.489830017089844,-4.971614837646484,3,0,10.004738807678223,,,none,0,,,-0.001441955308564502,-0.0150146484375,0,0,0,,0.0,0
20260627T210343Z_mpc_e3235b39,mpc,RouteScenario_1_rep0,0,0,Town12,297163,3.0000000447034836,mpc,mpc,39.86788698239252,mpc_ok,0,follow_lane,clear,4.6905264672845615,16.88589528222442,5.555555555555555,20.0,0.8650290882709939,0.00019999999494757503,0.75,0.0,1209.072998046875,-82.54053497314453,343.0529479980469,-0.0498352013528347,0.1606392115354538,0.0008470093016512692,4.690455913543701,-0.0038945667911320925,0.031164588406682014,-3.6086559295654297,0.014022854156792164,0.002593621611595154,-3.6086453680763317,0.010883894791872118,-0.015861494466662407,94,1,1,,0,16.781742095947266,-4.720344543457031,3,0,10.210766792297363,,,none,0,,,-0.0014801022743995418,-0.0182189904153347,0,0,0,,0.0,0
20260627T210343Z_mpc_e3235b39,mpc,RouteScenario_1_rep0,0,0,Town12,297164,3.0500000454485416,mpc,mpc,39.10775302210823,mpc_ok,0,follow_lane,clear,4.670260245892443,16.812936885212796,5.555555555555555,20.0,0.8852953096631122,0.0010999999940395355,0.75,0.0,1209.306396484375,-82.54071807861328,343.0545959472656,-0.049743641167879105,0.15068762004375458,-0.00021362301777116954,4.670187473297119,-0.0036326139234006405,0.033281631767749786,-0.4053688049316406,0.00523905735462904,0.04234086722135544,-0.4052604509090195,0.004887280086910366,0.0030088548082858324,94,1,1,,0,11.705342292785645,-4.6536865234375,3,0,10.170680046081543,,,none,0,,,-0.0015335080265685974,-0.018127430230379105,0,0,0,,0.0,0
20260627T210343Z_mpc_e3235b39,mpc,RouteScenario_1_rep0,0,0,Town12,297165,3.1000000461935997,mpc,mpc,38.289649004582316,mpc_ok,0,follow_lane,clear,4.743721255220321,17.077396518793158,5.555555555555555,20.0,0.8118343003352342,0.000699999975040555,0.75,0.0,1209.5421142578125,-82.54084014892578,343.05621337890625,-0.045989990234375,0.18360230326652527,-0.0014343260554596782,4.743637561798096,-0.001656188047491014,0.03378023952245712,1.4690017700195312,0.03952851518988609,0.009972155094146729,1.4689940290305268,0.04070776865232234,0.099768728017807,94,1,1,,0,11.984556198120117,-4.684332847595215,5,0,10.4005708694458,,,none,0,,,-0.0015258786334015895,-0.014373779296875,0,0,0,,0.0,0
20260627T210343Z_mpc_e3235b39,mpc,RouteScenario_1_rep0,0,0,Town12,297166,3.1500000469386578,mpc,mpc,42.66363399801776,mpc_ok,0,follow_lane,clear,4.8699651850738555,17.53187466626588,5.555555555555555,20.0,0.6855903704816999,0.0006000000284984708,0.75,0.0,1209.783447265625,-82.54095458984375,343.0577392578125,-0.0417175330221653,0.2448417842388153,-0.0012512205867096782,4.869864463806152,-0.0015801338013261557,0.03400804474949837,2.524538040161133,0.0015210849232971668,0.00455610454082489,2.524532777729653,0.003359085401759731,0.08160217851400375,94,1,1,,0,12.244864463806152,-4.7786383628845215,3,0,10.640547752380371,,,none,0,,,-0.0015106198470675736,-0.010101322084665298,0,0,0,,0.0,0
20260627T210343Z_mpc_e3235b39,mpc,RouteScenario_1_rep0,0,0,Town12,297167,3.200000047683716,mpc,mpc,39.91486498853192,mpc_ok,0,follow_lane,clear,5.026112302276038,18.094004288193737,5.555555555555555,20.0,0.529443253279517,0.0005000000237487257,0.75,0.0,1210.0322265625,-82.54106140136719,343.0592041015625,-0.0379943810403347,0.3206978440284729,-0.0018310546875,5.025988578796387,-0.0015789218014106154,0.036180734634399414,3.1224822998046875,2.4239998310804367e-05,0.043453797698020935,3.1226758109420323,0.0020956724388138006,0.07175520062446594,94,1,1,,0,13.62669849395752,-4.927284240722656,3,0,10.854565620422363,,,none,0,,,-0.0014801022743995418,-0.0063781701028347015,0,0,0,,0.0,0
20260627T210343Z_mpc_e3235b39,mpc,RouteScenario_1_rep0,0,0,Town12,297168,3.250000048428774,mpc,mpc,40.23723897989839,mpc_ok,0,follow_lane,clear,5.1998893416081895,18.719601629789484,5.555555555555555,20.0,0.35566621394736586,0.00039999998989515007,0.75,0.0,1210.28955078125,-82.54118347167969,343.0609436035156,-0.0348815992474556,0.406266450881958,-0.0009765625,5.199733257293701,-0.0015702550299465656,0.040448758751153946,3.474893569946289,0.00017333542928099632,0.08536048233509064,3.475410697907838,0.002289881045269052,0.04799000546336174,94,1,1,,0,12.440815925598145,-5.097740650177002,2,0,10.363082885742188,,,none,0,,,-0.001457214094898518,-0.003265388309955597,0,0,0,,0.0,0
20260627T210343Z_mpc_e3235b39,mpc,RouteScenario_1_rep0,0,0,Town12,297169,3.300000049173832,mpc,mpc,38.724474026821554,mpc_ok,0,follow_lane,clear,5.214033423689824,18.770520325283368,5.555555555555555,20.0,0.3415221318657311,0.0003000000142492354,0.75,0.0,1210.5521240234375,-82.54127502441406,343.06268310546875,-0.0355224572122097,0.46102407574653625,-0.0005187987117096782,5.213896751403809,-0.0018494706600904465,0.03794439136981964,0.28326988220214844,-0.005584312602877617,-0.050087347626686096,0.2828611076201892,-0.005409163032990322,0.07196468114852905,94,1,1,,0,12.34245491027832,-5.212403774261475,6,0,9.944951057434082,,,none,0,,,-0.0014038083427294623,-0.0039062462747097015,0,0,0,,0.0,0
20260627T210343Z_mpc_e3235b39,mpc,RouteScenario_1_rep0,0,0,Town12,297170,3.35000004991889,mpc,mpc,35.65954201621935,mpc_ok,0,follow_lane,clear,5.17904949315078,18.644578175342808,5.555555555555555,20.0,0.3765060624047756,0.0003000000142492354,0.75,0.0,1210.8116455078125,-82.5413818359375,343.064453125,-0.034210205078125,0.46228083968162537,-0.00015258784696925431,5.178923606872559,-0.0019341636216267943,0.03646671399474144,-0.699462890625,-0.0016938592307269573,-0.029553547501564026,-0.6996774357543932,-0.0021115583870134694,0.0032179835252463818,94,1,1,,0,16.895204544067383,-5.141325950622559,2,0,11.166735649108887,,,none,0,,,-0.0013732907700614305,-0.002593994140625,0,0,0,,0.0,0
20260627T210343Z_mpc_e3235b39,mpc,RouteScenario_1_rep0,0,0,Town12,297171,3.400000050663948,mpc,mpc,41.50956199737266,mpc_ok,0,follow_lane,clear,5.1394225741258435,18.50192126685304,5.555555555555555,20.0,0.4161329814297119,0.0003000000142492354,0.75,0.0,1211.069091796875,-82.5414810180664,343.0662841796875,-0.0339050255715847,0.44748663902282715,-0.00033569333027116954,5.13929557800293,-0.001995060360059142,0.036294031888246536,-0.7925605773925781,-0.0012179347686469555,-0.0034536421298980713,-0.7925625010146371,-0.0016869196326814433,0.0032727085053920746,94,1,1,,0,12.16422176361084,-5.136347770690918,3,0,9.783649444580078,,,none,0,,,-0.0013275144110593828,-0.0022888146340847015,0,0,0,,0.0,0
20260627T210343Z_mpc_e3235b39,mpc,RouteScenario_1_rep0,0,0,Town12,297172,3.450000051409006,mpc,mpc,27.612214034888893,mpc_ok,0,follow_lane,clear,5.169446450707005,18.610007222545217,5.555555555555555,20.0,0.38610910484855054,0.0003000000142492354,0.75,0.0,1211.3267822265625,-82.54158782958984,343.0680847167969,-0.0323791466653347,0.43667444586753845,1.3027930297060397e-11,5.169323444366455,-0.001958166714757681,0.03580170497298241,0.6005573272705078,0.0007378729060292244,-0.009846538305282593,0.6004643265035664,0.0010772613153650819,0.02716933749616146,94,1,1,,0,12.594932556152344,-5.1288676261901855,1,0,11.609655380249023,,,none,0,,,-0.001289367445224343,-0.0007629357278347015,0,0,0,,0.0,0
20260627T210343Z_mpc_e3235b39,mpc,RouteScenario_1_rep0,0,0,Town12,297173,3.500000052154064,mpc,mpc,32.32423297595233,mpc_ok,0,follow_lane,clear,5.16069640963969,18.578507074702884,5.555555555555555,20.0,0.39485914591586546,0.0003000000142492354,0.75,0.0,1211.5853271484375,-82.54168701171875,343.06982421875,-0.03100586123764515,0.43060243129730225,-0.00018310548330191523,5.1605753898620605,-0.0020207229536026716,0.03545009717345238,-0.17496109008789062,-0.0012511247768998146,-0.007032155990600586,-0.17500829827070857,-0.0013458238499943918,0.023513352498412132,94,1,1,,0,12.459587097167969,-5.151684284210205,3,0,10.346936225891113,,,none,0,,,-0.0012512204793893034,0.0006103496998548508,0,0,0,,0.0,0
20260627T210343Z_mpc_e3235b39,mpc,RouteScenario_1_rep0,0,0,Town12,297174,3.5500000528991222,mpc,mpc,33.19249994819984,mpc_ok,0,follow_lane,clear,5.176942713598486,18.63699376895455,5.555555555555555,20.0,0.3786128419570698,-9.999999747378752e-05,0.75,0.0,1211.8438720703125,-82.54178619384766,343.0716247558594,-0.0293884240090847,0.42272722721099854,-0.0009765624417923391,5.176820755004883,-0.0018790264148265123,0.035589225590229034,0.3249073028564453,0.0028339307755231857,0.002782568335533142,0.3249174898675915,0.0030005900080920175,0.03786700591444969,94,1,1,,0,12.833391189575195,-5.143343448638916,2,0,11.109048843383789,,,none,0,,,-0.0012054441203872557,0.0022277869284152985,0,0,0,,0.0,0
20260627T210343Z_mpc_e3235b39,mpc,RouteScenario_1_rep0,0,0,Town12,297175,3.6000000536441803,mpc,mpc,26.816122990567237,mpc_ok,0,follow_lane,clear,5.361907858050968,19.302868288983483,5.555555555555555,20.0,0.19364769750458777,-9.999999747378752e-05,0.7336499094963074,0.0,1212.104248046875,-82.54191589355469,343.0733947753906,-0.0282897911965847,0.42851921916007996,-3.0517578125e-05,5.361783981323242,-0.0025725068990141153,0.03653150424361229,3.6992645263671875,-0.01386960968375206,0.0188455730676651,3.6993084679939,-0.012043100863327038,0.016564395278692245,94,1,1,,0,12.948067665100098,-5.18651008605957,2,0,10.51453971862793,,,none,0,,,-0.0011901853340532398,0.0033264197409152985,0,0,0,,0.0,0
20260627T210343Z_mpc_e3235b39,mpc,RouteScenario_1_rep0,0,0,Town12,297176,3.6500000543892384,mpc,mpc,19.48931597871706,mpc_ok,0,follow_lane,clear,6.012746244646917,21.6458864807289,5.555555555555555,20.0,-0.4571906890913615,0.0,0.0,0.30000001192092896,1212.3944091796875,-82.54204559326172,343.07489013671875,-0.02847289852797985,0.5657513737678528,-0.00012207029067212716,6.0126261711120605,-0.00313541735522449,0.04176314175128937,13.016843795776367,-0.011258209124207497,0.10463275015354156,13.017246331879955,-0.004789592414265137,-0.009008570574223995,94,1,1,,0,15.354228973388672,-5.732233047485352,3,0,11.744211196899414,,,none,0,,,-0.001159667761385208,0.0031433124095201492,0,0,0,,0.0,0
20260627T210343Z_mpc_e3235b39,mpc,RouteScenario_1_rep0,0,0,Town12,297177,3.7000000551342964,mpc,mpc,32.66494203126058,mpc_ok,0,follow_lane,clear,6.208001284335508,22.34880462360783,5.555555555555555,20.0,-0.652445728779953,0.0,0.0,0.30000001192092896,1212.703369140625,-82.54219818115234,343.07659912109375,-0.0284728966653347,0.6781626343727112,-0.00030517569393850863,6.207940101623535,-0.0031121664214879274,0.04184290021657944,3.906278610229492,0.0004650186747312546,0.0015951693058013916,3.9060232157375636,0.002405989653968985,0.01419129129499197,94,1,1,,0,13.587224960327148,-6.107632637023926,2,0,9.919971466064453,,,none,0,,,-0.001144408975051192,0.0031433142721652985,0,0,0,,0.0,0
20260627T210343Z_mpc_e3235b39,mpc,RouteScenario_1_rep0,0,0,Town12,297178,3.7500000558793545,mpc,mpc,33.88380602700636,mpc_ok,0,follow_lane,clear,6.2685583585188756,22.566810090667953,5.555555555555555,20.0,-0.7130028029633202,0.0,0.0,0.30000001192092896,1213.01611328125,-82.54235076904297,343.07867431640625,-0.02847289852797985,0.7068357467651367,-6.1035138060105965e-05,6.268521785736084,-0.003167245537042618,0.041566457599401474,1.2116336822509766,-0.0011015823110938072,-0.005528852343559265,1.2114736559716033,-0.0004994877268405265,0.005359338596463203,94,1,1,,0,13.133502006530762,-6.219685077667236,5,0,9.484176635742188,,,none,0,,,-0.0011215207955501683,0.0031433124095201492,0,0,0,,0.0,0
20260627T210343Z_mpc_e3235b39,mpc,RouteScenario_1_rep0,0,0,Town12,297179,3.8000000566244125,mpc,mpc,32.969442021567374,mpc_ok,0,follow_lane,clear,6.2279824779213895,22.420736920517,5.555555555555555,20.0,-0.6724269223658341,0.0,0.0,0.30000001192092896,1213.328369140625,-82.54249572753906,343.080810546875,-0.0284423828125,0.6800682544708252,0.0008135681855492294,6.227938652038574,-0.0030068387277424335,0.04059279337525368,-0.8116626739501953,0.003208136186003685,-0.019473284482955933,-0.8118381171975201,0.0028053554466599567,0.0005933951470069587,94,1,1,,0,13.204391479492188,-6.234940052032471,3,0,9.859551429748535,,,none,0,,,-0.0010986326160491444,0.003173828125,0,0,0,,0.0,0
20260627T210343Z_mpc_e3235b39,mpc,RouteScenario_1_rep0,0,0,Town12,297180,3.8500000573694706,mpc,mpc,32.55752002587542,mpc_ok,0,follow_lane,clear,6.175286383209082,22.231030979552695,5.555555555555555,20.0,-0.6197308276535267,0.0,0.0,0.30000001192092896,1213.6378173828125,-82.54264831542969,343.0830078125,-0.02853393368422985,0.624122142791748,3.528428715071641e-05,6.175210952758789,-0.003109458601102233,0.04048653692007065,-1.0545539855957031,-0.0020523974671959877,-0.0021251291036605835,-1.05451344433792,-0.0025775825295599876,-0.005474315490573645,94,1,1,,0,14.600741386413574,-6.188197135925293,4,0,10.836038589477539,,,none,0,,,-0.0010757444365481206,0.0030822772532701492,0,0,0,,0.0,0
20260627T210343Z_mpc_e3235b39,mpc,RouteScenario_1_rep0,0,0,Town12,297181,3.9000000581145287,mpc,mpc,12.360849999822676,mpc_ok,0,follow_lane,clear,6.0460719681483255,21.76585908533397,5.555555555555555,20.0,-0.4905164125927701,0.0,0.0,0.30000001192092896,1213.9422607421875,-82.54279327392578,343.0852355957031,-0.02847289852797985,0.5539078116416931,0.00011645720223896205,6.045968055725098,-0.0030147468205541372,0.03989601135253906,-2.584857940673828,0.001894235610961914,-0.011810511350631714,-2.584851959816008,0.0006096742126757123,0.003457557177171111,94,1,1,,0,12.337559700012207,-6.096002578735352,2,0,9.406255722045898,,,none,0,,,-0.0010528562570470967,0.0031433124095201492,0,0,0,,0.0,0
20260627T210343Z_mpc_e3235b39,mpc,RouteScenario_1_rep0,0,0,Town12,297182,3.9500000588595867,mpc,mpc,28.694031003396958,mpc_ok,0,follow_lane,clear,5.945425097919358,21.40353035250969,5.555555555555555,20.0,-0.3898695423638028,0.0,0.0,0.30000001192092896,1214.240966796875,-82.54293060302734,343.08746337890625,-0.02871703915297985,0.48139169812202454,-3.051758176297881e-05,5.945310115814209,-0.002949047600850463,0.038574427366256714,-2.0131587982177734,0.0013139843940734863,-0.026431679725646973,-2.0133102534874423,0.00030497009926248766,0.0015980098396539688,94,1,1,,0,14.04892349243164,-5.95628547668457,4,0,12.239690780639648,,,none,0,,,-0.0010299680775460729,0.0028991717845201492,0,0,0,,0.0,0
20260627T210343Z_mpc_e3235b39,mpc,RouteScenario_1_rep0,0,0,Town12,297183,4.000000059604645,mpc,mpc,33.221855002921075,mpc_ok,0,follow_lane,clear,5.777031822261567,20.797314560141643,5.555555555555555,20.0,-0.22147626670601195,0.0,0.0,0.30000001192092896,1214.5323486328125,-82.54308319091797,343.089599609375,-0.028778070583939552,0.4096474051475525,0.00028573189047165215,5.776921272277832,-0.002883474575355649,0.03601338341832161,-3.367776870727539,0.0013114605098962784,-0.05122087895870209,-3.3680572231565353,-0.00037994474954619107,-0.003718319581821561,94,1,1,,0,12.556110382080078,-5.835679054260254,3,0,10.292895317077637,,,none,0,,,-0.001022338684379065,0.0028381403535604477,0,0,0,,0.0,0
20260627T210343Z_mpc_e3235b39,mpc,RouteScenario_1_rep0,0,0,Town12,297184,4.050000060349703,mpc,mpc,32.40667696809396,mpc_ok,0,follow_lane,clear,5.7195322537982625,20.590316113673744,5.555555555555555,20.0,-0.1639766982427071,0.0,0.0,0.30000001192092896,1214.81884765625,-82.54322052001953,343.0915832519531,-0.02893066219985485,0.3564402461051941,-0.00024414061044808477,5.719408988952637,-0.002858976135030389,0.03748985379934311,-1.1502456665039062,0.0004899688065052032,0.029529407620429993,-1.1500397918713583,-9.067464502208057e-05,0.005311936605721712,94,1,1,,0,11.723109245300293,-5.73393440246582,3,0,9.54818344116211,,,none,0,,,-0.000999450504878041,0.0026855487376451492,0,0,0,,0.0,0
20260627T210343Z_mpc_e3235b39,mpc,RouteScenario_1_rep0,0,0,Town12,297185,4.100000061094761,mpc,mpc,30.91029397910461,mpc_ok,0,follow_lane,clear,5.609120325234341,20.192833170843627,5.555555555555555,20.0,-0.05356476967878532,0.0,0.0,0.23275409638881683,1215.1011962890625,-82.54336547851562,343.0935363769531,-0.0291748009622097,0.3178633153438568,-0.0004272460355423391,5.609003067016602,-0.0028711152262985706,0.03656253591179848,-2.208118438720703,-0.00024278182536363602,-0.01854635775089264,-2.208186985670839,-0.0013671944690089258,-0.004230896010994911,94,1,1,,0,13.623348236083984,-5.645620822906494,5,0,11.663360595703125,,,none,0,,,-0.0009841917185440252,0.0024414099752902985,0,0,0,,0.0,0
20260627T210343Z_mpc_e3235b39,mpc,RouteScenario_1_rep0,0,0,Town12,297186,4.150000061839819,mpc,mpc,30.555398028809577,mpc_ok,0,follow_lane,clear,5.288130225606671,19.037268812184017,5.555555555555555,20.0,0.26742532994888446,0.0,0.75,0.0,1215.3712158203125,-82.54351043701172,343.0955505371094,-0.02926635555922985,0.24834565818309784,-0.00024414061044808477,5.288027763366699,-0.002624190878123045,0.03494938835501671,-6.419506072998047,0.004938486963510513,-0.032262951135635376,-6.419587216034807,0.0016594203374140975,-0.0037156734615564346,94,1,1,,0,13.014687538146973,-5.395979404449463,2,0,12.896716117858887,,,none,0,,,-0.0009841917185440252,0.0023498553782701492,0,0,0,,0.0,0
20260627T210343Z_mpc_e3235b39,mpc,RouteScenario_1_rep0,0,0,Town12,297187,4.200000062584877,mpc,mpc,35.00811097910628,mpc_ok,0,follow_lane,clear,4.642845521426349,16.714243877134855,5.555555555555555,20.0,0.9127100341292067,0.0,0.75,0.0,1215.6121826171875,-82.54364013671875,343.0975646972656,-0.0286865234375,0.10566302388906479,-0.00036621090839616954,4.642802715301514,-0.0024055487010627985,0.027155151590704918,-12.904500961303711,0.004372843541204929,-0.1558847427368164,-12.90476678388367,-0.0020889528498452504,0.008331259712576866,94,1,1,,0,12.617246627807617,-4.84945821762085,2,0,12.028361320495605,,,none,0,,,-0.0009841917185440252,0.0029296875,0,0,0,,0.0,0
20260627T210343Z_mpc_e3235b39,mpc,RouteScenario_1_rep0,0,0,Town12,297188,4.250000063329935,mpc,mpc,35.584221011959016,mpc_ok,0,follow_lane,clear,4.410618284422297,15.87822582392027,5.555555555555555,20.0,1.1449372711332586,0.0,0.75,0.0,1215.8358154296875,-82.54373931884766,343.09930419921875,-0.028503412380814552,0.004958717152476311,-0.00012207029067212716,4.41061544418335,-0.0021678872872143984,0.02685348503291607,-4.643745422363281,0.004753228276968002,-0.0060333311557769775,-4.643747755574431,0.0024430525794293446,0.002507512690499425,94,1,1,,0,11.253951072692871,-4.497068405151367,2,0,10.543814659118652,,,none,0,,,-0.0009536741458759934,0.0031127985566854477,0,0,0,,0.0,0
