run_id,run_label,route_id,route_index,repetition_index,town,frame,timestamp,controller,controller_mode,controller_compute_time_ms,controller_status,controller_fallback,maneuver_state,waiting_left_reason,speed_mps,speed_kph,target_speed_mps,target_speed_kph,speed_error_mps,steer,throttle,brake,x,y,z,yaw_deg,pitch_deg,roll_deg,velocity_x,velocity_y,velocity_z,accel_x,accel_y,accel_z,longitudinal_accel_mps2,lateral_accel_mps2,yaw_rate_dps,road_id,lane_id,target_lane_id,overtake_origin_lane_id,is_junction,front_distance_m,front_distance_margin_m,front_dynamic_stop_distance_m,front_dynamic_emergency_distance_m,front_dynamic_margin_m,front_ttc_s,front_closing_speed_mps,front_radar_point_count,front_radar_mean_abs_azimuth_rad,front_radar_anchor_azimuth_rad,front_relative_longitudinal_m,front_relative_lateral_m,front_relative_lateral_abs_m,front_blocked,rear_distance_m,rear_approach_distance_m,rear_approach_speed_mps,rear_closing_speed_mps,rear_approach_ttc_s,rear_approach_mode,rear_lane_releasing,left_oncoming_detected,left_oncoming_confidence,left_oncoming_label,lateral_error_m,heading_error_deg,blocked_vehicle,rejoin_lane_clear,safety_override,safety_override_reason,requested_brake,emergency_brake,steer_saturated,front_collision_risk
20260627T231611Z_mpc_7ff2ee11,mpc,RouteScenario_1_rep0,0,0,Town12,1809333,0.05000000074505806,mpc,mpc,8.64985102089122,mpc_ok,0,follow_lane,clear,0.0002403607687238863,0.0008652987674059907,5.555555555555555,20.0,5.555315194786831,0.0,0.75,0.0,1199.9569091796875,-82.53407287597656,342.9453125,-0.0316467247903347,0.6043487787246704,-0.01141357421875,-0.0012569221435114741,0.0003848605847451836,0.1419672667980194,0.006495767738670111,-0.001741292653605342,-0.6099972128868103,6.231119299404321e-05,-0.0018592255204329415,-0.00019101999350823462,94,1,1,,0,12.900618553161621,7.900618553161621,2.3,2.3,10.60061855316162,,0.008724714629352093,1,0.06793595105409622,0.06793595105409622,12.87086009979248,0.8757418394088745,0.8757418394088745,0,16.217891693115234,,,,,none,0,0,,,-4.5776359002047684e-05,-3.0513852834701538e-05,0,0,0,,0.0,0,0,0
20260627T231611Z_mpc_7ff2ee11,mpc,RouteScenario_1_rep0,0,0,Town12,1809334,0.10000000149011612,mpc,mpc,8.50903696846217,mpc_ok,0,follow_lane,clear,0.0002006088474361022,0.000722191850769968,5.555555555555555,20.0,5.555354946708119,0.0,0.75,0.0,1199.9569091796875,-82.53408813476562,342.9515686035156,-0.0316162109375,0.6022518873214722,-0.00994872860610485,-0.0010052596917375922,0.00026402552612125874,0.11473207175731659,0.005033249035477638,-0.002416701056063175,-0.5447039008140564,-0.0006911251973505659,-0.0025085085361169954,-0.00010836437286343426,94,1,1,,0,12.76563549041748,7.7656354904174805,2.3,2.3,10.46563549041748,,0.006783084012567997,3,0.06925589591264725,0.06977260857820511,12.734575271606445,0.8899692296981812,0.8899692296981812,0,10.720157623291016,,,,,none,0,0,,,-6.103514533606358e-05,0.0,0,0,0,,0.0,0,0,0
20260627T231611Z_mpc_7ff2ee11,mpc,RouteScenario_1_rep0,0,0,Town12,1809335,0.15000000223517418,mpc,mpc,35.698801977559924,mpc_ok,0,follow_lane,clear,0.00012413043561478344,0.0004468695682132204,5.555555555555555,20.0,5.555431425119941,9.999999747378752e-05,0.75,0.0,1199.9569091796875,-82.53411102294922,342.95660400390625,-0.0316162072122097,0.6007082462310791,-0.007965086959302425,-0.0008328882977366447,0.00015805507428012788,0.09128642082214355,0.0034474278800189495,-0.0021194089204072952,-0.4689130187034607,-0.001467744842446084,-0.002182694546646946,-0.00016403761401306838,94,1,1,,0,12.262259483337402,7.262259483337402,2.3,2.3,9.962259483337402,,0.0061362809501588345,5,0.03310639038681984,-0.018762605264782906,12.260101318359375,-0.2300584316253662,0.2300584316253662,0,9.739411354064941,,,,,none,0,0,,,-8.392332483708742e-05,3.725290298461914e-09,0,0,0,,0.0,0,0,0
20260627T231611Z_mpc_7ff2ee11,mpc,RouteScenario_1_rep0,0,0,Town12,1809336,0.20000000298023224,mpc,mpc,24.891407985705882,mpc_ok,0,follow_lane,clear,7.947583162184068e-05,0.00028611299383862645,5.555555555555555,20.0,5.555476079723934,9.999999747378752e-05,0.75,0.0,1199.9569091796875,-82.53411865234375,342.96051025390625,-0.0315856896340847,0.5995266437530518,-0.006469725631177425,-0.0006725897546857595,0.0001914913736982271,0.07188154757022858,0.003205970861017704,0.0006687259883619845,-0.38809746503829956,-0.0008554404183840629,0.0006266686516819936,-8.275554864667356e-05,94,1,1,,0,14.765910148620605,9.765910148620605,2.3,2.3,12.465910148620605,,0.004539008252322674,1,0.09530974179506302,0.09530974179506302,14.698894500732422,1.4052053689956665,1.4052053689956665,0,18.070873260498047,,,,,none,0,0,,,-9.155271800409537e-05,3.052130341529846e-05,0,0,0,,0.0,0,0,0
20260627T231611Z_mpc_7ff2ee11,mpc,RouteScenario_1_rep0,0,0,Town12,1809337,0.2500000037252903,mpc,mpc,25.64735698979348,mpc_ok,0,follow_lane,clear,7.019124139430841e-05,0.0002526884690195103,5.555555555555555,20.0,5.555485364314161,9.999999747378752e-05,0.75,0.0,1199.9569091796875,-82.53412628173828,342.963623046875,-0.0315856896340847,0.5984953045845032,-0.005767821334302425,-0.0005101078422740102,0.00010887762618949637,0.05555788427591324,0.0032496382482349873,-0.0016522749792784452,-0.32647326588630676,-0.00015981309193895972,-0.0016833501038303214,1.834202339523472e-05,94,1,1,,0,13.347434043884277,8.347434043884277,2.3,2.3,11.047434043884277,,0.00409513246268034,1,0.044952187687158585,-0.044952187687158585,13.333950996398926,-0.599794328212738,0.599794328212738,0,10.593972206115723,,,,,none,0,0,,,-9.918211117110332e-05,3.052130341529846e-05,0,0,0,,0.0,0,0,0
20260627T231611Z_mpc_7ff2ee11,mpc,RouteScenario_1_rep0,0,0,Town12,1809338,0.30000000447034836,mpc,mpc,23.879919026512653,mpc_ok,0,follow_lane,clear,3.3091265569963934e-05,0.00011912855605187016,5.555555555555555,20.0,5.555522464289985,9.999999747378752e-05,0.75,0.0,1199.9569091796875,-82.53414154052734,342.9660339355469,-0.0315856896340847,0.5976278781890869,-0.004974364768713713,-0.0004066994006279856,0.00015688795247115195,0.04217053949832916,0.0020681689493358135,0.0009602064965292811,-0.2677468955516815,-0.000725176575793261,0.0009381003162650459,1.5913356037344784e-05,94,1,1,,0,12.477140426635742,7.477140426635742,2.3,2.3,10.177140426635741,,0.00332502624951303,4,0.052576616406440735,-0.015934903174638748,12.475556373596191,-0.19881361722946167,0.19881361722946167,0,9.907390594482422,,,,,none,0,0,,,-0.00011444089750511921,3.052130341529846e-05,0,0,0,,0.0,0,0,0
20260627T231611Z_mpc_7ff2ee11,mpc,RouteScenario_1_rep0,0,0,Town12,1809339,0.3500000052154064,mpc,mpc,23.010896984487772,mpc_ok,0,follow_lane,clear,5.6652031405085556e-05,0.00020394731305830801,5.555555555555555,20.0,5.555498903524151,9.999999747378752e-05,0.75,0.0,1199.9569091796875,-82.53414154052734,342.96783447265625,-0.0315551720559597,0.5968902111053467,-0.004333495162427425,-0.0002809461147990078,-3.09475672111148e-06,0.03240516409277916,0.0025150657165795565,-0.0031996541656553745,-0.19530750811100006,0.0004820726880507047,-0.003213041463737422,0.00011755607556551695,94,1,1,,0,14.133292198181152,9.133292198181152,2.3,2.3,11.833292198181152,,0.002124774968251586,3,0.07476367801427841,0.09204468131065369,14.073464393615723,1.299058198928833,1.299058198928833,0,11.85059928894043,,,,,none,0,0,,,-0.00011444089750511921,6.103888154029846e-05,0,0,0,,0.0,0,0,0
20260627T231611Z_mpc_7ff2ee11,mpc,RouteScenario_1_rep0,0,0,Town12,1809340,0.4000000059604645,mpc,mpc,22.914346016477793,mpc_ok,0,follow_lane,clear,3.3352259020926976e-05,0.00012006813247533711,5.555555555555555,20.0,5.555522203296534,9.999999747378752e-05,0.75,0.0,1199.9569091796875,-82.53414916992188,342.96923828125,-0.0315551795065403,0.5962276458740234,-0.003936767112463713,-0.00022723048459738493,0.00016749052156228572,0.025049390271306038,0.0010743126040324569,0.003411705605685711,-0.14711546897888184,-0.00045850043805995304,0.003402188206378868,2.475240034982562e-05,94,1,1,,0,14.223381996154785,9.223381996154785,2.3,2.3,11.923381996154784,,0.0015025967732071877,4,0.044995274394750595,-0.09687526524066925,14.156692504882812,-1.3757396936416626,1.3757396936416626,0,11.914008140563965,,,,,none,0,0,,,-0.00012207029067212716,6.103143095970154e-05,0,0,0,,0.0,0,0,0
20260627T231611Z_mpc_7ff2ee11,mpc,RouteScenario_1_rep0,0,0,Town12,1809341,0.45000000670552254,mpc,mpc,24.314184032846242,mpc_ok,0,follow_lane,clear,5.0694058306731736e-05,0.00018249860990423425,5.555555555555555,20.0,5.555504861497249,9.999999747378752e-05,0.75,0.0,1199.9569091796875,-82.5341567993164,342.9703063964844,-0.0315551720559597,0.595565140247345,-0.0026245112530887127,-0.00015005521709099412,7.538674981333315e-05,0.019316453486680984,0.0015435053501278162,-0.0018420754931867123,-0.11465873569250107,0.0003526291228087395,-0.001846477642027126,-0.000152516076923348,94,1,1,,0,12.737720489501953,7.737720489501953,2.300035111580187,2.3000351131210506,10.437685376380902,,-0.00017554848454892635,3,0.023114020004868507,-0.030449340119957924,12.731816291809082,-0.38779523968696594,0.38779523968696594,0,10.088338851928711,,,,,none,0,0,,,-0.0001296996838391351,6.103888154029846e-05,0,0,0,,0.0,0,0,0
20260627T231611Z_mpc_7ff2ee11,mpc,RouteScenario_1_rep0,0,0,Town12,1809342,0.5000000074505806,mpc,mpc,21.618933998979628,mpc_ok,0,follow_lane,clear,-5.211263708587287e-06,-1.8760549350914236e-05,5.555555555555555,20.0,5.555560766819264,9.999999747378752e-05,0.75,0.0,1199.9569091796875,-82.5341567993164,342.97113037109375,-0.0315551795065403,0.5953260660171509,-0.0027465822640806437,-0.00015567190712317824,-0.00015851433272473514,0.014471784234046936,-0.00011233380064368248,-0.004678021650761366,-0.09689338505268097,-0.001116494357102453,-0.0046827271432112036,0.0002627996727824211,94,1,1,,0,12.509129524230957,7.509129524230957,2.3,2.3,10.209129524230956,,0.0011783348163589835,1,0.00751701183617115,0.00751701183617115,12.50877571105957,0.09403038769960403,0.09403038769960403,0,10.0048828125,,,,,none,0,0,,,-0.0001296996838391351,6.103143095970154e-05,0,0,0,,0.0,0,0,0
20260627T231611Z_mpc_7ff2ee11,mpc,RouteScenario_1_rep0,0,0,Town12,1809343,0.5500000081956387,mpc,mpc,26.66231303010136,mpc_ok,0,follow_lane,clear,2.2919157310073322e-05,8.250896631626396e-05,5.555555555555555,20.0,5.555532636398246,9.999999747378752e-05,0.75,0.0,1199.9569091796875,-82.5341567993164,342.9717102050781,-0.03155517578125,0.5952919125556946,-0.0025939939077943563,-9.040176519192755e-05,-8.012221769604366e-06,0.010906236246228218,0.0013054028386250138,0.0030100420117378235,-0.07131095975637436,0.0005627809055516915,0.00300753146027201,4.248253026162274e-05,94,1,1,,0,13.094331741333008,8.094331741333008,2.3,2.3,10.794331741333007,,0.0007414225256070495,3,0.050900649279356,0.04412621632218361,13.081585884094238,0.5776157975196838,0.5776157975196838,0,10.714261054992676,,,,,none,0,0,,,-0.0001296996838391351,6.103515625e-05,0,0,0,,0.0,0,0,0
20260627T231611Z_mpc_7ff2ee11,mpc,RouteScenario_1_rep0,0,0,Town12,1809344,0.6000000089406967,mpc,mpc,24.75296799093485,mpc_ok,0,follow_lane,clear,-1.2977878589823629e-05,-4.6720362923365066e-05,5.555555555555555,20.0,5.555568533434145,9.999999747378752e-05,0.75,0.0,1199.9569091796875,-82.5341567993164,342.9721374511719,-0.031524658203125,0.5951143503189087,-0.002166748046875,-9.436003892915323e-05,2.1002388166380115e-05,0.007835986092686653,-7.916547474451363e-05,0.0005802921950817108,-0.0614050030708313,-0.0007172645799816721,0.000577926544052145,4.820093818125315e-05,94,1,1,,0,12.759406089782715,7.759406089782715,2.3,2.3,10.459406089782714,,0.0005286825471557677,2,0.040707334876060486,-0.03365582227706909,12.752180099487305,-0.4293472468852997,0.4293472468852997,0,10.09592056274414,,,,,none,0,0,,,-0.0001296996838391351,9.1552734375e-05,0,0,0,,0.0,0,0,0
20260627T231611Z_mpc_7ff2ee11,mpc,RouteScenario_1_rep0,0,0,Town12,1809345,0.6500000096857548,mpc,mpc,20.500293001532555,mpc_ok,0,follow_lane,clear,0.09844923703197324,0.35441725331510365,5.555555555555555,20.0,5.457106318523582,9.999999747378752e-05,0.75,0.0,1199.9578857421875,-82.53416442871094,342.9725341796875,-0.031829833984375,0.6005921363830566,-0.0013427734375,0.09838401526212692,-4.301566514186561e-05,0.006737012881785631,1.9695675373077393,-0.0012803610879927874,-0.02197946421802044,1.9692292664864128,-0.00018719530234649292,-0.017277585342526436,94,1,1,,0,12.905657768249512,7.905657768249512,2.3035926574475747,2.303608616713716,10.602049151535795,722.368314127999,-0.017865758389234543,2,0.061136115342378616,-0.047445692121982574,12.891134262084961,-0.612088143825531,0.612088143825531,0,10.175837516784668,,,,,none,0,0,,,-0.00013732907700614305,-0.000213623046875,0,0,0,,0.0,0,0,0
20260627T231611Z_mpc_7ff2ee11,mpc,RouteScenario_1_rep0,0,0,Town12,1809346,0.7000000104308128,mpc,mpc,35.45204800320789,mpc_ok,0,follow_lane,clear,0.5092204738623385,1.8331937059044185,5.555555555555555,20.0,5.046335081693217,0.00019999999494757503,0.75,0.0,1199.9761962890625,-82.53416442871094,342.97259521484375,-0.033447265625,0.6787636876106262,-0.0011596678523346782,0.5091589093208313,-0.00010266039316775277,0.008215121924877167,8.215497970581055,-0.0011928945314139128,0.02956218086183071,8.215271047252848,0.0036016533096042873,-0.025328470394015312,94,1,1,,0,13.721067428588867,8.721067428588867,2.3737939119624443,2.379396227324975,11.341671201263892,40.991057696810714,-0.33473318815231323,2,0.05413976311683655,-0.07784193754196167,13.67951774597168,-1.0669960975646973,1.0669960975646973,0,10.9102783203125,,,,,none,0,0,,,-0.0001296996838391351,-0.0018310546875,0,0,0,,0.0,0,0,0
20260627T231611Z_mpc_7ff2ee11,mpc,RouteScenario_1_rep0,0,0,Town12,1809347,0.7500000111758709,mpc,mpc,39.20861100777984,mpc_ok,0,follow_lane,clear,0.779818229292097,2.8073456254515494,5.555555555555555,20.0,4.775737326263458,-0.0003000000142492354,0.75,0.0,1200.0115966796875,-82.53421783447266,342.9728088378906,-0.0291137658059597,0.7735257148742676,-0.00036621090839616954,0.7797479629516602,-0.001018587383441627,0.010437574237585068,5.411781311035156,-0.01831853948533535,0.04444904625415802,5.411896837124961,-0.015568825937922078,0.08419858664274216,94,1,1,,0,15.589106559753418,10.589106559753418,2.4604279168990053,2.4826345307441913,13.106472029009227,23.39187624017497,-0.6664324998855591,2,0.041788600385189056,-0.02144313044846058,15.585522651672363,-0.3342536389827728,0.3342536389827728,0,11.595634460449219,,,,,none,0,0,,,-0.00016784664967417484,0.0025024451315402985,0,0,0,,0.0,0,0,0
20260627T231611Z_mpc_7ff2ee11,mpc,RouteScenario_1_rep0,0,0,Town12,1809348,0.800000011920929,mpc,mpc,42.21259203040972,mpc_ok,0,follow_lane,clear,0.9132202747307826,3.2875929890308173,5.555555555555555,20.0,4.642335280824772,-0.0010000000474974513,0.75,0.0,1200.0555419921875,-82.53429412841797,342.97314453125,-0.01858520321547985,0.8322926759719849,-0.0005187987117096782,0.9131731390953064,7.467819523299113e-05,0.009882554411888123,2.668503522872925,0.02186531201004982,-0.011100396513938904,2.6680535029109285,0.022730449705066987,0.14972460269927979,94,1,1,,0,14.296884536743164,9.296884536743164,2.514985961547714,2.551344256385207,11.745540280357957,16.765814563858502,-0.8527402281761169,2,0.03390595316886902,0.003275491762906313,14.296808242797852,0.04682924598455429,0.04682924598455429,0,10.459747314453125,,,,,none,0,0,,,-0.00021362300867622253,0.01303100772202015,0,0,0,,0.0,0,0,0
20260627T231611Z_mpc_7ff2ee11,mpc,RouteScenario_1_rep0,0,0,Town12,1809349,0.850000012665987,mpc,mpc,38.57693600002676,mpc_ok,0,follow_lane,clear,1.1308197588006654,4.070951131682396,5.555555555555555,20.0,4.42473579675489,-0.0010000000474974513,0.75,0.0,1200.1077880859375,-82.5343246459961,342.9736328125,-0.02041625790297985,0.8708695769309998,-0.000213623046875,1.1307778358459473,-0.0012358797248452902,0.011327847838401794,4.352093696594238,-0.02621115930378437,0.028905868530273438,4.35203938810022,-0.024660511065048605,-0.5051586031913757,94,1,1,,0,12.687692642211914,7.687692642211914,2.5691883348810625,2.6217143772927116,10.065978264919202,12.378850316536706,-1.0249491930007935,5,0.04690173268318176,0.011097047477960587,12.686911582946777,0.14079302549362183,0.14079302549362183,0,9.177694320678711,,,,,none,0,0,,,-0.00022125240184323047,0.01119995303452015,0,0,0,,0.0,0,0,0
20260627T231611Z_mpc_7ff2ee11,mpc,RouteScenario_1_rep0,0,0,Town12,1809350,0.9000000134110451,mpc,mpc,39.58041901933029,mpc_ok,0,follow_lane,clear,1.2561131317673884,4.522007274362598,5.555555555555555,20.0,4.299442423788167,-0.0010000000474974513,0.75,0.0,1200.16845703125,-82.53438568115234,342.97412109375,-0.01818847469985485,0.894939124584198,-0.000274658203125,1.256066083908081,-0.001414835569448769,0.012797364965081215,2.505764961242676,-0.003579116892069578,0.02939034253358841,2.5059192655234517,-0.0027837114218108214,0.5342991352081299,94,1,1,,0,17.06735610961914,12.06735610961914,2.626950940547029,2.698588069022858,14.368768040596283,14.25877341453696,-1.1969722509384155,1,0.10141680389642715,-0.10141680389642715,16.979660034179688,-1.7279510498046875,1.7279510498046875,0,14.719375610351562,,,,,none,0,0,,,-0.00024414058134425431,0.01342773623764515,0,0,0,,0.0,0,0,0
20260627T231611Z_mpc_7ff2ee11,mpc,RouteScenario_1_rep0,0,0,Town12,1809351,0.9500000141561031,mpc,mpc,37.04185300739482,mpc_ok,0,follow_lane,clear,1.403391361918597,5.0522089029069495,5.555555555555555,20.0,4.152164193636958,-0.0013000000035390258,0.75,0.0,1200.2366943359375,-82.53447723388672,342.9748229980469,-0.0079345703125,0.9068236947059631,-0.00067138671875,1.4033464193344116,-0.001106470008380711,0.013936547562479973,2.9456067085266113,0.00616731122136116,0.02278365194797516,2.9455975612734857,0.006574952416279108,0.05156019702553749,94,1,1,,0,13.812744140625,8.812744140625,2.6831239575536934,2.7748964603004826,11.037847680324518,10.195503583702076,-1.354787826538086,2,0.029453519731760025,0.048699699342250824,13.796367645263672,0.6724106073379517,0.6724106073379517,0,10.06851863861084,,,,,none,0,0,,,-0.00029754633351330995,0.023681640625,0,0,0,,0.0,0,0,0
20260627T231611Z_mpc_7ff2ee11,mpc,RouteScenario_1_rep0,0,0,Town12,1809352,1.0000000149011612,mpc,mpc,36.95567004615441,mpc_ok,0,follow_lane,clear,1.481320754094204,5.332754714739134,5.555555555555555,20.0,4.074234801461351,-0.0013000000035390258,0.75,0.0,1200.3089599609375,-82.5345230102539,342.9755859375,-0.008026122115552425,0.8975619673728943,-0.00091552734375,1.481279969215393,-0.0013683504657819867,0.014194965362548828,1.558670997619629,-0.005237609148025513,0.005168356001377106,1.5585614029398276,-0.0050195745780304175,0.13436977565288544,94,1,1,,0,14.644675254821777,9.644675254821777,2.715305912782196,2.819210369459506,11.82546488536227,10.158922798152664,-1.4415578842163086,3,0.05581730604171753,0.07044140994548798,14.608356475830078,1.0307385921478271,1.0307385921478271,0,12.860148429870605,,,,,none,0,0,,,-0.0003051757266803179,0.023590088821947575,0,0,0,,0.0,0,0,0
20260627T231611Z_mpc_7ff2ee11,mpc,RouteScenario_1_rep0,0,0,Town12,1809353,1.0500000156462193,mpc,mpc,37.01845899922773,mpc_ok,0,follow_lane,clear,1.6531460849076478,5.951325905667532,5.555555555555555,20.0,3.9024094706479078,-0.0013000000035390258,0.75,0.0,1200.3876953125,-82.53459167480469,342.9764099121094,-0.01315307430922985,0.8914967179298401,-0.00024414058134425431,1.6531026363372803,-0.001676115789450705,0.015631617978215218,3.436453342437744,-0.006155306473374367,0.02873305231332779,3.436485803877792,-0.0053665243593652235,-0.04781807214021683,94,1,1,,0,14.145557403564453,9.145557403564453,2.766227505800292,2.8901118137568513,11.255445589807602,8.986631177026693,-1.5740667581558228,6,0.03526110574603081,-0.052252039313316345,14.126251220703125,-0.7387979030609131,0.7387979030609131,0,9.92966365814209,,,,,none,0,0,,,-0.00032806390618134174,0.01846313662827015,0,0,0,,0.0,0,0,0
20260627T231611Z_mpc_7ff2ee11,mpc,RouteScenario_1_rep0,0,0,Town12,1809354,1.1000000163912773,mpc,mpc,38.53922395501286,mpc_ok,0,follow_lane,clear,1.8021776430089773,6.487839514832318,5.555555555555555,20.0,3.7533779125465783,-0.0013000000035390258,0.75,0.0,1200.474365234375,-82.53468322753906,342.9771728515625,-0.01611328311264515,0.8906224966049194,0.0008433325565420091,1.802127480506897,-0.001770784961991012,0.017206430435180664,2.980496883392334,-0.001893383450806141,0.03149624913930893,2.9806267059037532,-0.0010549602938006936,-0.22585150599479675,94,1,1,,0,17.36689567565918,12.36689567565918,2.823951824124319,2.971520025830671,14.395375649828509,10.109060720529353,-1.7179534435272217,3,0.11220041662454605,0.08569836616516113,17.30316162109375,1.486493468284607,1.486493468284607,0,19.230581283569336,,,,,none,0,0,,,-0.0003738402651833894,0.01550292782485485,0,0,0,,0.0,0,0,0
20260627T231611Z_mpc_7ff2ee11,mpc,RouteScenario_1_rep0,0,0,Town12,1809355,1.1500000171363354,mpc,mpc,28.429861995391548,mpc_ok,0,follow_lane,clear,1.9069409132524173,6.864987287708702,5.555555555555555,20.0,3.648614642303138,-0.0013000000035390258,0.75,0.0,1200.5673828125,-82.53477478027344,342.9781494140625,-0.021331787109375,0.8850421905517578,0.0013773631071671844,1.9068937301635742,-0.002119559096172452,0.017740219831466675,2.095324993133545,-0.0069754826836287975,0.010675787925720215,2.095242334258295,-0.006194850555375817,-0.059717126190662384,94,1,1,,0,18.96769905090332,13.96769905090332,2.8772790250827747,3.0475909727360038,15.920108078167317,10.277254109187604,-1.845599889755249,2,0.12083879858255386,0.13561800122261047,18.793537139892578,2.564483404159546,2.564483404159546,0,15.135869979858398,,,,,none,0,0,,,-0.00041198723101842916,0.010284423828125,0,0,0,,0.0,0,0,0
20260627T231611Z_mpc_7ff2ee11,mpc,RouteScenario_1_rep0,0,0,Town12,1809356,1.2000000178813934,mpc,mpc,31.661599990911782,mpc_ok,0,follow_lane,clear,2.0345954297910915,7.32454354724793,5.555555555555555,20.0,3.520960125764464,9.999999747378752e-05,0.75,0.0,1200.666259765625,-82.53487396240234,342.9791259765625,-0.02465820126235485,0.8772489428520203,0.00122841855045408,2.0345473289489746,-0.0024747406132519245,0.01866014488041401,2.553071975708008,-0.007103630341589451,0.018398500978946686,2.5530572385061023,-0.006004428392336439,-0.07187202572822571,94,1,1,,0,15.818510055541992,10.818510055541992,2.9306493770275015,3.124463460516478,12.694046595025515,8.034482537305967,-1.968827486038208,3,0.10187411308288574,-0.1195790022611618,15.705549240112305,-1.8870569467544556,1.8870569467544556,0,16.126554489135742,,,,,none,0,0,,,-0.00045776359002047684,0.006958009675145149,0,0,0,,0.0,0,0,0
20260627T231611Z_mpc_7ff2ee11,mpc,RouteScenario_1_rep0,0,0,Town12,1809357,1.2500000186264515,mpc,mpc,10.558945999946445,mpc_ok,0,follow_lane,clear,2.1892984825867994,7.881474537312478,5.555555555555555,20.0,3.366257072968756,9.999999747378752e-05,0.75,0.0,1200.7725830078125,-82.53494262695312,342.98016357421875,-0.02569580264389515,0.8743529319763184,0.00022554672614205629,2.1892521381378174,-0.001319482340477407,0.019717378541827202,3.0940961837768555,0.023105164989829063,0.021144673228263855,3.0940479391817837,0.024492893740243663,-0.011210358701646328,94,1,1,,0,13.073043823242188,8.073043823242188,2.9977788710814472,3.2220931053562163,9.850950717885972,6.17210495443833,-2.1180851459503174,1,0.0452100969851017,-0.0452100969851017,13.059685707092285,-0.5908322334289551,0.5908322334289551,0,9.269482612609863,,,,,none,0,0,,,-0.0004653929831874848,0.005920408293604851,0,0,0,,0.0,0,0,0
20260627T231611Z_mpc_7ff2ee11,mpc,RouteScenario_1_rep0,0,0,Town12,1809358,1.3000000193715096,mpc,mpc,23.146000981796533,mpc_ok,0,follow_lane,clear,2.3533123581081097,8.471924489189195,5.555555555555555,20.0,3.2022431974474457,-9.999999747378752e-05,0.75,0.0,1200.886962890625,-82.53498077392578,342.981201171875,-0.02551269344985485,0.8763405680656433,-0.000732421875,2.353243589401245,-0.0010718497214838862,0.02247718721628189,3.2798290252685547,0.004952652379870415,0.05519617348909378,3.2802870659747545,0.006413159785542448,0.006320551037788391,94,1,1,,0,16.45191192626953,11.451911926269531,3.0698788720195,3.3279896269828084,13.123922299286722,7.240996332297691,-2.2720508575439453,3,0.10493868589401245,0.07816243916749954,16.401681900024414,1.2846125364303589,1.2846125364303589,0,14.43005084991455,,,,,none,0,0,,,-0.00044250480368646095,0.006103517487645149,0,0,0,,0.0,0,0,0
20260627T231611Z_mpc_7ff2ee11,mpc,RouteScenario_1_rep0,0,0,Town12,1809359,1.3500000201165676,mpc,mpc,30.10571899358183,mpc_ok,0,follow_lane,clear,2.538187051475126,9.137473385310454,5.555555555555555,20.0,3.0173685040804292,-9.999999747378752e-05,0.75,0.0,1201.0101318359375,-82.53502655029297,342.98236083984375,-0.02566528134047985,0.8838537335395813,-0.000823974609375,2.538116931915283,-0.0012585469521582127,0.024102725088596344,3.6974668502807617,-0.0037339446134865284,0.03251075744628906,3.6975296872420955,-0.0020780401611547594,-0.0028559251222759485,94,1,1,,0,14.325274467468262,9.325274467468262,3.159676093642291,3.4612030628673534,10.864071404600908,5.833441844470563,-2.4557156562805176,3,0.027033085003495216,-0.008569327183067799,14.324748039245605,-0.1227564588189125,0.1227564588189125,0,10.169233322143555,,,,,none,0,0,,,-0.0004196166241854371,0.005950929597020149,0,0,0,,0.0,0,0,0
20260627T231611Z_mpc_7ff2ee11,mpc,RouteScenario_1_rep0,0,0,Town12,1809360,1.4000000208616257,mpc,mpc,27.69711602013558,mpc_ok,0,follow_lane,clear,2.727045482763586,9.81736373794891,5.555555555555555,20.0,2.8285100727919694,-9.999999747378752e-05,0.75,0.0,1201.1427001953125,-82.53508758544922,342.9836120605469,-0.02603149600327015,0.8944746851921082,5.809181311633438e-05,2.7269740104675293,-0.001246503903530538,0.025846661999821663,3.777141571044922,0.0002408609725534916,0.03487873822450638,3.7772253233368924,0.0019569740209281544,-0.0039056374225765467,94,1,1,,0,14.91828441619873,9.91828441619873,3.252686846712277,3.600544085031288,11.317740331167442,5.655921361387767,-2.6376399993896484,3,0.03640441969037056,-0.05383272469043732,14.896673202514648,-0.8027040362358093,0.8027040362358093,0,10.400696754455566,,,,,none,0,0,,,-0.00041198723101842916,0.005584714934229851,0,0,0,,0.0,0,0,0
20260627T231611Z_mpc_7ff2ee11,mpc,RouteScenario_1_rep0,0,0,Town12,1809361,1.4500000216066837,mpc,mpc,21.332666045054793,mpc_ok,0,follow_lane,clear,2.9341749315125867,10.563029753445312,5.555555555555555,20.0,2.6213806240429687,-9.999999747378752e-05,0.75,0.0,1201.285400390625,-82.53514099121094,342.9849548339844,-0.0263061486184597,0.9073222875595093,-0.00042724609375,2.934110641479492,-0.0015311248134821653,0.02726753242313862,4.142732620239258,-0.005692418199032545,0.02841740846633911,4.142665199612512,-0.0037906466279547775,-0.005085555370897055,94,1,1,,0,12.977133750915527,7.977133750915527,3.3598368195007424,3.762566155251261,9.214567595664267,4.572536175343306,-2.8380603790283203,2,0.03171621635556221,-0.017318719998002052,12.975187301635742,-0.22473610937595367,0.22473610937595367,0,9.11148452758789,,,,,none,0,0,,,-0.00038146965835039737,0.0053100623190402985,0,0,0,,0.0,0,0,0
20260627T231611Z_mpc_7ff2ee11,mpc,RouteScenario_1_rep0,0,0,Town12,1809362,1.5000000223517418,mpc,mpc,25.688435009215027,mpc_ok,0,follow_lane,clear,3.141985027914968,11.311146100493886,5.555555555555555,20.0,2.413570527640587,-9.999999747378752e-05,0.75,0.0,1201.4383544921875,-82.53524017333984,342.9863586425781,-0.0264892578125,0.9210304617881775,-0.00012207030522404239,3.141904830932617,-0.0017498699016869068,0.03021332621574402,4.1558837890625,-0.0043749017640948296,0.058915875852108,4.156295313435655,-0.0024535502182418878,-0.0030613120179623365,94,1,1,,0,13.621830940246582,8.621830940246582,3.4756464386661152,3.9392597633201603,9.682571176926421,4.4734494420608115,-3.045039653778076,4,0.03451025113463402,0.06374692916870117,13.594162940979004,0.8677618503570557,0.8677618503570557,0,9.564862251281738,,,,,none,0,0,,,-0.00039672844468441326,0.005126953125,0,0,0,,0.0,0,0,0
20260627T231611Z_mpc_7ff2ee11,mpc,RouteScenario_1_rep0,0,0,Town12,1809363,1.5500000230967999,mpc,mpc,24.962420982774347,mpc_ok,0,follow_lane,clear,3.363482852063496,12.108538267428585,5.555555555555555,20.0,2.1920727034920593,-9.999999747378752e-05,0.75,0.0,1201.6021728515625,-82.53534698486328,342.9878845214844,-0.02679443359375,0.9352031350135803,0.000171743769897148,3.363415479660034,-0.001805511536076665,0.031548671424388885,4.43021297454834,-0.0011128326877951622,0.02670690417289734,4.430058690570471,0.0009590979280958535,-0.005572316702455282,94,1,1,,0,15.388802528381348,10.388802528381348,3.602516609233999,4.134469823046857,11.254332705334491,4.717947570917616,-3.2617578506469727,1,0.03669794648885727,0.03669794648885727,15.37844181060791,0.5646107196807861,0.5646107196807861,0,10.930842399597168,,,,,none,0,0,,,-0.0004196166241854371,0.00482177734375,0,0,0,,0.0,0,0,0
20260627T231611Z_mpc_7ff2ee11,mpc,RouteScenario_1_rep0,0,0,Town12,1809364,1.600000023841858,mpc,mpc,20.35906899254769,mpc_ok,0,follow_lane,clear,3.5895850537102203,12.922506193356794,5.555555555555555,20.0,1.965970501845335,-9.999999747378752e-05,0.75,0.0,1201.777099609375,-82.53543853759766,342.9895324707031,-0.02713012509047985,0.9489044547080994,-0.00042724606464616954,3.589508056640625,-0.002028681570664048,0.034340180456638336,4.521851539611816,-0.004463400691747665,0.055830180644989014,4.522157530169496,-0.002322400463355038,-0.006409713067114353,94,1,1,,0,13.387626647949219,8.387626647949219,3.738114708181588,4.344767198989551,9.042859448959668,3.843426692222992,-3.483252763748169,1,0.024746906012296677,0.024746906012296677,13.383527755737305,0.3312685191631317,0.3312685191631317,0,9.400014877319336,,,,,none,0,0,,,-0.00041198723101842916,0.004486085847020149,0,0,0,,0.0,0,0,0
20260627T231611Z_mpc_7ff2ee11,mpc,RouteScenario_1_rep0,0,0,Town12,1809365,1.650000024586916,mpc,mpc,19.455820962321013,mpc_ok,0,follow_lane,clear,3.819303719799222,13.7494933912772,5.555555555555555,20.0,1.7362518357563332,-9.999999747378752e-05,0.75,0.0,1201.963623046875,-82.53553771972656,342.9912414550781,-0.0274963341653347,0.9616973996162415,-3.0517559935105965e-05,3.8192296028137207,-0.0020294450223445892,0.03643734008073807,4.594430923461914,-1.526903361082077e-05,0.04194319248199463,4.594487251337051,0.0021895866825563065,-0.007712970022112131,94,1,1,,0,13.895657539367676,8.895657539367676,3.8841313902781964,4.57289961328047,9.322757926087206,3.7439285617470643,-3.711517810821533,3,0.0637335404753685,0.03768065199255943,13.885793685913086,0.5234735608100891,0.5234735608100891,0,9.774195671081543,,,,,none,0,0,,,-0.0004043578378514212,0.0041198767721652985,0,0,0,,0.0,0,0,0
20260627T231611Z_mpc_7ff2ee11,mpc,RouteScenario_1_rep0,0,0,Town12,1809366,1.700000025331974,mpc,mpc,19.361595041118562,mpc_ok,0,follow_lane,clear,4.033247731443437,14.519691833196372,5.555555555555555,20.0,1.5223078241121186,-9.999999747378752e-05,0.75,0.0,1202.1610107421875,-82.53562927246094,342.99310302734375,-0.027862548828125,0.9694018363952637,-6.103516352595761e-05,4.033167839050293,-0.002255621599033475,0.03880547359585762,4.278764724731445,-0.004523531533777714,0.04736267030239105,4.278955379694,-0.0024428234562572076,-0.007876881398260593,94,1,1,,0,13.090673446655273,8.090673446655273,4.0318055652685825,4.805177445684033,8.28549600097124,3.3285325083232613,-3.932866334915161,2,0.010403107851743698,0.014786271378397942,13.089241981506348,0.19355519115924835,0.19355519115924835,0,9.066959381103516,,,,,none,0,0,,,-0.0003890990515174053,0.003753662109375,0,0,0,,0.0,0,0,0
20260627T231611Z_mpc_7ff2ee11,mpc,RouteScenario_1_rep0,0,0,Town12,1809367,1.750000026077032,mpc,mpc,19.61055101128295,mpc_ok,0,follow_lane,clear,4.238512559406398,15.258645213863032,5.555555555555555,20.0,1.3170429961491577,-9.999999747378752e-05,0.75,0.0,1202.368896484375,-82.53572845458984,342.99505615234375,-0.0282897911965847,0.9716626405715942,-9.155270527116954e-05,4.238440036773682,-0.002336095552891493,0.040179185569286346,4.105443954467773,-0.0016094790771603584,0.027474239468574524,4.105319940109085,0.0004175165047870088,-0.008446267805993557,94,1,1,,0,15.1632080078125,10.1632080078125,4.167529141966168,5.01988369779815,10.14332431001435,3.672535067718228,-4.128812313079834,1,0.09234185516834259,0.09234185516834259,15.098605155944824,1.3982096910476685,1.3982096910476685,0,12.740400314331055,,,,,none,0,0,,,-0.0003738402651833894,0.0033264197409152985,0,0,0,,0.0,0,0,0
20260627T231611Z_mpc_7ff2ee11,mpc,RouteScenario_1_rep0,0,0,Town12,1809368,1.8000000268220901,mpc,mpc,34.106841951143,mpc_ok,0,follow_lane,clear,4.438939931672441,15.980183754020787,5.555555555555555,20.0,1.1166156238831144,-9.999999747378752e-05,0.75,0.0,1202.5869140625,-82.53585052490234,342.9971008300781,-0.028717031702399254,0.9721749424934387,0.00016990528092719615,4.438878536224365,-0.002450245199725032,0.04123862087726593,4.008769989013672,-0.00228299293667078,0.021188706159591675,4.008553117343878,-0.0002736313973151264,-0.008983979932963848,94,1,1,,0,14.856141090393066,9.856141090393066,4.311155153895393,5.248237387312136,9.60790370308093,3.431643508786461,-4.329162120819092,1,0.09506390243768692,0.09506390243768692,14.789063453674316,1.4101566076278687,1.4101566076278687,0,13.567967414855957,,,,,none,0,0,,,-0.0003738402651833894,0.002899179235100746,0,0,0,,0.0,0,0,0
20260627T231611Z_mpc_7ff2ee11,mpc,RouteScenario_1_rep0,0,0,Town12,1809369,1.8500000275671482,mpc,mpc,15.647941967472434,mpc_ok,0,follow_lane,clear,4.637309554793874,16.694314397257948,5.555555555555555,20.0,0.9182460007616813,0.0,0.75,0.0,1202.8148193359375,-82.53599548339844,342.9991760253906,-0.029144281521439552,0.9720656275749207,0.00016315965331159532,4.63726806640625,-0.0026077397633343935,0.0417410172522068,3.9677906036376953,-0.003149891272187233,0.010047927498817444,3.967391287060821,-0.001131456953651124,-0.009223696775734425,94,1,1,,0,14.765141487121582,9.765141487121582,4.470816893612709,5.503333152488085,9.261808334633496,3.2491829494407667,-4.544262886047363,2,0.037278637290000916,0.04684239253401756,14.748945236206055,0.6913816332817078,0.6913816332817078,0,10.362994194030762,,,,,none,0,0,,,-0.00039672844468441326,0.0024719294160604477,0,0,0,,0.0,0,0,0
20260627T231611Z_mpc_7ff2ee11,mpc,RouteScenario_1_rep0,0,0,Town12,1809370,1.9000000283122063,mpc,mpc,19.537636020686477,mpc_ok,0,follow_lane,clear,4.834750865285178,17.40510311502664,5.555555555555555,20.0,0.7208046902703771,0.0,0.75,0.0,1203.052734375,-82.5361328125,343.0013122558594,-0.029327386990189552,0.9718197584152222,-0.0003356933011673391,4.834731578826904,-0.002667871303856373,0.04209698736667633,3.949270248413086,-0.0012026308104395866,0.007119402289390564,3.9488231349548304,0.0008184900749096708,-0.0005609162617474794,94,1,1,,0,13.2857666015625,8.2857666015625,4.623294998122142,5.748058788908045,7.537707812654455,2.8011796166758542,-4.742918491363525,4,0.03374524787068367,0.01466483622789383,13.284337997436523,0.1948266178369522,0.1948266178369522,0,9.154277801513672,,,,,none,0,0,,,-0.0004043578378514212,0.0022888239473104477,0,0,0,,0.0,0,0,0
20260627T231611Z_mpc_7ff2ee11,mpc,RouteScenario_1_rep0,0,0,Town12,1809371,1.9500000290572643,mpc,mpc,20.3885140363127,mpc_ok,0,follow_lane,clear,5.031860973925076,18.114699506130272,5.555555555555555,20.0,0.5236945816304797,0.0,0.75,0.0,1203.3004150390625,-82.5362777709961,343.00347900390625,-0.029296875,0.9715670347213745,-6.1035138060105965e-05,5.0318450927734375,-0.002652333118021488,0.04355904459953308,3.942270278930664,0.00031076371669769287,0.02924114465713501,3.942198703670533,0.002326512701184188,0.0008628747309558094,94,1,1,,0,14.3098726272583,9.3098726272583,4.7779159263812545,5.9972261956321535,8.312646431626147,2.897768282266205,-4.938239097595215,2,0.025399914011359215,-0.04216812551021576,14.297151565551758,-0.6032416820526123,0.6032416820526123,0,9.617889404296875,,,,,none,0,0,,,-0.00041198723101842916,0.0023193359375,0,0,0,,0.0,0,0,0
20260627T231611Z_mpc_7ff2ee11,mpc,RouteScenario_1_rep0,0,0,Town12,1809372,2.0000000298023224,mpc,mpc,19.77079303469509,mpc_ok,0,follow_lane,clear,5.2292220359944555,18.82519932958004,5.555555555555555,20.0,0.3263335195610999,0.0,0.75,0.0,1203.5577392578125,-82.53642272949219,343.0058898925781,-0.029327386990189552,0.9711435437202454,-0.00048828116268850863,5.22914981842041,-0.0027324624825268984,0.048536013811826706,3.946094512939453,-0.0016025872901082039,0.0995393842458725,3.947215094368736,0.00041753710364658084,-0.008259289897978306,94,1,1,,0,14.858237266540527,9.858237266540527,4.941309229027991,6.261530947489746,8.596706319050782,2.8915376725539557,-5.138524532318115,3,0.03683378919959068,0.09200641512870789,14.795392990112305,1.365125298500061,1.365125298500061,0,11.451557159423828,,,,,none,0,0,,,-0.00041198723101842916,0.0022888239473104477,0,0,0,,0.0,0,0,0
20260627T231611Z_mpc_7ff2ee11,mpc,RouteScenario_1_rep0,0,0,Town12,1809373,2.0500000305473804,mpc,mpc,20.924668991938233,mpc_ok,0,follow_lane,clear,5.319756584711418,19.151123704961105,5.555555555555555,20.0,0.23579897084413748,0.0,0.75,0.0,1203.8233642578125,-82.53658294677734,343.00830078125,-0.02664184756577015,0.959545910358429,-0.000732421875,5.319687366485596,-0.00274470541626215,0.0486375130712986,1.810750961303711,-0.00024485867470502853,0.002029985189437866,1.810530897007312,0.0005967570021673991,0.33954256772994995,94,1,1,,0,14.231552124023438,9.231552124023438,5.076356599593641,6.4806974892624964,7.750854634760941,2.6853506247280525,-5.299699783325195,4,0.03638240322470665,0.02927756868302822,14.22545337677002,0.41660574078559875,0.41660574078559875,0,9.880053520202637,,,,,none,0,0,,,-0.00042724601735244505,0.004974363371729851,0,0,0,,0.0,0,0,0
20260627T231611Z_mpc_7ff2ee11,mpc,RouteScenario_1_rep0,0,0,Town12,1809374,2.1000000312924385,mpc,mpc,19.79952701367438,mpc_ok,0,follow_lane,clear,5.256923830106847,18.92492578838465,5.555555555555555,20.0,0.29863172544870853,0.0,0.75,0.0,1204.0865478515625,-82.5367202758789,343.0108642578125,-0.03045654296875,0.8981834650039673,-0.0004272460355423391,5.256830215454102,-0.002649912843480706,0.047134075313806534,-1.2571430206298828,0.001895851455628872,-0.03006875514984131,-1.257460790708119,0.0012275182692631764,-0.29802194237709045,94,1,1,,0,13.939525604248047,8.939525604248047,5.053927743022403,6.444255398953975,7.495270205294072,2.643470177512064,-5.273191928863525,3,0.02307569421827793,-0.03785901889204979,13.929536819458008,-0.5276106595993042,0.5276106595993042,0,9.622282028198242,,,,,none,0,0,,,-0.0004196166241854371,0.00115966796875,0,0,0,,0.0,0,0,0
20260627T231611Z_mpc_7ff2ee11,mpc,RouteScenario_1_rep0,0,0,Town12,1809375,2.1500000320374966,mpc,mpc,23.043668013997376,mpc_ok,0,follow_lane,clear,5.230120374088393,18.828433346718214,5.555555555555555,20.0,0.32543518146716277,0.0,0.75,0.0,1204.34765625,-82.536865234375,343.0134582519531,-0.02749633602797985,0.8257288336753845,-0.0008544921292923391,5.230000019073486,-0.0026634770911186934,0.04599181190133095,-0.5366039276123047,-0.00027128495275974274,-0.02284526824951172,-0.5368772446384132,-0.0005290273205772874,0.3214484751224518,94,1,1,,0,14.659185409545898,9.659185409545898,5.0125505508101265,6.377070299263485,8.282115110282414,2.806111523585363,-5.224020957946777,2,0.07983025908470154,-0.09128870815038681,14.598145484924316,-1.336360216140747,1.336360216140747,0,11.119330406188965,,,,,none,0,0,,,-0.0004196166241854371,0.004119874909520149,0,0,0,,0.0,0,0,0
20260627T231611Z_mpc_7ff2ee11,mpc,RouteScenario_1_rep0,0,0,Town12,1809376,2.2000000327825546,mpc,mpc,20.30679996823892,mpc_ok,0,follow_lane,clear,5.236514892157533,18.85145361176712,5.555555555555555,20.0,0.31904066339802206,0.0,0.75,0.0,1204.608642578125,-82.5370101928711,343.01605224609375,-0.03048705868422985,0.7651587128639221,-0.00036621090839616954,5.23637056350708,-0.002605481306090951,0.04572465643286705,0.127410888671875,0.0011599157005548477,-0.005343109369277954,0.12732754266138854,0.0012276658211384486,-0.3101333677768707,94,1,1,,0,13.977875709533691,8.977875709533691,5.006517177236896,6.367278594343628,7.610597115190063,2.6793853791263773,-5.216821670532227,4,0.06680510193109512,-0.07511381804943085,13.938462257385254,-1.0489445924758911,1.0489445924758911,0,10.477368354797363,,,,,none,0,0,,,-0.0004196166241854371,0.0011291522532701492,0,0,0,,0.0,0,0,0
20260627T231611Z_mpc_7ff2ee11,mpc,RouteScenario_1_rep0,0,0,Town12,1809377,2.2500000335276127,mpc,mpc,21.15323900943622,mpc_ok,0,follow_lane,clear,5.236896899393264,18.85282883781575,5.555555555555555,20.0,0.3186586561622917,0.0,0.75,0.0,1204.8701171875,-82.53716278076172,343.01849365234375,-0.02743530087172985,0.7180508971214294,2.3161259377957322e-05,5.236738681793213,-0.0026122918352484703,0.04538791626691818,0.00736236572265625,-0.0001362105831503868,-0.006734803318977356,0.007277451400593733,-0.00013268243940020352,0.2866569459438324,94,1,1,,0,15.491531372070312,10.491531372070312,4.999202360487243,6.355408866796097,9.136122505274216,2.9745169033693206,-5.208083152770996,1,0.10493431240320206,-0.10493431240320206,15.406319618225098,-1.6226115226745605,1.6226115226745605,0,11.762805938720703,,,,,none,0,0,,,-0.00042724601735244505,0.004180910065770149,0,0,0,,0.0,0,0,0
20260627T231611Z_mpc_7ff2ee11,mpc,RouteScenario_1_rep0,0,0,Town12,1809378,2.3000000342726707,mpc,mpc,18.834565998986363,mpc_ok,0,follow_lane,clear,5.2307444491703095,18.830680017013115,5.555555555555555,20.0,0.3248111063852459,0.0,0.75,0.0,1205.1314697265625,-82.53730010986328,343.02081298828125,-0.030700678005814552,0.674344539642334,0.0004209477046970278,5.230589389801025,-0.002636483870446682,0.04389986768364906,-0.12298583984375,-0.0004838407039642334,-0.029760971665382385,-0.12332731249431397,-0.0005495318903788633,-0.29317203164100647,94,1,1,,0,16.341411590576172,11.341411590576172,5.016243309227718,6.383063973889375,9.958347616686797,3.1254949589135195,-5.228423595428467,2,0.03779785707592964,-0.0635557696223259,16.30841827392578,-1.0378918647766113,1.0378918647766113,0,12.30972957611084,,,,,none,0,0,,,-0.0004196166241854371,0.0009155329316854477,0,0,0,,0.0,0,0,0
20260627T231611Z_mpc_7ff2ee11,mpc,RouteScenario_1_rep0,0,0,Town12,1809379,2.350000035017729,mpc,mpc,23.943228006828576,mpc_ok,0,follow_lane,clear,5.569929315563802,20.05174553602969,5.555555555555555,20.0,-0.014373760008246528,0.0,0.0,0.021472617983818054,1205.398193359375,-82.53746032714844,343.02301025390625,-0.026397705078125,0.6696112155914307,4.0593142330180854e-05,5.569780349731445,-0.0028644369449466467,0.04523148387670517,6.783819198608398,-0.004559061489999294,0.02663232386112213,6.783668351187338,-0.0014335360968419477,0.5703685283660889,94,1,1,,0,16.84261703491211,11.84261703491211,5.0588281148970395,6.452216034640014,10.390401000272096,3.1904985787449545,-5.278992176055908,1,0.13527017831802368,-0.13527017831802368,16.688758850097656,-2.271362066268921,2.271362066268921,0,15.466205596923828,,,,,none,0,0,,,-0.000434875410519453,0.005218505859375,0,0,0,,0.0,0,0,0
20260627T231611Z_mpc_7ff2ee11,mpc,RouteScenario_1_rep0,0,0,Town12,1809380,2.400000035762787,mpc,mpc,40.25762004312128,mpc_ok,0,follow_lane,clear,6.040136858479604,21.744492690526577,5.555555555555555,20.0,-0.4845813029240489,0.0,0.0,0.30000001192092896,1205.6915283203125,-82.53754425048828,343.0249938964844,-0.047943115234375,0.7662242650985718,0.0005406442214734852,6.040040016174316,-0.0032812997233122587,0.047582320868968964,9.405193328857422,-0.00833725556731224,0.04701673984527588,9.404984793727508,-0.0004665717554859193,-1.5198184251785278,94,1,1,,0,18.408573150634766,13.408573150634766,5.517143707306801,7.200015388892668,11.208557761742098,3.1730698213712865,-5.801502704620361,3,0.07818512618541718,0.07664936780929565,18.354522705078125,1.4096242189407349,1.4096242189407349,0,17.462841033935547,,,,,none,0,0,,,-0.0003585814788493735,-0.016326904296875,0,0,0,,0.0,0,0,0
20260627T231611Z_mpc_7ff2ee11,mpc,RouteScenario_1_rep0,0,0,Town12,1809381,2.450000036507845,mpc,mpc,41.274540999438614,mpc_ok,0,follow_lane,clear,6.17726902402233,22.238168486480387,5.555555555555555,20.0,-0.6217134684667744,0.0,0.0,0.30000001192092896,1205.999755859375,-82.53780364990234,343.0271301269531,-0.035003662109375,0.832319974899292,0.0013855986762791872,6.177211284637451,-0.004220196511596441,0.04874483123421669,2.7434253692626953,-0.018777936697006226,0.02325020730495453,2.7434846549485634,-0.017101493437579413,3.2216989994049072,94,1,1,,0,14.281855583190918,9.281855583190918,5.81026981456738,7.6813048381455244,6.6005507450453935,2.3346870847963506,-6.117246150970459,3,0.03805401921272278,-0.013840967789292336,14.280488014221191,-0.1976683884859085,0.1976683884859085,0,10.103276252746582,,,,,none,0,0,,,-0.0004501341968534689,-0.003387451171875,0,0,0,,0.0,0,0,0
20260627T231611Z_mpc_7ff2ee11,mpc,RouteScenario_1_rep0,0,0,Town12,1809382,2.500000037252903,mpc,mpc,42.063022032380104,mpc_ok,0,follow_lane,clear,6.1547265877767465,22.157015715996287,5.555555555555555,20.0,-0.5991710322211912,0.0,0.0,0.30000001192092896,1206.30810546875,-82.53791046142578,343.02960205078125,-0.069915771484375,0.8160573244094849,0.0020202435553073883,6.154660701751709,-0.004698901902884245,0.04837600514292717,-0.45101165771484375,-0.009574107825756073,-0.007376521825790405,-0.45105895900123505,-0.010124418921119817,-3.372731924057007,94,1,1,,0,13.232597351074219,8.232597351074219,5.845758636941107,7.7397167179613255,5.492880633112893,2.1500319745455654,-6.154604911804199,2,0.03444301709532738,0.025058096274733543,13.228443145751953,0.3315489888191223,0.3315489888191223,0,9.5816650390625,,,,,none,0,0,,,-0.00038146965835039737,-0.038299560546875,0,0,0,,0.0,0,0,0
20260627T231611Z_mpc_7ff2ee11,mpc,RouteScenario_1_rep0,0,0,Town12,1809383,2.550000037997961,mpc,mpc,36.94749600253999,mpc_ok,0,follow_lane,clear,6.082490169798751,21.896964611275504,5.555555555555555,20.0,-0.5269346142431957,0.0,0.0,0.30000001192092896,1206.61328125,-82.53826141357422,343.0322570800781,-0.036712646484375,0.7533630132675171,0.0012331058969721198,6.082378387451172,-0.0047767674550414085,0.04835201054811478,-1.4456462860107422,-0.0015573110431432724,-0.00047989189624786377,-1.4455263970053416,-0.002484016746551513,3.3711891174316406,94,1,1,,0,16.060937881469727,11.060937881469727,5.788227227817874,7.645039304622919,8.415898576846807,2.6355540580700603,-6.093951225280762,4,0.09331879019737244,0.08095978945493698,16.008331298828125,1.2988700866699219,1.2988700866699219,0,13.261972427368164,,,,,none,0,0,,,-0.0005645750943585881,-0.005096435546875,0,0,0,,0.0,0,0,0
20260627T231611Z_mpc_7ff2ee11,mpc,RouteScenario_1_rep0,0,0,Town12,1809384,2.600000038743019,mpc,mpc,35.14121298212558,mpc_ok,0,follow_lane,clear,5.979307724254855,21.525507807317478,5.555555555555555,20.0,-0.4237521686992993,0.0,0.0,0.30000001192092896,1206.91357421875,-82.53841400146484,343.0348815917969,-0.0709838792681694,0.6714075803756714,0.0027830936014652252,5.9791483879089355,-0.005312807857990265,0.04846050962805748,-2.0645999908447266,-0.010720808058977127,0.002169981598854065,-2.0644179172626997,-0.01327991748914957,-3.4011147022247314,94,1,1,,0,13.298001289367676,8.298001289367676,5.71836268756871,7.530171409052152,5.7678298803155235,2.209099106242582,-6.019649028778076,3,0.05046511068940163,0.02503429539501667,13.293834686279297,0.33287131786346436,0.33287131786346436,0,10.146153450012207,,,,,none,0,0,,,-0.0005493163080245722,-0.0393676683306694,0,0,0,,0.0,0,0,0
20260627T231611Z_mpc_7ff2ee11,mpc,RouteScenario_1_rep0,0,0,Town12,1809385,2.650000039488077,mpc,mpc,37.96007699565962,mpc_ok,0,follow_lane,clear,5.854943322414923,21.077795960693724,5.555555555555555,20.0,-0.2993877668593674,0.0,0.0,0.30000001192092896,1207.2078857421875,-82.53878784179688,343.03753662109375,-0.037353515625,0.5834142565727234,0.002357548102736473,5.8547587394714355,-0.004836718551814556,0.04774860292673111,-2.48779296875,0.009521786123514175,-0.014238134026527405,-2.4878145531396667,0.007899431242248622,3.382040023803711,94,1,1,,0,14.36289119720459,9.36289119720459,5.60818886769213,7.349272459427473,7.013618737777117,2.4339803144512957,-5.900989055633545,3,0.05228528380393982,-0.0034179703798145056,14.362807273864746,-0.04909183830022812,0.04909183830022812,0,11.25823974609375,,,,,none,0,0,,,-0.0007629393167007947,-0.0057373046875,0,0,0,,0.0,0,0,0
20260627T231611Z_mpc_7ff2ee11,mpc,RouteScenario_1_rep0,0,0,Town12,1809386,2.7000000402331352,mpc,mpc,38.74820697819814,mpc_ok,0,follow_lane,clear,5.716218165635934,20.578385396289363,5.555555555555555,20.0,-0.16066261008037852,0.0,0.0,0.30000001192092896,1207.4957275390625,-82.53893280029297,343.0401916503906,-0.0709533616900444,0.4979139268398285,0.0019355611875653267,5.716036796569824,-0.00564460689201951,0.04540771245956421,-2.7744388580322266,-0.016157766804099083,-0.04681780934333801,-2.774718708236026,-0.0195927674588924,-3.362422227859497,94,1,1,,0,12.733002662658691,7.733002662658691,5.489776100001407,7.155192381832947,5.577810280825744,2.206248507647044,-5.771336555480957,4,0.04250507801771164,0.04211719334125519,12.721711158752441,0.536119818687439,0.536119818687439,0,10.426413536071777,,,,,none,0,0,,,-0.0007476805303667788,-0.0393371507525444,0,0,0,,0.0,0,0,0
20260627T231611Z_mpc_7ff2ee11,mpc,RouteScenario_1_rep0,0,0,Town12,1809387,2.7500000409781933,mpc,mpc,37.34934999374673,mpc_ok,0,follow_lane,clear,5.583585674554622,20.10090842839664,5.555555555555555,20.0,-0.028030118999066822,0.0,0.0,0.12642213702201843,1207.7764892578125,-82.53932189941406,343.04266357421875,-0.0372314415872097,0.42060303688049316,0.0026035860646516085,5.583407402038574,-0.004947435576468706,0.044501397758722305,-2.652587890625,0.013943426311016083,-0.018126294016838074,-2.652657916634723,0.012219680515324412,3.37379789352417,94,1,1,,0,12.725137710571289,7.725137710571289,5.352730541753513,6.931046166072727,5.794091544498562,2.2649079971099804,-5.6183905601501465,4,0.06447449326515198,-0.05552537739276886,12.705526351928711,-0.7062050700187683,0.7062050700187683,0,10.400726318359375,,,,,none,0,0,,,-0.0009841917185440252,-0.0056152306497097015,0,0,0,,0.0,0,0,0
20260627T231611Z_mpc_7ff2ee11,mpc,RouteScenario_1_rep0,0,0,Town12,1809388,2.8000000417232513,mpc,mpc,40.758221002761275,mpc_ok,0,follow_lane,clear,5.527476605906728,19.898915781264222,5.555555555555555,20.0,0.028078949648826956,0.0,0.0728902816772461,0.0,1208.05322265625,-82.5394515991211,343.04498291015625,-0.0757751315832138,0.37160325050354004,0.002219484420493245,5.527316093444824,-0.005593013484030962,0.0422779843211174,-1.121826171875,-0.012911558151245117,-0.044468268752098083,-1.1220728954942303,-0.01439374927943385,-3.4843218326568604,94,1,1,,0,15.602643966674805,10.602643966674805,5.236382974534288,6.741174496573128,8.861469470101676,2.8441011165149894,-5.485966682434082,3,0.11659097671508789,0.13811075687408447,15.454072952270508,2.1480488777160645,2.1480488777160645,0,12.216548919677734,,,,,none,0,0,,,-0.0009613035390430014,-0.044158920645713806,0,0,0,,0.0,0,0,0
20260627T231611Z_mpc_7ff2ee11,mpc,RouteScenario_1_rep0,0,0,Town12,1809389,2.8500000424683094,mpc,mpc,39.42409600131214,mpc_ok,0,follow_lane,clear,5.420216223165368,19.512778403395323,5.555555555555555,20.0,0.13533933239018747,0.00019999999494757503,0.4603726863861084,0.0,1208.327880859375,-82.53977966308594,343.0470886230469,-0.0607604905962944,0.34659793972969055,0.0029834730084985495,5.420070171356201,-0.006252025719732046,0.039945438504219055,-2.144918441772461,-0.013180244714021683,-0.04665091633796692,-2.145146267610075,-0.015453106624991563,1.5982108116149902,94,1,1,,0,13.016668319702148,8.016668319702148,5.212580668329655,6.7023805130601986,6.31428780664195,2.3846293144859385,-5.458570957183838,3,0.11164359003305435,0.10271840542554855,12.94805908203125,1.334701418876648,1.334701418876648,0,12.125744819641113,,,,,none,0,0,,,-0.0011367795818841842,-0.029144279658794403,0,0,0,,0.0,0,0,0
20260627T231611Z_mpc_7ff2ee11,mpc,RouteScenario_1_rep0,0,0,Town12,1809390,2.9000000432133675,mpc,mpc,41.19742603506893,mpc_ok,0,follow_lane,clear,5.106699404584027,18.384117856502495,5.555555555555555,20.0,0.44885615097152876,0.00019999999494757503,0.75,0.0,1208.587890625,-82.54000854492188,343.0492858886719,-0.0809020921587944,0.27529075741767883,0.0028919398318976164,5.106579780578613,-0.005950756371021271,0.03647583723068237,-6.269807815551758,0.0060253869742155075,-0.06939202547073364,-6.270070879255049,-0.0028256519519466363,-3.4406118392944336,94,1,1,,0,12.94452953338623,7.9445295333862305,4.99966310277581,6.356156457825136,6.588373075561094,2.485206252288114,-5.208633899688721,1,0.03684062883257866,0.03684062883257866,12.935746192932129,0.47677674889564514,0.47677674889564514,0,10.051852226257324,,,,,none,0,0,,,-0.0012207029067212716,-0.0492858812212944,0,0,0,,0.0,0,0,0
20260627T231611Z_mpc_7ff2ee11,mpc,RouteScenario_1_rep0,0,0,Town12,1809391,2.9500000439584255,mpc,mpc,39.98720395611599,mpc_ok,0,follow_lane,clear,4.870972365350141,17.53550051526051,5.555555555555555,20.0,0.684583190205414,0.00019999999494757503,0.75,0.0,1208.836181640625,-82.54036712646484,343.05120849609375,-0.046630859375,0.2121729850769043,0.0026089148595929146,4.870888710021973,-0.004595709498971701,0.031034907326102257,-4.7138214111328125,0.0271009374409914,-0.10881859809160233,-4.714212437661504,0.023268688140804863,-0.2116623818874359,94,1,1,,0,12.489830017089844,7.489830017089844,4.804803495490261,6.040651200185595,6.449178816904249,2.5122280033668924,-4.971614837646484,3,0.05725159868597984,0.04778006300330162,12.475576400756836,0.5965378284454346,0.5965378284454346,0,10.004738807678223,,,,,none,0,0,,,-0.001441955308564502,-0.0150146484375,0,0,0,,0.0,0,0,0
20260627T231611Z_mpc_7ff2ee11,mpc,RouteScenario_1_rep0,0,0,Town12,1809392,3.0000000447034836,mpc,mpc,34.24271702533588,mpc_ok,0,follow_lane,clear,4.6905264672845615,16.88589528222442,5.555555555555555,20.0,0.8650290882709939,0.00019999999494757503,0.75,0.0,1209.072998046875,-82.54053497314453,343.0529479980469,-0.0498352013528347,0.1606392115354538,0.0008470093016512692,4.690455913543701,-0.0038945667911320925,0.031164588406682014,-3.6086559295654297,0.014022854156792164,0.002593621611595154,-3.6086453680763317,0.010883894791872118,-0.015861494466662407,94,1,1,,0,16.781742095947266,11.781742095947266,4.605725457015796,5.719808087463025,11.06193400848424,3.5551943171624605,-4.720344543457031,3,0.12409639358520508,0.16291038691997528,16.559541702270508,2.7218430042266846,2.7218430042266846,0,10.210766792297363,,,,,none,0,0,,,-0.0014801022743995418,-0.0182189904153347,0,0,0,,0.0,0,0,0
20260627T231611Z_mpc_7ff2ee11,mpc,RouteScenario_1_rep0,0,0,Town12,1809393,3.0500000454485416,mpc,mpc,40.84816999966279,mpc_ok,0,follow_lane,clear,4.670260245892443,16.812936885212796,5.555555555555555,20.0,0.8852953096631122,0.0010999999940395355,0.75,0.0,1209.306396484375,-82.54071807861328,343.0545959472656,-0.049743641167879105,0.15068762004375458,-0.00021362301777116954,4.670187473297119,-0.0036326139234006405,0.033281631767749786,-0.4053688049316406,0.00523905735462904,0.04234086722135544,-0.4052604509090195,0.004887280086910366,0.0030088548082858324,94,1,1,,0,11.705342292785645,6.7053422927856445,4.5542083093689545,5.637048222290145,6.0682940704955,2.5152837935760566,-4.6536865234375,3,0.04228861257433891,0.044327087700366974,11.693843841552734,0.5186938643455505,0.5186938643455505,0,10.170680046081543,,,,,none,0,0,,,-0.0015335080265685974,-0.018127430230379105,0,0,0,,0.0,0,0,0
20260627T231611Z_mpc_7ff2ee11,mpc,RouteScenario_1_rep0,0,0,Town12,1809394,3.1000000461935997,mpc,mpc,40.76848004478961,mpc_ok,0,follow_lane,clear,4.743721255220321,17.077396518793158,5.555555555555555,20.0,0.8118343003352342,0.000699999975040555,0.75,0.0,1209.5421142578125,-82.54084014892578,343.05621337890625,-0.045989990234375,0.18360230326652527,-0.0014343260554596782,4.743637561798096,-0.001656188047491014,0.03378023952245712,1.4690017700195312,0.03952851518988609,0.009972155094146729,1.4689940290305268,0.04070776865232234,0.099768728017807,94,1,1,,0,11.984556198120117,6.984556198120117,4.577826105617123,5.6749748169700975,6.30958138115002,2.5584339516506818,-4.684332847595215,5,0.035911642014980316,-0.04058010131120682,11.974689483642578,-0.48620104789733887,0.48620104789733887,0,10.4005708694458,,,,,none,0,0,,,-0.0015258786334015895,-0.014373779296875,0,0,0,,0.0,0,0,0
20260627T231611Z_mpc_7ff2ee11,mpc,RouteScenario_1_rep0,0,0,Town12,1809395,3.1500000469386578,mpc,mpc,38.03620103280991,mpc_ok,0,follow_lane,clear,4.8699651850738555,17.53187466626588,5.555555555555555,20.0,0.6855903704816999,0.0006000000284984708,0.75,0.0,1209.783447265625,-82.54095458984375,343.0577392578125,-0.0417175330221653,0.2448417842388153,-0.0012512205867096782,4.869864463806152,-0.0015801338013261557,0.03400804474949837,2.524538040161133,0.0015210849232971668,0.00455610454082489,2.524532777729653,0.003359085401759731,0.08160217851400375,94,1,1,,0,12.244864463806152,7.244864463806152,4.65122339832995,5.7929926284915325,6.45187183531462,2.5624170598284834,-4.7786383628845215,3,0.07465093582868576,-0.04116649180650711,12.234490394592285,-0.5039357542991638,0.5039357542991638,0,10.640547752380371,,,,,none,0,0,,,-0.0015106198470675736,-0.010101322084665298,0,0,0,,0.0,0,0,0
20260627T231611Z_mpc_7ff2ee11,mpc,RouteScenario_1_rep0,0,0,Town12,1809396,3.200000047683716,mpc,mpc,37.52299601910636,mpc_ok,0,follow_lane,clear,5.026112302276038,18.094004288193737,5.555555555555555,20.0,0.529443253279517,0.0005000000237487257,0.75,0.0,1210.0322265625,-82.54106140136719,343.0592041015625,-0.0379943810403347,0.3206978440284729,-0.0018310546875,5.025988578796387,-0.0015789218014106154,0.036180734634399414,3.1224822998046875,2.4239998310804367e-05,0.043453797698020935,3.1226758109420323,0.0020956724388138006,0.07175520062446594,94,1,1,,0,13.62669849395752,8.62669849395752,4.769120347464599,5.983026846908292,7.643671647049228,2.765559652787348,-4.927284240722656,3,0.057198911905288696,-0.04344947636127472,13.613838195800781,-0.5918866395950317,0.5918866395950317,0,10.854565620422363,,,,,none,0,0,,,-0.0014801022743995418,-0.0063781701028347015,0,0,0,,0.0,0,0,0
20260627T231611Z_mpc_7ff2ee11,mpc,RouteScenario_1_rep0,0,0,Town12,1809397,3.250000048428774,mpc,mpc,37.796370044816285,mpc_ok,0,follow_lane,clear,5.1998893416081895,18.719601629789484,5.555555555555555,20.0,0.35566621394736586,0.00039999998989515007,0.75,0.0,1210.28955078125,-82.54118347167969,343.0609436035156,-0.0348815992474556,0.406266450881958,-0.0009765625,5.199733257293701,-0.0015702550299465656,0.040448758751153946,3.474893569946289,0.00017333542928099632,0.08536048233509064,3.475410697907838,0.002289881045269052,0.04799000546336174,94,1,1,,0,12.440815925598145,7.4408159255981445,4.907640113930609,6.206988100753961,6.233827824844184,2.4404568178975876,-5.097740650177002,2,0.0317763090133667,0.030533408746123314,12.435017585754395,0.379801481962204,0.379801481962204,0,10.363082885742188,,,,,none,0,0,,,-0.001457214094898518,-0.003265388309955597,0,0,0,,0.0,0,0,0
20260627T231611Z_mpc_7ff2ee11,mpc,RouteScenario_1_rep0,0,0,Town12,1809398,3.300000049173832,mpc,mpc,37.238542980048805,mpc_ok,0,follow_lane,clear,5.214033423689824,18.770520325283368,5.555555555555555,20.0,0.3415221318657311,0.0003000000142492354,0.75,0.0,1210.5521240234375,-82.54127502441406,343.06268310546875,-0.0355224572122097,0.46102407574653625,-0.0005187987117096782,5.213896751403809,-0.0018494706600904465,0.03794439136981964,0.28326988220214844,-0.005584312602877617,-0.050087347626686096,0.2828611076201892,-0.005409163032990322,0.07196468114852905,94,1,1,,0,12.34245491027832,7.34245491027832,5.002817889103895,6.361275544400657,5.981179365877663,2.367900769933556,-5.212403774261475,6,0.037792790681123734,0.007888445630669594,12.342070579528809,0.09736177325248718,0.09736177325248718,0,9.944951057434082,,,,,none,0,0,,,-0.0014038083427294623,-0.0039062462747097015,0,0,0,,0.0,0,0,0
