run_id,run_label,route_id,route_index,repetition_index,town,frame,timestamp,controller,controller_mode,controller_compute_time_ms,controller_status,controller_fallback,longitudinal_controller_compute_time_ms,longitudinal_controller_status,longitudinal_controller_fallback,longitudinal_accel_cmd_mps2,maneuver_state,waiting_left_reason,speed_mps,speed_kph,target_speed_mps,target_speed_kph,speed_error_mps,steer,throttle,brake,x,y,z,yaw_deg,pitch_deg,roll_deg,velocity_x,velocity_y,velocity_z,accel_x,accel_y,accel_z,longitudinal_accel_mps2,lateral_accel_mps2,yaw_rate_dps,road_id,lane_id,target_lane_id,target_lane_lateral_error_m,target_lane_heading_error_deg,target_lane_progress,overtake_origin_lane_id,is_junction,front_distance_m,front_distance_margin_m,front_dynamic_stop_distance_m,front_dynamic_emergency_distance_m,front_dynamic_margin_m,front_ttc_s,front_closing_speed_mps,front_radar_point_count,front_radar_mean_abs_azimuth_rad,front_radar_anchor_azimuth_rad,front_relative_longitudinal_m,front_relative_lateral_m,front_relative_lateral_abs_m,front_blocked,rear_distance_m,rear_approach_distance_m,rear_approach_speed_mps,rear_closing_speed_mps,rear_approach_ttc_s,rear_approach_mode,rear_lane_releasing,left_oncoming_detected,left_oncoming_confidence,left_oncoming_label,lateral_error_m,heading_error_deg,blocked_vehicle,rejoin_lane_clear,safety_override,safety_override_reason,requested_brake,emergency_brake,steer_saturated,front_collision_risk
20260628T180349Z_mpc_6806391f,mpc,RouteScenario_1_rep0,0,0,Town12,420362,0.05000000074505806,mpc,mpc,8.796572976280004,mpc_ok,0,0.0,basic_agent_longitudinal,0,0.0,follow_lane,clear,0.0002403607687238863,0.0008652987674059907,5.555555555555555,20.0,5.555315194786831,0.0,0.75,0.0,1199.9569091796875,-82.53407287597656,342.9453125,-0.0316467247903347,0.6043487787246704,-0.01141357421875,-0.0012569221435114741,0.0003848605847451836,0.1419672667980194,0.006495767738670111,-0.001741292653605342,-0.6099972128868103,6.231119299404321e-05,-0.0018592255204329415,-0.00019101999350823462,94,1,1,,,,,0,18.909374237060547,13.909374237060547,2.3,2.3,16.609374237060546,,0.005214397795498371,1,0.0523509681224823,-0.0523509681224823,18.883468627929688,-0.989471971988678,0.989471971988678,0,16.217891693115234,,,,,none,0,0,,,-4.5776359002047684e-05,-3.0513852834701538e-05,0,0,0,,0.0,0,0,0
20260628T180349Z_mpc_6806391f,mpc,RouteScenario_1_rep0,0,0,Town12,420363,0.10000000149011612,mpc,mpc,9.050180029589683,mpc_ok,0,0.0,basic_agent_longitudinal,0,0.0,follow_lane,clear,0.0002006088474361022,0.000722191850769968,5.555555555555555,20.0,5.555354946708119,0.0,0.75,0.0,1199.9569091796875,-82.53408813476562,342.9515686035156,-0.0316162109375,0.6022518873214722,-0.00994872860610485,-0.0010052596917375922,0.00026402552612125874,0.11473207175731659,0.005033249035477638,-0.002416701056063175,-0.5447039008140564,-0.0006911251973505659,-0.0025085085361169954,-0.00010836437286343426,94,1,1,,,,,0,13.40117359161377,8.40117359161377,2.3,2.3,11.101173591613769,,0.007398346904665232,2,0.09616957604885101,0.06398129463195801,13.373753547668457,0.8568395376205444,0.8568395376205444,0,10.720157623291016,,,,,none,0,0,,,-6.103514533606358e-05,0.0,0,0,0,,0.0,0,0,0
20260628T180349Z_mpc_6806391f,mpc,RouteScenario_1_rep0,0,0,Town12,420364,0.15000000223517418,mpc,mpc,20.269729022402316,mpc_ok,0,0.0,basic_agent_longitudinal,0,0.0,follow_lane,clear,0.00012413043561478344,0.0004468695682132204,5.555555555555555,20.0,5.555431425119941,9.999999747378752e-05,0.75,0.0,1199.9569091796875,-82.53411102294922,342.95660400390625,-0.0316162072122097,0.6007082462310791,-0.007965086959302425,-0.0008328882977366447,0.00015805507428012788,0.09128642082214355,0.0034474278800189495,-0.0021194089204072952,-0.4689130187034607,-0.001467744842446084,-0.002182694546646946,-0.00016403761401306838,94,1,1,,,,,0,12.27054214477539,7.270542144775391,2.3,2.3,9.97054214477539,,0.006237731780856848,2,0.07193650305271149,0.065264493227005,12.24441909790039,0.8002623319625854,0.8002623319625854,0,9.739411354064941,,,,,none,0,0,,,-8.392332483708742e-05,3.725290298461914e-09,0,0,0,,0.0,0,0,0
20260628T180349Z_mpc_6806391f,mpc,RouteScenario_1_rep0,0,0,Town12,420365,0.20000000298023224,mpc,mpc,19.606215006206185,mpc_ok,0,0.0,basic_agent_longitudinal,0,0.0,follow_lane,clear,7.947583162184068e-05,0.00028611299383862645,5.555555555555555,20.0,5.555476079723934,9.999999747378752e-05,0.75,0.0,1199.9569091796875,-82.53411865234375,342.96051025390625,-0.0315856896340847,0.5995266437530518,-0.006469725631177425,-0.0006725897546857595,0.0001914913736982271,0.07188154757022858,0.003205970861017704,0.0006687259883619845,-0.38809746503829956,-0.0008554404183840629,0.0006266686516819936,-8.275554864667356e-05,94,1,1,,,,,0,20.847064971923828,15.847064971923828,2.3,2.3,18.547064971923827,,0.0027908277697861195,3,0.15048159658908844,0.15712793171405792,20.590246200561523,3.2621941566467285,3.2621941566467285,0,18.070873260498047,,,,,none,0,0,,,-9.155271800409537e-05,3.052130341529846e-05,0,0,0,,0.0,0,0,0
20260628T180349Z_mpc_6806391f,mpc,RouteScenario_1_rep0,0,0,Town12,420366,0.2500000037252903,mpc,mpc,22.158601961564273,mpc_ok,0,0.0,basic_agent_longitudinal,0,0.0,follow_lane,clear,7.019124139430841e-05,0.0002526884690195103,5.555555555555555,20.0,5.555485364314161,9.999999747378752e-05,0.75,0.0,1199.9569091796875,-82.53412628173828,342.963623046875,-0.0315856896340847,0.5984953045845032,-0.005767821334302425,-0.0005101078422740102,0.00010887762618949637,0.05555788427591324,0.0032496382482349873,-0.0016522749792784452,-0.32647326588630676,-0.00015981309193895972,-0.0016833501038303214,1.834202339523472e-05,94,1,1,,,,,0,13.397323608398438,8.397323608398438,2.3,2.3,11.097323608398437,,0.004077730234712362,1,0.010383903980255127,0.010383903980255127,13.396601676940918,0.13911402225494385,0.13911402225494385,0,10.593972206115723,,,,,none,0,0,,,-9.918211117110332e-05,3.052130341529846e-05,0,0,0,,0.0,0,0,0
20260628T180349Z_mpc_6806391f,mpc,RouteScenario_1_rep0,0,0,Town12,420367,0.30000000447034836,mpc,mpc,22.796489007305354,mpc_ok,0,0.0,basic_agent_longitudinal,0,0.0,follow_lane,clear,3.3091265569963934e-05,0.00011912855605187016,5.555555555555555,20.0,5.555522464289985,9.999999747378752e-05,0.75,0.0,1199.9569091796875,-82.53414154052734,342.9660339355469,-0.0315856896340847,0.5976278781890869,-0.004974364768713713,-0.0004066994006279856,0.00015688795247115195,0.04217053949832916,0.0020681689493358135,0.0009602064965292811,-0.2677468955516815,-0.000725176575793261,0.0009381003162650459,1.5913356037344784e-05,94,1,1,,,,,0,12.482498168945312,7.4824981689453125,2.3,2.3,10.182498168945312,,0.0033682321663945913,2,0.08187352120876312,0.07121483981609344,12.450859069824219,0.8881879448890686,0.8881879448890686,0,9.907390594482422,,,,,none,0,0,,,-0.00011444089750511921,3.052130341529846e-05,0,0,0,,0.0,0,0,0
20260628T180349Z_mpc_6806391f,mpc,RouteScenario_1_rep0,0,0,Town12,420368,0.3500000052154064,mpc,mpc,19.461562973447144,mpc_ok,0,0.0,basic_agent_longitudinal,0,0.0,follow_lane,clear,5.6652031405085556e-05,0.00020394731305830801,5.555555555555555,20.0,5.555498903524151,9.999999747378752e-05,0.75,0.0,1199.9569091796875,-82.53414154052734,342.96783447265625,-0.0315551720559597,0.5968902111053467,-0.004333495162427425,-0.0002809461147990078,-3.09475672111148e-06,0.03240516409277916,0.0025150657165795565,-0.0031996541656553745,-0.19530750811100006,0.0004820726880507047,-0.003213041463737422,0.00011755607556551695,94,1,1,,,,,0,14.573840141296387,9.573840141296387,2.3,2.3,12.273840141296386,,0.0019595345947891474,3,0.08808499574661255,0.12459619343280792,14.46086311340332,1.8111504316329956,1.8111504316329956,0,11.85059928894043,,,,,none,0,0,,,-0.00011444089750511921,6.103888154029846e-05,0,0,0,,0.0,0,0,0
20260628T180349Z_mpc_6806391f,mpc,RouteScenario_1_rep0,0,0,Town12,420369,0.4000000059604645,mpc,mpc,20.247626991476864,mpc_ok,0,0.0,basic_agent_longitudinal,0,0.0,follow_lane,clear,3.3352259020926976e-05,0.00012006813247533711,5.555555555555555,20.0,5.555522203296534,9.999999747378752e-05,0.75,0.0,1199.9569091796875,-82.53414916992188,342.96923828125,-0.0315551795065403,0.5962276458740234,-0.003936767112463713,-0.00022723048459738493,0.00016749052156228572,0.025049390271306038,0.0010743126040324569,0.003411705605685711,-0.14711546897888184,-0.00045850043805995304,0.003402188206378868,2.475240034982562e-05,94,1,1,,,,,0,14.461148262023926,9.461148262023926,2.3,2.3,12.161148262023925,,0.0016719914274290204,1,0.09690721333026886,-0.09690721333026886,14.393299102783203,-1.3991972208023071,1.3991972208023071,0,11.914008140563965,,,,,none,0,0,,,-0.00012207029067212716,6.103143095970154e-05,0,0,0,,0.0,0,0,0
20260628T180349Z_mpc_6806391f,mpc,RouteScenario_1_rep0,0,0,Town12,420370,0.45000000670552254,mpc,mpc,21.390141046140343,mpc_ok,0,0.0,basic_agent_longitudinal,0,0.0,follow_lane,clear,5.0694058306731736e-05,0.00018249860990423425,5.555555555555555,20.0,5.555504861497249,9.999999747378752e-05,0.75,0.0,1199.9569091796875,-82.5341567993164,342.9703063964844,-0.0315551720559597,0.595565140247345,-0.0026245112530887127,-0.00015005521709099412,7.538674981333315e-05,0.019316453486680984,0.0015435053501278162,-0.0018420754931867123,-0.11465873569250107,0.0003526291228087395,-0.001846477642027126,-0.000152516076923348,94,1,1,,,,,0,12.759074211120605,7.7590742111206055,2.300038264274202,2.300038266104181,10.459035945016424,,-0.0001913101878017187,3,0.05614146590232849,0.04074866324663162,12.748482704162598,0.5197713375091553,0.5197713375091553,0,10.088338851928711,,,,,none,0,0,,,-0.0001296996838391351,6.103888154029846e-05,0,0,0,,0.0,0,0,0
20260628T180349Z_mpc_6806391f,mpc,RouteScenario_1_rep0,0,0,Town12,420371,0.5000000074505806,mpc,mpc,22.83416100544855,mpc_ok,0,0.0,basic_agent_longitudinal,0,0.0,follow_lane,clear,-5.211263708587287e-06,-1.8760549350914236e-05,5.555555555555555,20.0,5.555560766819264,9.999999747378752e-05,0.75,0.0,1199.9569091796875,-82.5341567993164,342.97113037109375,-0.0315551795065403,0.5953260660171509,-0.0027465822640806437,-0.00015567190712317824,-0.00015851433272473514,0.014471784234046936,-0.00011233380064368248,-0.004678021650761366,-0.09689338505268097,-0.001116494357102453,-0.0046827271432112036,0.0002627996727824211,94,1,1,,,,,0,12.506925582885742,7.506925582885742,2.3,2.3,10.206925582885741,,0.001179313287138939,1,0.12051565200090408,0.12051565200090408,12.416210174560547,1.5036343336105347,1.5036343336105347,0,10.0048828125,,,,,none,0,0,,,-0.0001296996838391351,6.103143095970154e-05,0,0,0,,0.0,0,0,0
20260628T180349Z_mpc_6806391f,mpc,RouteScenario_1_rep0,0,0,Town12,420372,0.5500000081956387,mpc,mpc,22.23848202265799,mpc_ok,0,0.0,basic_agent_longitudinal,0,0.0,follow_lane,clear,2.2919157310073322e-05,8.250896631626396e-05,5.555555555555555,20.0,5.555532636398246,9.999999747378752e-05,0.75,0.0,1199.9569091796875,-82.5341567993164,342.9717102050781,-0.03155517578125,0.5952919125556946,-0.0025939939077943563,-9.040176519192755e-05,-8.012221769604366e-06,0.010906236246228218,0.0013054028386250138,0.0030100420117378235,-0.07131095975637436,0.0005627809055516915,0.00300753146027201,4.248253026162274e-05,94,1,1,,,,,0,14.048158645629883,9.048158645629883,2.3,2.3,11.748158645629882,,0.0007421622867695987,1,0.1276174783706665,0.1276174783706665,13.933917999267578,1.7879282236099243,1.7879282236099243,0,10.714261054992676,,,,,none,0,0,,,-0.0001296996838391351,6.103515625e-05,0,0,0,,0.0,0,0,0
20260628T180349Z_mpc_6806391f,mpc,RouteScenario_1_rep0,0,0,Town12,420373,0.6000000089406967,mpc,mpc,23.456768947653472,mpc_ok,0,0.0,basic_agent_longitudinal,0,0.0,follow_lane,clear,-1.2977878589823629e-05,-4.6720362923365066e-05,5.555555555555555,20.0,5.555568533434145,9.999999747378752e-05,0.75,0.0,1199.9569091796875,-82.5341567993164,342.9721374511719,-0.031524658203125,0.5951143503189087,-0.002166748046875,-9.436003892915323e-05,2.1002388166380115e-05,0.007835986092686653,-7.916547474451363e-05,0.0005802921950817108,-0.0614050030708313,-0.0007172645799816721,0.000577926544052145,4.820093818125315e-05,94,1,1,,,,,0,12.78554630279541,7.78554630279541,2.3,2.3,10.48554630279541,,0.0005419663502834737,1,0.034020524471998215,0.034020524471998215,12.77814769744873,0.4348870813846588,0.4348870813846588,0,10.09592056274414,,,,,none,0,0,,,-0.0001296996838391351,9.1552734375e-05,0,0,0,,0.0,0,0,0
20260628T180349Z_mpc_6806391f,mpc,RouteScenario_1_rep0,0,0,Town12,420374,0.6500000096857548,mpc,mpc,23.420800047460943,mpc_ok,0,0.0,basic_agent_longitudinal,0,0.0,follow_lane,clear,0.09844923703197324,0.35441725331510365,5.555555555555555,20.0,5.457106318523582,9.999999747378752e-05,0.75,0.0,1199.9578857421875,-82.53416442871094,342.9725341796875,-0.031829833984375,0.6005921363830566,-0.0013427734375,0.09838401526212692,-4.301566514186561e-05,0.006737012881785631,1.9695675373077393,-0.0012803610879927874,-0.02197946421802044,1.9692292664864128,-0.00018719530234649292,-0.017277585342526436,94,1,1,,,,,0,12.958428382873535,7.958428382873535,2.3035975306390455,2.303613532995407,10.654814849878129,724.3448325407572,-0.01788986101746559,2,0.02842980995774269,0.005181855987757444,12.95825481414795,0.06714840978384018,0.06714840978384018,0,10.175837516784668,,,,,none,0,0,,,-0.00013732907700614305,-0.000213623046875,0,0,0,,0.0,0,0,0
20260628T180349Z_mpc_6806391f,mpc,RouteScenario_1_rep0,0,0,Town12,420375,0.7000000104308128,mpc,mpc,36.91119101131335,mpc_ok,0,0.0,basic_agent_longitudinal,0,0.0,follow_lane,clear,0.5092204738623385,1.8331937059044185,5.555555555555555,20.0,5.046335081693217,0.00019999999494757503,0.75,0.0,1199.9761962890625,-82.53416442871094,342.97259521484375,-0.033447265625,0.6787636876106262,-0.0011596678523346782,0.5091589093208313,-0.00010266039316775277,0.008215121924877167,8.215497970581055,-0.0011928945314139128,0.02956218086183071,8.215271047252848,0.0036016533096042873,-0.025328470394015312,94,1,1,,,,,0,13.873735427856445,8.873735427856445,2.3736686852311624,2.3792536122754733,11.494481815580972,41.511617716533955,-0.3342133164405823,1,0.05789564177393913,-0.05789564177393913,13.85049057006836,-0.8027801513671875,0.8027801513671875,0,10.9102783203125,,,,,none,0,0,,,-0.0001296996838391351,-0.0018310546875,0,0,0,,0.0,0,0,0
20260628T180349Z_mpc_6806391f,mpc,RouteScenario_1_rep0,0,0,Town12,420376,0.7500000111758709,mpc,mpc,35.620087990537286,mpc_ok,0,0.0,basic_agent_longitudinal,0,0.0,follow_lane,clear,0.779818229292097,2.8073456254515494,5.555555555555555,20.0,4.775737326263458,-0.0003000000142492354,0.75,0.0,1200.0115966796875,-82.53421783447266,342.9728088378906,-0.0291137658059597,0.7735257148742676,-0.00036621090839616954,0.7797479629516602,-0.001018587383441627,0.010437574237585068,5.411781311035156,-0.01831853948533535,0.04444904625415802,5.411896837124961,-0.015568825937922078,0.08419858664274216,94,1,1,,,,,0,15.600090026855469,10.600090026855469,2.4604846386913124,2.4827046847350065,13.117385342120462,23.401280889049193,-0.6666340231895447,2,0.04252365604043007,0.05964570492506027,15.572348594665527,0.9299267530441284,0.9299267530441284,0,11.595634460449219,,,,,none,0,0,,,-0.00016784664967417484,0.0025024451315402985,0,0,0,,0.0,0,0,0
20260628T180349Z_mpc_6806391f,mpc,RouteScenario_1_rep0,0,0,Town12,420377,0.800000011920929,mpc,mpc,34.509065037127584,mpc_ok,0,0.0,basic_agent_longitudinal,0,0.0,follow_lane,clear,0.9132202747307826,3.2875929890308173,5.555555555555555,20.0,4.642335280824772,-0.0010000000474974513,0.75,0.0,1200.0555419921875,-82.53429412841797,342.97314453125,-0.01858520321547985,0.8322926759719849,-0.0005187987117096782,0.9131731390953064,7.467819523299113e-05,0.009882554411888123,2.668503522872925,0.02186531201004982,-0.011100396513938904,2.6680535029109285,0.022730449705066987,0.14972460269927979,94,1,1,,,,,0,14.286856651306152,9.286856651306152,2.5136886141883563,2.549683860971572,11.73717279033458,16.83833368458026,-0.8484721183776855,1,0.11159048974514008,0.11159048974514008,14.197996139526367,1.5909706354141235,1.5909706354141235,0,10.459747314453125,,,,,none,0,0,,,-0.00021362300867622253,0.01303100772202015,0,0,0,,0.0,0,0,0
20260628T180349Z_mpc_6806391f,mpc,RouteScenario_1_rep0,0,0,Town12,420378,0.850000012665987,mpc,mpc,37.4541089986451,mpc_ok,0,0.0,basic_agent_longitudinal,0,0.0,follow_lane,clear,1.1308197588006654,4.070951131682396,5.555555555555555,20.0,4.42473579675489,-0.0010000000474974513,0.75,0.0,1200.1077880859375,-82.5343246459961,342.9736328125,-0.02041625790297985,0.8708695769309998,-0.000213623046875,1.1307778358459473,-0.0012358797248452902,0.011327847838401794,4.352093696594238,-0.02621115930378437,0.028905868530273438,4.35203938810022,-0.024660511065048605,-0.5051586031913757,94,1,1,,,,,0,12.679336547851562,7.6793365478515625,2.567810309082719,2.6199026804086882,10.059433867442873,12.422084175685823,-1.0207092761993408,2,0.09880749881267548,0.12805329263210297,12.575522422790527,1.6191972494125366,1.6191972494125366,0,9.177694320678711,,,,,none,0,0,,,-0.00022125240184323047,0.01119995303452015,0,0,0,,0.0,0,0,0
20260628T180349Z_mpc_6806391f,mpc,RouteScenario_1_rep0,0,0,Town12,420379,0.9000000134110451,mpc,mpc,35.607875033747405,mpc_ok,0,0.0,basic_agent_longitudinal,0,0.0,follow_lane,clear,1.2561131317673884,4.522007274362598,5.555555555555555,20.0,4.299442423788167,-0.0010000000474974513,0.75,0.0,1200.16845703125,-82.53438568115234,342.97412109375,-0.01818847469985485,0.894939124584198,-0.000274658203125,1.256066083908081,-0.001414835569448769,0.012797364965081215,2.505764961242676,-0.003579116892069578,0.02939034253358841,2.5059192655234517,-0.0027837114218108214,0.5342991352081299,94,1,1,,,,,0,17.40885353088379,12.408853530883789,2.6267803378150383,2.6983585045636636,14.710495026320125,14.550063476419473,-1.1964795589447021,1,0.10615052282810211,-0.10615052282810211,17.310863494873047,-1.8444904088974,1.8444904088974,0,14.719375610351562,,,,,none,0,0,,,-0.00024414058134425431,0.01342773623764515,0,0,0,,0.0,0,0,0
20260628T180349Z_mpc_6806391f,mpc,RouteScenario_1_rep0,0,0,Town12,420380,0.9500000141561031,mpc,mpc,40.46800400828943,mpc_ok,0,0.0,basic_agent_longitudinal,0,0.0,follow_lane,clear,1.403391361918597,5.0522089029069495,5.555555555555555,20.0,4.152164193636958,-0.0013000000035390258,0.75,0.0,1200.2366943359375,-82.53447723388672,342.9748229980469,-0.0079345703125,0.9068236947059631,-0.00067138671875,1.4033464193344116,-0.001106470008380711,0.013936547562479973,2.9456067085266113,0.00616731122136116,0.02278365194797516,2.9455975612734857,0.006574952416279108,0.05156019702553749,94,1,1,,,,,0,15.578646659851074,10.578646659851074,2.679837966252812,2.770394960839547,12.808251699011528,11.57587234817908,-1.3457859754562378,1,0.1261851191520691,0.1261851191520691,15.454784393310547,1.9605807065963745,1.9605807065963745,0,10.06851863861084,,,,,none,0,0,,,-0.00029754633351330995,0.023681640625,0,0,0,,0.0,0,0,0
20260628T180349Z_mpc_6806391f,mpc,RouteScenario_1_rep0,0,0,Town12,420381,1.0000000149011612,mpc,mpc,39.08673097612336,mpc_ok,0,0.0,basic_agent_longitudinal,0,0.0,follow_lane,clear,1.481320754094204,5.332754714739134,5.555555555555555,20.0,4.074234801461351,-0.0013000000035390258,0.75,0.0,1200.3089599609375,-82.5345230102539,342.9755859375,-0.008026122115552425,0.8975619673728943,-0.00091552734375,1.481279969215393,-0.0013683504657819867,0.014194965362548828,1.558670997619629,-0.005237609148025513,0.005168356001377106,1.5585614029398276,-0.0050195745780304175,0.13436977565288544,94,1,1,,,,,0,18.200815200805664,13.200815200805664,2.716093127129487,2.8202993598815382,15.380515840924126,12.607500512790363,-1.4436497688293457,2,0.05094020813703537,0.08897679299116135,18.128816604614258,1.6173142194747925,1.6173142194747925,0,12.860148429870605,,,,,none,0,0,,,-0.0003051757266803179,0.023590088821947575,0,0,0,,0.0,0,0,0
20260628T180349Z_mpc_6806391f,mpc,RouteScenario_1_rep0,0,0,Town12,420382,1.0500000156462193,mpc,mpc,37.077943969052285,mpc_ok,0,0.0,basic_agent_longitudinal,0,0.0,follow_lane,clear,1.6531460849076478,5.951325905667532,5.555555555555555,20.0,3.9024094706479078,-0.0013000000035390258,0.75,0.0,1200.3876953125,-82.53459167480469,342.9764099121094,-0.01315307430922985,0.8914967179298401,-0.00024414058134425431,1.6531026363372803,-0.001676115789450705,0.015631617978215218,3.436453342437744,-0.006155306473374367,0.02873305231332779,3.436485803877792,-0.0053665243593652235,-0.04781807214021683,94,1,1,,,,,0,14.222301483154297,9.222301483154297,2.76626969850287,2.8901709324704004,11.332130550683896,9.034769287786695,-1.5741742849349976,3,0.02209283970296383,-0.004847280215471983,14.222134590148926,-0.068939208984375,0.068939208984375,0,9.92966365814209,,,,,none,0,0,,,-0.00032806390618134174,0.01846313662827015,0,0,0,,0.0,0,0,0
20260628T180349Z_mpc_6806391f,mpc,RouteScenario_1_rep0,0,0,Town12,420383,1.1000000163912773,mpc,mpc,37.75150701403618,mpc_ok,0,0.0,basic_agent_longitudinal,0,0.0,follow_lane,clear,1.8021776430089773,6.487839514832318,5.555555555555555,20.0,3.7533779125465783,-0.0013000000035390258,0.75,0.0,1200.474365234375,-82.53468322753906,342.9771728515625,-0.01611328311264515,0.8906224966049194,0.0008433325565420091,1.802127480506897,-0.001770784961991012,0.017206430435180664,2.980496883392334,-0.001893383450806141,0.03149624913930893,2.9806267059037532,-0.0010549602938006936,-0.22585150599479675,94,1,1,,,,,0,18.21873664855957,13.21873664855957,2.825217127764915,2.9733157764143923,15.245420872145178,10.585898180772393,-1.7210383415222168,1,0.10435265302658081,-0.10435265302658081,18.119630813598633,-1.8977248668670654,1.8977248668670654,0,19.230581283569336,,,,,none,0,0,,,-0.0003738402651833894,0.01550292782485485,0,0,0,,0.0,0,0,0
20260628T180349Z_mpc_6806391f,mpc,RouteScenario_1_rep0,0,0,Town12,420384,1.1500000171363354,mpc,mpc,40.63187103020027,mpc_ok,0,0.0,basic_agent_longitudinal,0,0.0,follow_lane,clear,1.9069409132524173,6.864987287708702,5.555555555555555,20.0,3.648614642303138,-0.0013000000035390258,0.75,0.0,1200.5673828125,-82.53477478027344,342.9781494140625,-0.021331787109375,0.8850421905517578,0.0013773631071671844,1.9068937301635742,-0.002119559096172452,0.017740219831466675,2.095324993133545,-0.0069754826836287975,0.010675787925720215,2.095242334258295,-0.006194850555375817,-0.059717126190662384,94,1,1,,,,,0,21.060253143310547,16.060253143310547,2.8800196781554486,3.0515211478866715,18.008731995423876,11.371419104007947,-1.8520338535308838,2,0.083486407995224,0.12658953666687012,20.891735076904297,2.65889310836792,2.65889310836792,0,15.135869979858398,,,,,none,0,0,,,-0.00041198723101842916,0.010284423828125,0,0,0,,0.0,0,0,0
20260628T180349Z_mpc_6806391f,mpc,RouteScenario_1_rep0,0,0,Town12,420385,1.2000000178813934,mpc,mpc,34.78370001539588,mpc_ok,0,0.0,basic_agent_longitudinal,0,0.0,follow_lane,clear,2.0345954297910915,7.32454354724793,5.555555555555555,20.0,3.520960125764464,0.0,0.75,0.0,1200.666259765625,-82.53487396240234,342.9791259765625,-0.02465820126235485,0.8772489428520203,0.00122841855045408,2.0345473289489746,-0.0024747406132519245,0.01866014488041401,2.553071975708008,-0.007103630341589451,0.018398500978946686,2.5530572385061023,-0.006004428392336439,-0.07187202572822571,94,1,1,,,,,0,16.24489974975586,11.24489974975586,2.9304404354912954,3.124161165559457,13.120738584196403,8.25304074481775,-1.968353271484375,3,0.10695049166679382,-0.14282062649726868,16.07950210571289,-2.312227249145508,2.312227249145508,0,16.126554489135742,,,,,none,0,0,,,-0.00045776359002047684,0.006958009675145149,0,0,0,,0.0,0,0,0
20260628T180349Z_mpc_6806391f,mpc,RouteScenario_1_rep0,0,0,Town12,420386,1.2500000186264515,mpc,mpc,23.08424998773262,mpc_ok,0,0.0,basic_agent_longitudinal,0,0.0,follow_lane,clear,2.1895442704312673,7.882359373552562,5.555555555555555,20.0,3.366011285124288,0.0,0.75,0.0,1200.7725830078125,-82.53495025634766,342.98016357421875,-0.02581787109375,0.8740661144256592,0.0003485822235234082,2.1894917488098145,-0.0014262056211009622,0.020116452127695084,3.098888397216797,0.020970700308680534,0.02912614494562149,3.098962340824178,0.02236718853954464,-0.025789810344576836,94,1,1,,,,,0,13.123875617980957,8.123875617980957,2.998706764289591,3.2234493846402983,9.900426233340658,6.19019582176724,-2.1201066970825195,1,0.009849458932876587,0.009849458932876587,13.123238563537598,0.12926098704338074,0.12926098704338074,0,9.269994735717773,,,,,none,0,0,,,-0.00047302237635449274,0.00579833984375,0,0,0,,0.0,0,0,0
20260628T180349Z_mpc_6806391f,mpc,RouteScenario_1_rep0,0,0,Town12,420387,1.3000000193715096,mpc,mpc,8.612437988631427,mpc_ok,0,0.0,basic_agent_longitudinal,0,0.0,follow_lane,clear,2.353531408601607,8.472713070965785,5.555555555555555,20.0,3.2020241469539483,0.0,0.75,0.0,1200.886962890625,-82.53499603271484,342.981201171875,-0.02581787295639515,0.8761287927627563,0.0,2.3534626960754395,-0.0012011023936793208,0.02246810868382454,3.2794189453125,0.004502064548432827,0.04703313112258911,3.2797523832257367,0.005979792702837661,0.009283225052058697,94,1,1,,,,,0,20.609352111816406,15.609352111816406,3.074519549076083,3.3348395099501227,17.274512601866284,9.03224285628306,-2.2817535400390625,1,0.033059243112802505,0.033059243112802505,20.59809112548828,0.6812055110931396,0.6812055110931396,0,14.43195629119873,,,,,none,0,0,,,-0.00045776359002047684,0.005798337981104851,0,0,0,,0.0,0,0,0
20260628T180349Z_mpc_6806391f,mpc,RouteScenario_1_rep0,0,0,Town12,420388,1.3500000201165676,mpc,mpc,8.462405996397138,mpc_ok,0,0.0,basic_agent_longitudinal,0,0.0,follow_lane,clear,2.537882414492373,9.136376692172544,5.555555555555555,20.0,3.0176731410631823,0.0,0.75,0.0,1201.0101318359375,-82.53504943847656,342.98236083984375,-0.02581787109375,0.8836556673049927,-0.00015258790517691523,2.5378079414367676,-0.0012223930098116398,0.024380292743444443,3.6869049072265625,-0.00042581232264637947,0.03824368119239807,3.6870560425246555,0.0012354827162387283,-0.0003542264166753739,94,1,1,,,,,0,14.319649696350098,9.319649696350098,3.1519900807518244,3.449747936793978,10.86990175955612,5.867941583361341,-2.440319061279297,2,0.11064128577709198,0.08671259135007858,14.265848159790039,1.2401385307312012,1.2401385307312012,0,10.170273780822754,,,,,none,0,0,,,-0.00044250480368646095,0.00579833984375,0,0,0,,0.0,0,0,0
20260628T180349Z_mpc_6806391f,mpc,RouteScenario_1_rep0,0,0,Town12,420389,1.4000000208616257,mpc,mpc,23.556786007247865,mpc_ok,0,0.0,basic_agent_longitudinal,0,0.0,follow_lane,clear,2.7268961903395503,9.816826285222382,5.555555555555555,20.0,2.828659365216005,-9.999999747378752e-05,0.75,0.0,1201.1427001953125,-82.53509521484375,342.9836120605469,-0.02572631649672985,0.8944610357284546,-0.000213623046875,2.7268242835998535,-0.001230362569913268,0.025873536244034767,3.7803268432617188,-0.00015939120203256607,0.029864870011806488,3.780332109997394,0.0015379004697092442,0.004723426420241594,94,1,1,,,,,0,15.00444507598877,10.00444507598877,3.2542913091164474,3.6029588677633253,11.401486208225444,5.681973054752364,-2.6407103538513184,2,0.0066569484770298,-0.008137322962284088,15.003949165344238,-0.12209467589855194,0.12209467589855194,0,10.4005126953125,,,,,none,0,0,,,-0.0004196166241854371,0.005889894440770149,0,0,0,,0.0,0,0,0
20260628T180349Z_mpc_6806391f,mpc,RouteScenario_1_rep0,0,0,Town12,420390,1.4500000216066837,mpc,mpc,18.828815023880452,mpc_ok,0,0.0,basic_agent_longitudinal,0,0.0,follow_lane,clear,2.934123923120443,10.562846123233594,5.555555555555555,20.0,2.6214316324351126,-9.999999747378752e-05,0.75,0.0,1201.285400390625,-82.53515625,342.9849548339844,-0.02600097469985485,0.9073564410209656,-0.000518798828125,2.9340548515319824,-0.001529064727947116,0.027569884434342384,4.144611358642578,-0.005974043160676956,0.033926963806152344,4.144631064239292,-0.0040934942643873614,-0.0042440081015229225,94,1,1,,,,,0,12.981220245361328,7.981220245361328,3.3566711679308994,3.7577582690227,9.223461976338628,4.5833304782491835,-2.832267999649048,3,0.06765984743833542,0.06830558180809021,12.950948715209961,0.8860005140304565,0.8860005140304565,0,9.111145973205566,,,,,none,0,0,,,-0.00039672844468441326,0.005615236237645149,0,0,0,,0.0,0,0,0
20260628T180349Z_mpc_6806391f,mpc,RouteScenario_1_rep0,0,0,Town12,420391,1.5000000223517418,mpc,mpc,22.448636998888105,mpc_ok,0,0.0,basic_agent_longitudinal,0,0.0,follow_lane,clear,3.1417236351705,11.3102050866138,5.555555555555555,20.0,2.4138319203850553,-9.999999747378752e-05,0.75,0.0,1201.4383544921875,-82.53526306152344,342.986328125,-0.02618408016860485,0.9209690093994141,0.00011940458352910355,3.141636848449707,-0.0016520083881914616,0.030622681602835655,4.151639938354492,-0.0024588732048869133,0.06105594336986542,4.15208569502375,-0.0005615683085708244,-0.004718041513115168,94,1,1,,,,,0,13.880441665649414,8.880441665649414,3.475998279458148,3.939798856875865,9.94064280877355,4.557457684317253,-3.045654535293579,3,0.030900388956069946,0.008552663028240204,13.87993335723877,0.11871328949928284,0.11871328949928284,0,9.56485652923584,,,,,none,0,0,,,-0.0004196166241854371,0.005432130768895149,0,0,0,,0.0,0,0,0
20260628T180349Z_mpc_6806391f,mpc,RouteScenario_1_rep0,0,0,Town12,420392,1.5500000230967999,mpc,mpc,16.862737014889717,mpc_ok,0,0.0,basic_agent_longitudinal,0,0.0,follow_lane,clear,3.3633144026063335,12.107931849382801,5.555555555555555,20.0,2.192241152949222,-9.999999747378752e-05,0.75,0.0,1201.60205078125,-82.53534698486328,342.98785400390625,-0.0264892578125,0.9350665211677551,-3.0517585400957614e-05,3.363236427307129,-0.0017653817776590586,0.03219472989439964,4.4319915771484375,-0.00226746778935194,0.031440965831279755,4.4319150407409555,-0.00021847000246872673,-0.006899985019117594,94,1,1,,,,,0,20.867570877075195,15.867570877075195,3.599634137454186,4.130017242111137,16.73755363496406,6.407108209530197,-3.2569406032562256,2,0.07124568521976471,0.0926748663187027,20.77802276611328,1.9311323165893555,1.9311323165893555,0,10.930445671081543,,,,,none,0,0,,,-0.0004196166241854371,0.005126953125,0,0,0,,0.0,0,0,0
20260628T180349Z_mpc_6806391f,mpc,RouteScenario_1_rep0,0,0,Town12,420393,1.600000023841858,mpc,mpc,17.285078996792436,mpc_ok,0,0.0,basic_agent_longitudinal,0,0.0,follow_lane,clear,3.5893579886684415,12.92168875920639,5.555555555555555,20.0,1.966197566887114,-9.999999747378752e-05,0.75,0.0,1201.777099609375,-82.53544616699219,342.9895324707031,-0.02682495303452015,0.9489044547080994,-0.0006103515625,3.5892786979675293,-0.002067659981548786,0.03447578474879265,4.520845413208008,-0.006045564077794552,0.04562109708786011,4.520983188666352,-0.003929288833184772,-0.006392528302967548,94,1,1,,,,,0,13.382044792175293,8.382044792175293,3.7120921092982773,4.304286480989544,9.07775831118575,3.8884394772698743,-3.441494941711426,1,0.15673618018627167,0.15673618018627167,13.218008041381836,2.0888733863830566,2.0888733863830566,0,9.399868965148926,,,,,none,0,0,,,-0.0004196166241854371,0.004791257902979851,0,0,0,,0.0,0,0,0
20260628T180349Z_mpc_6806391f,mpc,RouteScenario_1_rep0,0,0,Town12,420394,1.650000024586916,mpc,mpc,19.59906000411138,mpc_ok,0,0.0,basic_agent_longitudinal,0,0.0,follow_lane,clear,3.819166839711835,13.749000622962605,5.555555555555555,20.0,1.7363887158437206,-9.999999747378752e-05,0.75,0.0,1201.963623046875,-82.5355453491211,342.9912414550781,-0.02716064266860485,0.961635947227478,-0.00027465823222883046,3.8190908432006836,-0.00208526523783803,0.03654489293694496,4.596242904663086,-0.00035210512578487396,0.041382163763046265,4.596289675972229,0.0018265385014001063,-0.006490843836218119,94,1,1,,,,,0,16.206995010375977,11.206995010375977,3.876257393375013,4.560556736886454,11.646438273489522,4.3809110858336044,-3.6994576454162598,2,0.09822636842727661,-0.10415239632129669,16.119169235229492,-1.68494713306427,1.68494713306427,0,9.774044036865234,,,,,none,0,0,,,-0.00041198723101842916,0.004455568268895149,0,0,0,,0.0,0,0,0
20260628T180349Z_mpc_6806391f,mpc,RouteScenario_1_rep0,0,0,Town12,420395,1.700000025331974,mpc,mpc,18.317946989554912,mpc_ok,0,0.0,basic_agent_longitudinal,0,0.0,follow_lane,clear,4.0331632606430246,14.519387738314888,5.555555555555555,20.0,1.5223922949125308,-9.999999747378752e-05,0.75,0.0,1202.1610107421875,-82.53564453125,342.9931640625,-0.027557373046875,0.9695316553115845,-0.00027465823222883046,4.033087253570557,-0.0022122168447822332,0.03858044371008873,4.279928207397461,-0.0025390321388840675,0.040711015462875366,4.280005018718955,-0.00048068029129326364,-0.008258274756371975,94,1,1,,,,,0,13.081111907958984,8.081111907958984,4.0104659098336874,4.771522646591478,8.309589261367506,3.3529042081495635,-3.9014272689819336,2,0.12657561898231506,0.13581614196300507,12.960649490356445,1.7711693048477173,1.7711693048477173,0,9.067001342773438,,,,,none,0,0,,,-0.0004043578378514212,0.004058837890625,0,0,0,,0.0,0,0,0
20260628T180349Z_mpc_6806391f,mpc,RouteScenario_1_rep0,0,0,Town12,420396,1.750000026077032,mpc,mpc,20.950535021256655,mpc_ok,0,0.0,basic_agent_longitudinal,0,0.0,follow_lane,clear,4.238440218517593,15.258384786663335,5.555555555555555,20.0,1.3171153370379622,-9.999999747378752e-05,0.75,0.0,1202.368896484375,-82.5357437133789,342.9951171875,-0.0279541015625,0.9719017148017883,0.0001961926172953099,4.238382339477539,-0.0022740699350833893,0.0393250547349453,4.105901718139648,-0.0012370618060231209,0.014892220497131348,4.1055636548458745,0.0007663587119434217,-0.008369636721909046,94,1,1,,,,,0,16.53508949279785,11.535089492797852,4.163518335436493,5.013523209482809,11.521566283315043,4.010336767203235,-4.123117446899414,1,0.10964120924472809,-0.10964120924472809,16.435802459716797,-1.8092970848083496,1.8092970848083496,0,12.74078369140625,,,,,none,0,0,,,-0.0003890990515174053,0.003662109375,0,0,0,,0.0,0,0,0
20260628T180349Z_mpc_6806391f,mpc,RouteScenario_1_rep0,0,0,Town12,420397,1.8000000268220901,mpc,mpc,19.03866999782622,mpc_ok,0,0.0,basic_agent_longitudinal,0,0.0,follow_lane,clear,4.4389029481742295,15.980050613427226,5.555555555555555,20.0,1.1166526073813259,-9.999999747378752e-05,0.75,0.0,1202.5867919921875,-82.53583526611328,342.9971008300781,-0.028381342068314552,0.972284197807312,1.4918251508788671e-05,4.438838481903076,-0.0023844607640057802,0.041425082832574844,4.009122848510742,-0.0022078165784478188,0.04200056195259094,4.009258827901145,-0.00022189919210359975,-0.008453854359686375,94,1,1,,,,,0,22.73164939880371,17.73164939880371,4.329741925141707,5.2778689625434705,17.45378043626024,5.220146430378993,-4.354599952697754,3,0.020635301247239113,0.035525791347026825,22.71730613708496,0.8073899745941162,0.8073899745941162,0,13.567644119262695,,,,,none,0,0,,,-0.0003585814788493735,0.0032348688691854477,0,0,0,,0.0,0,0,0
20260628T180349Z_mpc_6806391f,mpc,RouteScenario_1_rep0,0,0,Town12,420398,1.8500000275671482,mpc,mpc,18.95753701683134,mpc_ok,0,0.0,basic_agent_longitudinal,0,0.0,follow_lane,clear,4.637263053976388,16.694146994314995,5.555555555555555,20.0,0.9182925015791676,0.0,0.75,0.0,1202.814697265625,-82.53597259521484,342.9991760253906,-0.028839105740189552,0.9724071621894836,0.00045800567022524774,4.637222766876221,-0.0025298944674432278,0.04168521612882614,3.9676856994628906,-0.002908674068748951,0.00520266592502594,3.9672036183280603,-0.0009110925156193312,-0.009050805121660233,94,1,1,,,,,0,15.867465019226074,10.867465019226074,4.46692359438801,5.49709814229272,10.370366876933353,3.495724061598893,-4.539106845855713,2,0.05863458663225174,-0.0781937688589096,15.818981170654297,-1.2394728660583496,1.2394728660583496,0,10.362998008728027,,,,,none,0,0,,,-0.0003738402651833894,0.0027771051973104477,0,0,0,,0.0,0,0,0
20260628T180349Z_mpc_6806391f,mpc,RouteScenario_1_rep0,0,0,Town12,420399,1.9000000283122063,mpc,mpc,9.285191015806049,mpc_ok,0,0.0,basic_agent_longitudinal,0,0.0,follow_lane,clear,4.834718105501207,17.404985179804346,5.555555555555555,20.0,0.720837450054348,0.0,0.75,0.0,1203.052490234375,-82.53611755371094,343.0013122558594,-0.02899169735610485,0.9720041751861572,-6.103514533606358e-05,4.834702491760254,-0.00247951433993876,0.041893500834703445,3.949594497680664,0.0010076025500893593,0.0041656941175460815,3.9490958935067124,0.003006032758075578,-0.0009074160479940474,94,1,1,,,,,0,13.275152206420898,8.275152206420898,4.586988700630092,5.689695087349456,7.585457119071442,2.826796639687558,-4.6961822509765625,2,0.1448175609111786,0.13556978106498718,13.153345108032227,1.7942017316818237,1.7942017316818237,0,9.154370307922363,,,,,none,0,0,,,-0.0003890990515174053,0.0026245135813951492,0,0,0,,0.0,0,0,0
20260628T180349Z_mpc_6806391f,mpc,RouteScenario_1_rep0,0,0,Town12,420400,1.9500000290572643,mpc,mpc,8.883506990969181,mpc_ok,0,0.0,basic_agent_longitudinal,0,0.0,follow_lane,clear,5.031827575284844,18.114579271025438,5.555555555555555,20.0,0.5237279802707118,0.0,0.75,0.0,1203.3001708984375,-82.53627014160156,343.00347900390625,-0.02899169735610485,0.9716626405715942,-6.103515261202119e-05,5.031820297241211,-0.002567500341683626,0.043058183044195175,3.9423561096191406,-0.0017597200348973274,0.023293644189834595,3.9421847628654625,0.00023506837833231833,0.0004982831887900829,94,1,1,,,,,0,14.362074851989746,9.362074851989746,4.772044453471057,5.9877471140824525,8.374327737907294,2.912651367297991,-4.9309282302856445,2,0.05138586461544037,0.016207486391067505,14.360189437866211,0.23276294767856598,0.23276294767856598,0,9.617829322814941,,,,,none,0,0,,,-0.0004043578378514212,0.0026245135813951492,0,0,0,,0.0,0,0,0
20260628T180349Z_mpc_6806391f,mpc,RouteScenario_1_rep0,0,0,Town12,420401,2.0000000298023224,mpc,mpc,8.982543018646538,mpc_ok,0,0.0,basic_agent_longitudinal,0,0.0,follow_lane,clear,5.229034239885517,18.824523263587864,5.555555555555555,20.0,0.32652131567003817,0.0,0.75,0.0,1203.5576171875,-82.53641510009766,343.0058898925781,-0.028503412380814552,0.9712596535682678,-3.0517539926222526e-05,5.228967189788818,-0.002650804352015257,0.04823688417673111,3.9429378509521484,-0.0016660802066326141,0.10357402265071869,3.944127487079647,0.00029546602844149946,0.05341687053442001,94,1,1,,,,,0,16.847265243530273,11.847265243530273,4.912051989259327,6.214132892763984,10.633132350766289,3.3013793530053426,-5.1030988693237305,3,0.11717604845762253,0.11777623742818832,16.730554580688477,1.9796234369277954,1.9796234369277954,0,11.451947212219238,,,,,none,0,0,,,-0.0004043578378514212,0.0031127985566854477,0,0,0,,0.0,0,0,0
20260628T180349Z_mpc_6806391f,mpc,RouteScenario_1_rep0,0,0,Town12,420402,2.0500000305473804,mpc,mpc,36.21167899109423,mpc_ok,0,0.0,basic_agent_longitudinal,0,0.0,follow_lane,clear,5.303513732757448,19.092649437926813,5.555555555555555,20.0,0.25204182279810716,0.00019999999494757503,0.75,0.0,1203.8228759765625,-82.53651428222656,343.00830078125,-0.043182373046875,0.9575924873352051,0.0009938308503478765,5.30345344543457,-0.0029976849909871817,0.04788201302289963,1.489725112915039,-0.006937612779438496,-0.007097423076629639,1.4894032365995584,-0.00581428789823984,-3.5990633964538574,94,1,1,,,,,0,14.219621658325195,9.219621658325195,5.016092880936729,6.382819806395638,7.8368018519295575,2.7197699322618254,-5.228244304656982,2,0.16315525770187378,0.16623641550540924,14.023597717285156,2.3529467582702637,2.3529467582702637,0,9.883460998535156,,,,,none,0,0,,,-0.0003585814788493735,-0.011566162109375,0,0,0,,0.0,0,0,0
20260628T180349Z_mpc_6806391f,mpc,RouteScenario_1_rep0,0,0,Town12,420403,2.1000000312924385,mpc,mpc,38.677184958942235,mpc_ok,0,0.0,basic_agent_longitudinal,0,0.0,follow_lane,clear,5.248723156447115,18.895403363209613,5.555555555555555,20.0,0.3068323991084405,-9.999999747378752e-05,0.75,0.0,1204.085693359375,-82.53666687011719,343.0108947753906,-0.01953125,0.8956289887428284,-0.000823974609375,5.248626708984375,-0.001696352963335812,0.047176018357276917,-1.0965347290039062,0.026026640087366104,-0.014119893312454224,-1.0966302581607237,0.02565289018747776,3.33292555809021,94,1,1,,,,,0,13.96932315826416,8.96932315826416,5.038189767677062,6.4186945201383825,7.550628638125778,2.6585290687913754,-5.254530906677246,2,0.06381139159202576,0.0252191424369812,13.96488094329834,0.35225701332092285,0.35225701332092285,0,9.625076293945312,,,,,none,0,0,,,-0.00036621087201638147,0.0120849609375,0,0,0,,0.0,0,0,0
20260628T180349Z_mpc_6806391f,mpc,RouteScenario_1_rep0,0,0,Town12,420404,2.1500000320374966,mpc,mpc,38.05966500658542,mpc_ok,0,0.0,basic_agent_longitudinal,0,0.0,follow_lane,clear,5.221251552993636,18.79650559077709,5.555555555555555,20.0,0.33430400256191906,0.0003000000142492354,0.75,0.0,1204.3465576171875,-82.53666687011719,343.0134582519531,-0.058868397027254105,0.8232563138008118,0.0004327933129388839,5.221130847930908,-0.003136425744742155,0.04587910696864128,-0.5499172210693359,-0.028801456093788147,-0.025938227772712708,-0.5502032477736046,-0.029366315229791926,-3.5210723876953125,94,1,1,,,,,0,14.88009262084961,9.88009262084961,5.010817975111099,6.374258334541486,8.505834286308122,2.8495256058861687,-5.221954345703125,2,0.061916060745716095,-0.08550108969211578,14.825736045837402,-1.270714521408081,1.270714521408081,0,11.123501777648926,,,,,none,0,0,,,-0.00022125240184323047,-0.027252186089754105,0,0,0,,0.0,0,0,0
20260628T180349Z_mpc_6806391f,mpc,RouteScenario_1_rep0,0,0,Town12,420405,2.2000000327825546,mpc,mpc,34.25331402104348,mpc_ok,0,0.0,basic_agent_longitudinal,0,0.0,follow_lane,clear,5.2272743022328925,18.818187488038415,5.555555555555555,20.0,0.3282812533226629,0.0,0.75,0.0,1204.6070556640625,-82.53691864013672,343.01605224609375,-0.02584838680922985,0.762884259223938,0.00026659926516003907,5.227138042449951,-0.0025161965750157833,0.04498844966292381,0.12014389038085938,0.012404583394527435,-0.017813146114349365,0.11989045952221573,0.01245887388497766,3.3997251987457275,94,1,1,,,,,0,14.11722183227539,9.11722183227539,5.003475321624435,6.3623423643071675,7.754879467968223,2.707981907736775,-5.213189125061035,3,0.06132588908076286,-0.05226902663707733,14.097941398620605,-0.7375574707984924,0.7375574707984924,0,10.481202125549316,,,,,none,0,0,,,-0.00032806390618134174,0.005767824128270149,0,0,0,,0.0,0,0,0
20260628T180349Z_mpc_6806391f,mpc,RouteScenario_1_rep0,0,0,Town12,420406,2.2500000335276127,mpc,mpc,37.75034501450136,mpc_ok,0,0.0,basic_agent_longitudinal,0,0.0,follow_lane,clear,5.227276394779197,18.81819502120511,5.555555555555555,20.0,0.32827916077635866,0.0003000000142492354,0.75,0.0,1204.8680419921875,-82.5369644165039,343.0184631347656,-0.0608520470559597,0.7154554724693298,0.001510224654339254,5.2271246910095215,-0.003619448747485876,0.04471356421709061,-0.00026702880859375,-0.022065043449401855,-0.0054977089166641235,-0.0003122234938026519,-0.022065170404063784,-3.4380249977111816,94,1,1,,,,,0,15.70052719116211,10.70052719116211,4.999889697863499,6.356524129047249,9.344003062114862,3.0141705339639406,-5.20890474319458,1,0.08214187622070312,0.08214187622070312,15.647588729858398,1.2882208824157715,1.2882208824157715,0,11.767573356628418,,,,,none,0,0,,,-0.00022888179501023842,-0.0292358361184597,0,0,0,,0.0,0,0,0
20260628T180349Z_mpc_6806391f,mpc,RouteScenario_1_rep0,0,0,Town12,420407,2.3000000342726707,mpc,mpc,33.86188001604751,mpc_ok,0,0.0,basic_agent_longitudinal,0,0.0,follow_lane,clear,5.222303904478722,18.800294056123402,5.555555555555555,20.0,0.3332516510768331,0.0,0.75,0.0,1205.12890625,-82.53722381591797,343.0207824707031,-0.02621459774672985,0.6726916432380676,0.0004900043713860214,5.222143650054932,-0.0029363520443439484,0.04423806071281433,-0.09962081909179688,0.013661934062838554,-0.009510070085525513,-0.09973184552894282,0.013616424143219652,3.476855516433716,94,1,1,,,,,0,16.455726623535156,11.455726623535156,5.009171832395637,6.371586744700496,10.08413987883466,3.152443936588578,-5.219990253448486,1,0.028348775580525398,-0.028348775580525398,16.449113845825195,-0.4664372205734253,0.4664372205734253,0,12.31273078918457,,,,,none,0,0,,,-0.0003509520856823656,0.005401613190770149,0,0,0,,0.0,0,0,0
20260628T180349Z_mpc_6806391f,mpc,RouteScenario_1_rep0,0,0,Town12,420408,2.350000035017729,mpc,mpc,35.52989999298006,mpc_ok,0,0.0,basic_agent_longitudinal,0,0.0,follow_lane,clear,5.5561252794501765,20.002051006020636,5.555555555555555,20.0,-0.0005697238946211769,0.0005000000237487257,0.028893597424030304,0.0,1205.395263671875,-82.53719329833984,343.02294921875,-0.0820617601275444,0.6678148508071899,0.0015010252827778459,5.555974006652832,-0.003379116766154766,0.045431945472955704,6.676607131958008,-0.008855294436216354,0.023877695202827454,6.676437679865984,0.0007086813920593807,-1.8118788003921509,94,1,1,,,,,0,17.384601593017578,12.384601593017578,5.030663010775425,6.406472842800577,10.978128750217001,3.31413763149503,-5.245588302612305,1,0.174096018075943,-0.174096018075943,17.121809005737305,-3.011324167251587,3.011324167251587,0,15.470563888549805,,,,,none,0,0,,,-0.00016784664967417484,-0.0504455491900444,0,0,0,,0.0,0,0,0
20260628T180349Z_mpc_6806391f,mpc,RouteScenario_1_rep0,0,0,Town12,420409,2.400000035762787,mpc,mpc,42.03480400610715,mpc_ok,0,0.0,basic_agent_longitudinal,0,0.0,follow_lane,clear,6.032258399344337,21.716130237639614,5.555555555555555,20.0,-0.47670284378878147,0.0006000000284984708,0.0,0.30000001192092896,1205.6881103515625,-82.5374984741211,343.0249938964844,-0.0883178636431694,0.764844536781311,0.003393737133592367,6.0321502685546875,-0.007350471336394548,0.04805093631148338,9.52352523803711,-0.0794270932674408,0.05237981677055359,9.523486875063918,-0.06474265762323504,1.3412686586380005,94,1,1,,,,,0,24.095863342285156,19.095863342285156,5.525521549071446,7.213740719603003,16.882122622682154,4.146799904283196,-5.810712814331055,1,0.03527451306581497,0.03527451306581497,24.080873489379883,0.849793553352356,0.849793553352356,0,17.472482681274414,,,,,none,0,0,,,-0.00031280511984732584,-0.0567016527056694,0,0,0,,0.0,0,0,0
20260628T180349Z_mpc_6806391f,mpc,RouteScenario_1_rep0,0,0,Town12,420410,2.450000036507845,mpc,mpc,38.88599597848952,mpc_ok,0,0.0,basic_agent_longitudinal,0,0.0,follow_lane,clear,6.158045204193542,22.168962735096752,5.555555555555555,20.0,-0.6024896486379863,0.0008999999845400453,0.0,0.30000001192092896,1205.9952392578125,-82.53778839111328,343.0271301269531,-0.110748291015625,0.8293078541755676,0.0038838256150484085,6.157985687255859,-0.007111826911568642,0.04852373152971268,2.5167083740234375,0.004772888496518135,0.009455904364585876,2.516567797367962,0.009639306806498254,-3.150003671646118,94,1,1,,,,,0,14.269609451293945,9.269609451293945,5.788949002126579,7.646226620854254,6.623382830439692,2.3413086869630146,-6.094715118408203,2,0.039937637746334076,0.07563012093305588,14.228818893432617,1.0781837701797485,1.0781837701797485,0,10.107895851135254,,,,,none,0,0,,,-0.000434875410519453,-0.079132080078125,0,0,0,,0.0,0,0,0
20260628T180349Z_mpc_6806391f,mpc,RouteScenario_1_rep0,0,0,Town12,420411,2.500000037252903,mpc,mpc,40.15441599767655,mpc_ok,0,0.0,basic_agent_longitudinal,0,0.0,follow_lane,clear,6.139008829278287,22.100431785401835,5.555555555555555,20.0,-0.583453273722732,0.0008999999845400453,0.0,0.30000001192092896,1206.302734375,-82.53829956054688,343.0295715332031,-0.0730590671300888,0.8132227659225464,0.0031630226876586676,6.1389312744140625,-0.007120213937014341,0.04874322935938835,-0.3810882568359375,-0.00016774050891399384,0.004389956593513489,-0.38098703085703073,-0.0006542148613085944,3.4650285243988037,94,1,1,,,,,0,13.220324516296387,8.220324516296387,5.762457852723608,7.602656893951259,5.617667622345127,2.179188096308927,-6.066628456115723,1,0.15739689767360687,0.15739689767360687,13.056903839111328,2.0722570419311523,2.0722570419311523,0,9.585699081420898,,,,,none,0,0,,,-0.0007781981030348106,-0.041442856192588806,0,0,0,,0.0,0,0,0
20260628T180349Z_mpc_6806391f,mpc,RouteScenario_1_rep0,0,0,Town12,420412,2.550000037997961,mpc,mpc,30.550608003977686,mpc_ok,0,0.0,basic_agent_longitudinal,0,0.0,follow_lane,clear,6.070763864652282,21.854749912748215,5.555555555555555,20.0,-0.5152083090967263,0.0008999999845400453,0.0,0.30000001192092896,1206.607177734375,-82.53852081298828,343.03216552734375,-0.1015319675207138,0.7522701621055603,0.002181523246690631,6.070648670196533,-0.0069000739604234695,0.04842173308134079,-1.365652084350586,0.004402799531817436,-0.006429925560951233,-1.365624485964792,0.0019823288939648173,-3.263430118560791,94,1,1,,,,,0,16.778745651245117,11.778745651245117,5.762760887565414,7.603155197559342,9.175590453685775,2.7655979961829136,-6.06695032119751,1,0.10678774118423462,-0.10678774118423462,16.68316650390625,-1.7883609533309937,1.7883609533309937,0,13.263463020324707,,,,,none,0,0,,,-0.0008316038552038663,-0.0699157565832138,0,0,0,,0.0,0,0,0
20260628T180349Z_mpc_6806391f,mpc,RouteScenario_1_rep0,0,0,Town12,420413,2.600000038743019,mpc,mpc,39.12491403752938,mpc_ok,0,0.0,basic_agent_longitudinal,0,0.0,follow_lane,clear,5.969838210579343,21.491417558085633,5.555555555555555,20.0,-0.41428265502378725,0.0008999999845400453,0.0,0.30000001192092896,1206.906982421875,-82.53897094726562,343.03485107421875,-0.061767563223838806,0.6710318922996521,0.0015914556570351124,5.969677448272705,-0.005658326204866171,0.048460282385349274,-2.0194244384765625,0.024834955111145973,0.0007709860801696777,-2.019302434352476,0.02265722740623459,3.523117780685425,94,1,1,,,,,0,13.30040454864502,8.30040454864502,5.643842536857664,7.4077804078675396,5.89262414077748,2.2392790176929966,-5.939592361450195,2,0.16069167852401733,0.1573311984539032,13.136130332946777,2.0839462280273438,2.0839462280273438,0,10.14582347869873,,,,,none,0,0,,,-0.0011138914023831603,-0.030151352286338806,0,0,0,,0.0,0,0,0
20260628T180349Z_mpc_6806391f,mpc,RouteScenario_1_rep0,0,0,Town12,420414,2.650000039488077,mpc,mpc,38.660020974930376,mpc_ok,0,0.0,basic_agent_longitudinal,0,0.0,follow_lane,clear,5.846699902335519,21.04811964840787,5.555555555555555,20.0,-0.2911443467799639,0.0008999999845400453,0.0,0.30000001192092896,1207.2010498046875,-82.5391616821289,343.0375061035156,-0.0895690843462944,0.5841109156608582,0.00177078100387007,5.8465189933776855,-0.005644457880407572,0.047382887452840805,-2.4631690979003906,0.0002773664891719818,-0.021547898650169373,-2.4632580941558913,-0.0035733542663630444,-3.278564929962158,94,1,1,,,,,0,14.361990928649902,9.361990928649902,5.581393875366468,7.305323044614392,7.056667884035511,2.4459070070175337,-5.871846675872803,1,0.0975935235619545,0.0975935235619545,14.293649673461914,1.3994134664535522,1.3994134664535522,0,11.255507469177246,,,,,none,0,0,,,-0.001144408975051192,-0.0579528734087944,0,0,0,,0.0,0,0,0
20260628T180349Z_mpc_6806391f,mpc,RouteScenario_1_rep0,0,0,Town12,420415,2.7000000402331352,mpc,mpc,35.81462299916893,mpc_ok,0,0.0,basic_agent_longitudinal,0,0.0,follow_lane,clear,5.707708568533009,20.547750846718834,5.555555555555555,20.0,-0.15215301297745398,0.0008999999845400453,0.0,0.30000001192092896,1207.4884033203125,-82.5395278930664,343.0401611328125,-0.049896229058504105,0.49871307611465454,0.000434096553362906,5.707526683807373,-0.004334020894020796,0.045551374554634094,-2.77984619140625,0.02620873972773552,-0.036630257964134216,-2.780081472944668,0.02378798611347855,3.5022032260894775,94,1,1,,,,,0,13.526280403137207,8.526280403137207,5.457969679067066,7.103124807873513,6.423155595263694,2.358087740983203,-5.7361226081848145,4,0.09047120809555054,-0.05286606028676033,13.507383346557617,-0.7147481441497803,0.7147481441497803,0,10.424782752990723,,,,,none,0,0,,,-0.0013504025905604067,-0.018280018121004105,0,0,0,,0.0,0,0,0
20260628T180349Z_mpc_6806391f,mpc,RouteScenario_1_rep0,0,0,Town12,420416,2.7500000409781933,mpc,mpc,38.63768000155687,mpc_ok,0,0.0,basic_agent_longitudinal,0,0.0,follow_lane,clear,5.5760047569534485,20.073617125032417,5.555555555555555,20.0,-0.02044920139789319,0.0008999999845400453,0.0,0.09813862293958664,1207.768798828125,-82.5396499633789,343.0425720214844,-0.0762023851275444,0.42128604650497437,-0.0007934569730423391,5.57582426071167,-0.004450732842087746,0.044912852346897125,-2.6340484619140625,-0.002334238961338997,-0.01277044415473938,-2.634065621829037,-0.005837382942735558,-3.2617857456207275,94,1,1,,,,,0,12.794392585754395,7.7943925857543945,5.354389007598127,6.933755533099111,5.860637052655283,2.2764767033856668,-5.620260715484619,3,0.028552018105983734,-0.011665538884699345,12.793521881103516,-0.1492501050233841,0.1492501050233841,0,10.395764350891113,,,,,none,0,0,,,-0.0013198850178923749,-0.0445861741900444,0,0,0,,0.0,0,0,0
20260628T180349Z_mpc_6806391f,mpc,RouteScenario_1_rep0,0,0,Town12,420417,2.8000000417232513,mpc,mpc,37.97873295843601,mpc_ok,0,0.0,basic_agent_longitudinal,0,0.0,follow_lane,clear,5.5232575643831305,19.88372723177927,5.555555555555555,20.0,0.03229799117242482,0.00019999999494757503,0.08903719484806061,0.0,1208.04541015625,-82.53997039794922,343.044921875,-0.032501220703125,0.3728395104408264,-0.001190185546875,5.523097991943359,-0.0029394146986305714,0.04237287491559982,-1.054525375366211,0.030226362869143486,-0.050799548625946045,-1.0548505834501456,0.029627261803602235,3.575305938720703,94,1,1,,,,,0,20.366924285888672,15.366924285888672,5.273683258840714,6.802002519819365,13.564921766069308,3.6838624664905715,-5.528687477111816,3,0.08410487323999405,0.08021979033946991,20.30142593383789,1.6320786476135254,1.6320786476135254,0,12.214516639709473,,,,,none,0,0,,,-0.0014877316675665497,-0.000885009765625,0,0,0,,0.0,0,0,0
20260628T180349Z_mpc_6806391f,mpc,RouteScenario_1_rep0,0,0,Town12,420418,2.8500000424683094,mpc,mpc,28.583446983247995,mpc_ok,0,0.0,basic_agent_longitudinal,0,0.0,follow_lane,clear,5.424610676627097,19.52859843585755,5.555555555555555,20.0,0.1309448789284584,0.00019999999494757503,0.445346862077713,0.0,1208.320068359375,-82.54008483886719,343.0470275878906,-0.044403076171875,0.3492412269115448,-0.001708984375,5.42446756362915,-0.002631905721500516,0.03994380682706833,-1.9726085662841797,0.0061501795426011086,-0.04858136177062988,-1.9728721821242958,0.0046203554265831105,-1.6531003713607788,94,1,1,,,,,0,15.682355880737305,10.682355880737305,5.235058978504316,6.73901614006067,8.943339740676635,2.859424106802846,-5.484445571899414,1,0.04481443762779236,-0.04481443762779236,15.666610717773438,-0.7025607824325562,0.7025607824325562,0,12.119298934936523,,,,,none,0,0,,,-0.00144958470173151,-0.012786865234375,0,0,0,,0.0,0,0,0
20260628T180349Z_mpc_6806391f,mpc,RouteScenario_1_rep0,0,0,Town12,420419,2.9000000432133675,mpc,mpc,36.91971697844565,mpc_ok,0,0.0,basic_agent_longitudinal,0,0.0,follow_lane,clear,5.089081007578099,18.320691627281157,5.555555555555555,20.0,0.46647454797745613,-0.0003000000142492354,0.75,0.0,1208.5792236328125,-82.54035949707031,343.0492248535156,0.008868219330906868,0.27463504672050476,-0.00225830078125,5.088963508605957,-0.0007555262418463826,0.03674690052866936,-6.710081100463867,0.03752759099006653,-0.06393812596797943,-6.710304573841679,0.03856492248287642,4.246088981628418,94,1,1,,,,,0,18.06818389892578,13.068183898925781,4.995127901885098,6.348798049314792,11.71938584961099,3.472506590038567,-5.203210830688477,2,0.02590319514274597,-0.027720600366592407,18.061241149902344,-0.5007967352867126,0.5007967352867126,0,10.013630867004395,,,,,none,0,0,,,-0.001579284385570645,0.04048443026840687,0,0,0,,0.0,0,0,0
20260628T180349Z_mpc_6806391f,mpc,RouteScenario_1_rep0,0,0,Town12,420420,2.9500000439584255,mpc,mpc,32.48871403047815,mpc_ok,0,0.0,basic_agent_longitudinal,0,0.0,follow_lane,clear,4.856834536849238,17.48460433265726,5.555555555555555,20.0,0.6987210187063173,-0.0005000000237487257,0.75,0.0,1208.8267822265625,-82.54045867919922,343.0511169433594,0.004859702195972204,0.2096799612045288,-0.0010986326960846782,4.856754302978516,-0.0015951258828863502,0.030852889642119408,-4.644184112548828,-0.016791991889476776,-0.11788021773099899,-4.644585927687049,-0.01640001682942291,0.5853859782218933,94,1,1,,,,,0,12.611323356628418,7.611323356628418,4.795402309190542,6.025464589832968,6.58585876679545,2.54262382882038,-4.959964275360107,1,0.020214201882481575,0.020214201882481575,12.608746528625488,0.2549104690551758,0.2549104690551758,0,9.9956636428833,,,,,none,0,0,,,-0.0015411374197356054,0.036475913133472204,0,0,0,,0.0,0,0,0
20260628T180349Z_mpc_6806391f,mpc,RouteScenario_1_rep0,0,0,Town12,420421,3.0000000447034836,mpc,mpc,38.429209031164646,mpc_ok,0,0.0,basic_agent_longitudinal,0,0.0,follow_lane,clear,4.69224173809607,16.89207025714585,5.555555555555555,20.0,0.8633138174594857,-0.0019000000320374966,0.75,0.0,1209.0633544921875,-82.54056549072266,343.0528869628906,0.015447674319148064,0.161049023270607,-0.0013122557429596782,4.692172050476074,-0.0009882443118840456,0.03154245391488075,-3.291645050048828,0.012137630954384804,0.013791285455226898,-3.291589867395126,0.013025627519466657,0.07012020796537399,94,1,1,,,,,0,17.68733787536621,12.687337875366211,4.624201864838668,5.749517327438824,11.937820547927387,3.7282955374678615,-4.744081497192383,1,0.0019380153389647603,0.0019380153389647603,17.68730354309082,0.03427831083536148,0.03427831083536148,0,10.203569412231445,,,,,none,0,0,,,-0.0015182492402345815,0.047063885256648064,0,0,0,,0.0,0,0,0
20260628T180349Z_mpc_6806391f,mpc,RouteScenario_1_rep0,0,0,Town12,420422,3.0500000454485416,mpc,mpc,45.51795800216496,mpc_ok,0,0.0,basic_agent_longitudinal,0,0.0,follow_lane,clear,4.681552322852031,16.853588362267313,5.555555555555555,20.0,0.8740032327035241,-0.000699999975040555,0.75,0.0,1209.297119140625,-82.54069519042969,343.0544738769531,0.011271622031927109,0.1546013206243515,4.082767554791644e-05,4.681479454040527,-0.003369291080161929,0.033600710332393646,-0.2138519287109375,-0.04762093722820282,0.041165128350257874,-0.21374944364116266,-0.04757889654094635,-0.13643604516983032,94,1,1,,,,,0,12.90137767791748,7.9013776779174805,4.561500036862526,5.648755026129219,7.252622651788261,2.766657422711743,-4.663164138793945,1,0.0015026479959487915,0.0015026479959487915,12.901363372802734,0.01938622258603573,0.01938622258603573,0,10.168184280395508,,,,,none,0,0,,,-0.0015182492402345815,0.04288783296942711,0,0,0,,0.0,0,0,0
20260628T180349Z_mpc_6806391f,mpc,RouteScenario_1_rep0,0,0,Town12,420423,3.1000000461935997,mpc,mpc,38.35314599564299,mpc_ok,0,0.0,basic_agent_longitudinal,0,0.0,follow_lane,clear,4.7604579831489655,17.137648739336278,5.555555555555555,20.0,0.7950975724065898,-0.000699999975040555,0.75,0.0,1209.53369140625,-82.54077911376953,343.05609130859375,0.005999015644192696,0.19001585245132446,-9.155274165095761e-05,4.760371685028076,-0.001872896566055715,0.03398231416940689,1.5778446197509766,0.029927890747785568,0.007632076740264893,1.5778644119389738,0.029762690194503776,-0.09053787589073181,94,1,1,,,,,0,12.034873008728027,7.034873008728027,4.588673386246208,5.6924020327767515,6.342470975951276,2.561505878513031,-4.698358535766602,3,0.03966008499264717,0.019528456032276154,12.032578468322754,0.23500755429267883,0.23500755429267883,0,10.394912719726562,,,,,none,0,0,,,-0.0014724728812325338,0.037615226581692696,0,0,0,,0.0,0,0,0
20260628T180349Z_mpc_6806391f,mpc,RouteScenario_1_rep0,0,0,Town12,420424,3.1500000469386578,mpc,mpc,38.165153993759304,mpc_ok,0,0.0,basic_agent_longitudinal,0,0.0,follow_lane,clear,4.889744570235249,17.603080452846896,5.555555555555555,20.0,0.6658109853203067,-0.000699999975040555,0.75,0.0,1209.7760009765625,-82.54085540771484,343.0576171875,0.0019424856873229146,0.25270333886146545,-0.0006103514460846782,4.889636039733887,-0.0019868367817252874,0.03540616109967232,2.585287094116211,-0.002278804313391447,0.028476938605308533,2.5853874966322232,-0.002366270828957994,-0.07880077511072159,94,1,1,,,,,0,12.302430152893066,7.302430152893066,4.6723105185803435,5.8269410468550635,6.475489106038003,2.5600850422353414,-4.805477142333984,2,0.030947480350732803,0.018298126757144928,12.300370216369629,0.2250988632440567,0.2250988632440567,0,10.631834030151367,,,,,none,0,0,,,-0.0014190671290634782,0.033558696624822915,0,0,0,,0.0,0,0,0
