run_id,run_label,route_id,route_index,repetition_index,town,frame,timestamp,controller,controller_mode,controller_compute_time_ms,controller_status,controller_fallback,maneuver_state,waiting_left_reason,speed_mps,speed_kph,target_speed_mps,target_speed_kph,speed_error_mps,steer,throttle,brake,x,y,z,yaw_deg,pitch_deg,roll_deg,velocity_x,velocity_y,velocity_z,accel_x,accel_y,accel_z,longitudinal_accel_mps2,lateral_accel_mps2,yaw_rate_dps,road_id,lane_id,target_lane_id,target_lane_lateral_error_m,target_lane_heading_error_deg,target_lane_progress,overtake_origin_lane_id,is_junction,front_distance_m,front_distance_margin_m,front_dynamic_stop_distance_m,front_dynamic_emergency_distance_m,front_dynamic_margin_m,front_ttc_s,front_closing_speed_mps,front_radar_point_count,front_radar_mean_abs_azimuth_rad,front_radar_anchor_azimuth_rad,front_relative_longitudinal_m,front_relative_lateral_m,front_relative_lateral_abs_m,front_blocked,rear_distance_m,rear_approach_distance_m,rear_approach_speed_mps,rear_closing_speed_mps,rear_approach_ttc_s,rear_approach_mode,rear_lane_releasing,left_oncoming_detected,left_oncoming_confidence,left_oncoming_label,lateral_error_m,heading_error_deg,blocked_vehicle,rejoin_lane_clear,safety_override,safety_override_reason,requested_brake,emergency_brake,steer_saturated,front_collision_risk
20260628T141855Z_mpc_da8c7f28,mpc,RouteScenario_1_rep0,0,0,Town12,11937605,0.05000000074505806,mpc,mpc,9.681919997092336,mpc_ok,0,follow_lane,clear,0.0002403607687238863,0.0008652987674059907,5.555555555555555,20.0,5.555315194786831,0.0,0.75,0.0,1199.9569091796875,-82.53407287597656,342.9453125,-0.0316467247903347,0.6043487787246704,-0.01141357421875,-0.0012569221435114741,0.0003848605847451836,0.1419672667980194,0.006495767738670111,-0.001741292653605342,-0.6099972128868103,6.231119299404321e-05,-0.0018592255204329415,-0.00019101999350823462,94,1,1,,,,,0,12.900618553161621,7.900618553161621,2.3,2.3,10.60061855316162,,0.008724714629352093,1,0.06793595105409622,0.06793595105409622,12.87086009979248,0.8757418394088745,0.8757418394088745,0,16.217891693115234,,,,,none,0,0,,,-4.5776359002047684e-05,-3.0513852834701538e-05,0,0,0,,0.0,0,0,0
20260628T141855Z_mpc_da8c7f28,mpc,RouteScenario_1_rep0,0,0,Town12,11937606,0.10000000149011612,mpc,mpc,7.832779956515878,mpc_ok,0,follow_lane,clear,0.0002006088474361022,0.000722191850769968,5.555555555555555,20.0,5.555354946708119,0.0,0.75,0.0,1199.9569091796875,-82.53408813476562,342.9515686035156,-0.0316162109375,0.6022518873214722,-0.00994872860610485,-0.0010052596917375922,0.00026402552612125874,0.11473207175731659,0.005033249035477638,-0.002416701056063175,-0.5447039008140564,-0.0006911251973505659,-0.0025085085361169954,-0.00010836437286343426,94,1,1,,,,,0,12.76563549041748,7.7656354904174805,2.3,2.3,10.46563549041748,,0.006783084012567997,3,0.06925589591264725,0.06977260857820511,12.734575271606445,0.8899692296981812,0.8899692296981812,0,10.720157623291016,,,,,none,0,0,,,-6.103514533606358e-05,0.0,0,0,0,,0.0,0,0,0
20260628T141855Z_mpc_da8c7f28,mpc,RouteScenario_1_rep0,0,0,Town12,11937607,0.15000000223517418,mpc,mpc,21.53142902534455,mpc_ok,0,follow_lane,clear,0.00012413043561478344,0.0004468695682132204,5.555555555555555,20.0,5.555431425119941,9.999999747378752e-05,0.75,0.0,1199.9569091796875,-82.53411102294922,342.95660400390625,-0.0316162072122097,0.6007082462310791,-0.007965086959302425,-0.0008328882977366447,0.00015805507428012788,0.09128642082214355,0.0034474278800189495,-0.0021194089204072952,-0.4689130187034607,-0.001467744842446084,-0.002182694546646946,-0.00016403761401306838,94,1,1,,,,,0,12.262259483337402,7.262259483337402,2.3,2.3,9.962259483337402,,0.0061362809501588345,5,0.03310639038681984,-0.018762605264782906,12.260101318359375,-0.2300584316253662,0.2300584316253662,0,9.739411354064941,,,,,none,0,0,,,-8.392332483708742e-05,3.725290298461914e-09,0,0,0,,0.0,0,0,0
20260628T141855Z_mpc_da8c7f28,mpc,RouteScenario_1_rep0,0,0,Town12,11937608,0.20000000298023224,mpc,mpc,19.517601002007723,mpc_ok,0,follow_lane,clear,7.947583162184068e-05,0.00028611299383862645,5.555555555555555,20.0,5.555476079723934,9.999999747378752e-05,0.75,0.0,1199.9569091796875,-82.53411865234375,342.96051025390625,-0.0315856896340847,0.5995266437530518,-0.006469725631177425,-0.0006725897546857595,0.0001914913736982271,0.07188154757022858,0.003205970861017704,0.0006687259883619845,-0.38809746503829956,-0.0008554404183840629,0.0006266686516819936,-8.275554864667356e-05,94,1,1,,,,,0,14.765910148620605,9.765910148620605,2.3,2.3,12.465910148620605,,0.004539008252322674,1,0.09530974179506302,0.09530974179506302,14.698894500732422,1.4052053689956665,1.4052053689956665,0,18.070873260498047,,,,,none,0,0,,,-9.155271800409537e-05,3.052130341529846e-05,0,0,0,,0.0,0,0,0
20260628T141855Z_mpc_da8c7f28,mpc,RouteScenario_1_rep0,0,0,Town12,11937609,0.2500000037252903,mpc,mpc,21.611480973660946,mpc_ok,0,follow_lane,clear,7.019124139430841e-05,0.0002526884690195103,5.555555555555555,20.0,5.555485364314161,9.999999747378752e-05,0.75,0.0,1199.9569091796875,-82.53412628173828,342.963623046875,-0.0315856896340847,0.5984953045845032,-0.005767821334302425,-0.0005101078422740102,0.00010887762618949637,0.05555788427591324,0.0032496382482349873,-0.0016522749792784452,-0.32647326588630676,-0.00015981309193895972,-0.0016833501038303214,1.834202339523472e-05,94,1,1,,,,,0,13.347434043884277,8.347434043884277,2.3,2.3,11.047434043884277,,0.00409513246268034,1,0.044952187687158585,-0.044952187687158585,13.333950996398926,-0.599794328212738,0.599794328212738,0,10.593972206115723,,,,,none,0,0,,,-9.918211117110332e-05,3.052130341529846e-05,0,0,0,,0.0,0,0,0
20260628T141855Z_mpc_da8c7f28,mpc,RouteScenario_1_rep0,0,0,Town12,11937610,0.30000000447034836,mpc,mpc,21.674888965208083,mpc_ok,0,follow_lane,clear,3.3091265569963934e-05,0.00011912855605187016,5.555555555555555,20.0,5.555522464289985,9.999999747378752e-05,0.75,0.0,1199.9569091796875,-82.53414154052734,342.9660339355469,-0.0315856896340847,0.5976278781890869,-0.004974364768713713,-0.0004066994006279856,0.00015688795247115195,0.04217053949832916,0.0020681689493358135,0.0009602064965292811,-0.2677468955516815,-0.000725176575793261,0.0009381003162650459,1.5913356037344784e-05,94,1,1,,,,,0,12.477140426635742,7.477140426635742,2.3,2.3,10.177140426635741,,0.00332502624951303,4,0.052576616406440735,-0.015934903174638748,12.475556373596191,-0.19881361722946167,0.19881361722946167,0,9.907390594482422,,,,,none,0,0,,,-0.00011444089750511921,3.052130341529846e-05,0,0,0,,0.0,0,0,0
20260628T141855Z_mpc_da8c7f28,mpc,RouteScenario_1_rep0,0,0,Town12,11937611,0.3500000052154064,mpc,mpc,21.216467954218388,mpc_ok,0,follow_lane,clear,5.6652031405085556e-05,0.00020394731305830801,5.555555555555555,20.0,5.555498903524151,9.999999747378752e-05,0.75,0.0,1199.9569091796875,-82.53414154052734,342.96783447265625,-0.0315551720559597,0.5968902111053467,-0.004333495162427425,-0.0002809461147990078,-3.09475672111148e-06,0.03240516409277916,0.0025150657165795565,-0.0031996541656553745,-0.19530750811100006,0.0004820726880507047,-0.003213041463737422,0.00011755607556551695,94,1,1,,,,,0,14.133292198181152,9.133292198181152,2.3,2.3,11.833292198181152,,0.002124774968251586,3,0.07476367801427841,0.09204468131065369,14.073464393615723,1.299058198928833,1.299058198928833,0,11.85059928894043,,,,,none,0,0,,,-0.00011444089750511921,6.103888154029846e-05,0,0,0,,0.0,0,0,0
20260628T141855Z_mpc_da8c7f28,mpc,RouteScenario_1_rep0,0,0,Town12,11937612,0.4000000059604645,mpc,mpc,22.827631968539208,mpc_ok,0,follow_lane,clear,3.3352259020926976e-05,0.00012006813247533711,5.555555555555555,20.0,5.555522203296534,9.999999747378752e-05,0.75,0.0,1199.9569091796875,-82.53414916992188,342.96923828125,-0.0315551795065403,0.5962276458740234,-0.003936767112463713,-0.00022723048459738493,0.00016749052156228572,0.025049390271306038,0.0010743126040324569,0.003411705605685711,-0.14711546897888184,-0.00045850043805995304,0.003402188206378868,2.475240034982562e-05,94,1,1,,,,,0,14.223381996154785,9.223381996154785,2.3,2.3,11.923381996154784,,0.0015025967732071877,4,0.044995274394750595,-0.09687526524066925,14.156692504882812,-1.3757396936416626,1.3757396936416626,0,11.914008140563965,,,,,none,0,0,,,-0.00012207029067212716,6.103143095970154e-05,0,0,0,,0.0,0,0,0
20260628T141855Z_mpc_da8c7f28,mpc,RouteScenario_1_rep0,0,0,Town12,11937613,0.45000000670552254,mpc,mpc,21.76463697105646,mpc_ok,0,follow_lane,clear,5.0694058306731736e-05,0.00018249860990423425,5.555555555555555,20.0,5.555504861497249,9.999999747378752e-05,0.75,0.0,1199.9569091796875,-82.5341567993164,342.9703063964844,-0.0315551720559597,0.595565140247345,-0.0026245112530887127,-0.00015005521709099412,7.538674981333315e-05,0.019316453486680984,0.0015435053501278162,-0.0018420754931867123,-0.11465873569250107,0.0003526291228087395,-0.001846477642027126,-0.000152516076923348,94,1,1,,,,,0,12.737720489501953,7.737720489501953,2.300035111580187,2.3000351131210506,10.437685376380902,,-0.00017554848454892635,3,0.023114020004868507,-0.030449340119957924,12.731816291809082,-0.38779523968696594,0.38779523968696594,0,10.088338851928711,,,,,none,0,0,,,-0.0001296996838391351,6.103888154029846e-05,0,0,0,,0.0,0,0,0
20260628T141855Z_mpc_da8c7f28,mpc,RouteScenario_1_rep0,0,0,Town12,11937614,0.5000000074505806,mpc,mpc,21.23620599741116,mpc_ok,0,follow_lane,clear,-5.211263708587287e-06,-1.8760549350914236e-05,5.555555555555555,20.0,5.555560766819264,9.999999747378752e-05,0.75,0.0,1199.9569091796875,-82.5341567993164,342.97113037109375,-0.0315551795065403,0.5953260660171509,-0.0027465822640806437,-0.00015567190712317824,-0.00015851433272473514,0.014471784234046936,-0.00011233380064368248,-0.004678021650761366,-0.09689338505268097,-0.001116494357102453,-0.0046827271432112036,0.0002627996727824211,94,1,1,,,,,0,12.509129524230957,7.509129524230957,2.3,2.3,10.209129524230956,,0.0011783348163589835,1,0.00751701183617115,0.00751701183617115,12.50877571105957,0.09403038769960403,0.09403038769960403,0,10.0048828125,,,,,none,0,0,,,-0.0001296996838391351,6.103143095970154e-05,0,0,0,,0.0,0,0,0
20260628T141855Z_mpc_da8c7f28,mpc,RouteScenario_1_rep0,0,0,Town12,11937615,0.5500000081956387,mpc,mpc,23.29265495063737,mpc_ok,0,follow_lane,clear,2.2919157310073322e-05,8.250896631626396e-05,5.555555555555555,20.0,5.555532636398246,9.999999747378752e-05,0.75,0.0,1199.9569091796875,-82.5341567993164,342.9717102050781,-0.03155517578125,0.5952919125556946,-0.0025939939077943563,-9.040176519192755e-05,-8.012221769604366e-06,0.010906236246228218,0.0013054028386250138,0.0030100420117378235,-0.07131095975637436,0.0005627809055516915,0.00300753146027201,4.248253026162274e-05,94,1,1,,,,,0,13.094331741333008,8.094331741333008,2.3,2.3,10.794331741333007,,0.0007414225256070495,3,0.050900649279356,0.04412621632218361,13.081585884094238,0.5776157975196838,0.5776157975196838,0,10.714261054992676,,,,,none,0,0,,,-0.0001296996838391351,6.103515625e-05,0,0,0,,0.0,0,0,0
20260628T141855Z_mpc_da8c7f28,mpc,RouteScenario_1_rep0,0,0,Town12,11937616,0.6000000089406967,mpc,mpc,21.043493994511664,mpc_ok,0,follow_lane,clear,-1.2977878589823629e-05,-4.6720362923365066e-05,5.555555555555555,20.0,5.555568533434145,9.999999747378752e-05,0.75,0.0,1199.9569091796875,-82.5341567993164,342.9721374511719,-0.031524658203125,0.5951143503189087,-0.002166748046875,-9.436003892915323e-05,2.1002388166380115e-05,0.007835986092686653,-7.916547474451363e-05,0.0005802921950817108,-0.0614050030708313,-0.0007172645799816721,0.000577926544052145,4.820093818125315e-05,94,1,1,,,,,0,12.759406089782715,7.759406089782715,2.3,2.3,10.459406089782714,,0.0005286825471557677,2,0.040707334876060486,-0.03365582227706909,12.752180099487305,-0.4293472468852997,0.4293472468852997,0,10.09592056274414,,,,,none,0,0,,,-0.0001296996838391351,9.1552734375e-05,0,0,0,,0.0,0,0,0
20260628T141855Z_mpc_da8c7f28,mpc,RouteScenario_1_rep0,0,0,Town12,11937617,0.6500000096857548,mpc,mpc,22.35855197068304,mpc_ok,0,follow_lane,clear,0.09844923703197324,0.35441725331510365,5.555555555555555,20.0,5.457106318523582,9.999999747378752e-05,0.75,0.0,1199.9578857421875,-82.53416442871094,342.9725341796875,-0.031829833984375,0.6005921363830566,-0.0013427734375,0.09838401526212692,-4.301566514186561e-05,0.006737012881785631,1.9695675373077393,-0.0012803610879927874,-0.02197946421802044,1.9692292664864128,-0.00018719530234649292,-0.017277585342526436,94,1,1,,,,,0,12.905657768249512,7.905657768249512,2.3035926574475747,2.303608616713716,10.602049151535795,722.368314127999,-0.017865758389234543,2,0.061136115342378616,-0.047445692121982574,12.891134262084961,-0.612088143825531,0.612088143825531,0,10.175837516784668,,,,,none,0,0,,,-0.00013732907700614305,-0.000213623046875,0,0,0,,0.0,0,0,0
20260628T141855Z_mpc_da8c7f28,mpc,RouteScenario_1_rep0,0,0,Town12,11937618,0.7000000104308128,mpc,mpc,33.294976979959756,mpc_ok,0,follow_lane,clear,0.5092204738623385,1.8331937059044185,5.555555555555555,20.0,5.046335081693217,0.00019999999494757503,0.75,0.0,1199.9761962890625,-82.53416442871094,342.97259521484375,-0.033447265625,0.6787636876106262,-0.0011596678523346782,0.5091589093208313,-0.00010266039316775277,0.008215121924877167,8.215497970581055,-0.0011928945314139128,0.02956218086183071,8.215271047252848,0.0036016533096042873,-0.025328470394015312,94,1,1,,,,,0,13.721067428588867,8.721067428588867,2.3737939119624443,2.379396227324975,11.341671201263892,40.991057696810714,-0.33473318815231323,2,0.05413976311683655,-0.07784193754196167,13.67951774597168,-1.0669960975646973,1.0669960975646973,0,10.9102783203125,,,,,none,0,0,,,-0.0001296996838391351,-0.0018310546875,0,0,0,,0.0,0,0,0
20260628T141855Z_mpc_da8c7f28,mpc,RouteScenario_1_rep0,0,0,Town12,11937619,0.7500000111758709,mpc,mpc,38.20989100495353,mpc_ok,0,follow_lane,clear,0.779818229292097,2.8073456254515494,5.555555555555555,20.0,4.775737326263458,-0.0003000000142492354,0.75,0.0,1200.0115966796875,-82.53421783447266,342.9728088378906,-0.0291137658059597,0.7735257148742676,-0.00036621090839616954,0.7797479629516602,-0.001018587383441627,0.010437574237585068,5.411781311035156,-0.01831853948533535,0.04444904625415802,5.411896837124961,-0.015568825937922078,0.08419858664274216,94,1,1,,,,,0,15.589106559753418,10.589106559753418,2.4604279168990053,2.4826345307441913,13.106472029009227,23.39187624017497,-0.6664324998855591,2,0.041788600385189056,-0.02144313044846058,15.585522651672363,-0.3342536389827728,0.3342536389827728,0,11.595634460449219,,,,,none,0,0,,,-0.00016784664967417484,0.0025024451315402985,0,0,0,,0.0,0,0,0
20260628T141855Z_mpc_da8c7f28,mpc,RouteScenario_1_rep0,0,0,Town12,11937620,0.800000011920929,mpc,mpc,35.95340601168573,mpc_ok,0,follow_lane,clear,0.9132202747307826,3.2875929890308173,5.555555555555555,20.0,4.642335280824772,-0.0010000000474974513,0.75,0.0,1200.0555419921875,-82.53429412841797,342.97314453125,-0.01858520321547985,0.8322926759719849,-0.0005187987117096782,0.9131731390953064,7.467819523299113e-05,0.009882554411888123,2.668503522872925,0.02186531201004982,-0.011100396513938904,2.6680535029109285,0.022730449705066987,0.14972460269927979,94,1,1,,,,,0,14.296884536743164,9.296884536743164,2.514985961547714,2.551344256385207,11.745540280357957,16.765814563858502,-0.8527402281761169,2,0.03390595316886902,0.003275491762906313,14.296808242797852,0.04682924598455429,0.04682924598455429,0,10.459747314453125,,,,,none,0,0,,,-0.00021362300867622253,0.01303100772202015,0,0,0,,0.0,0,0,0
20260628T141855Z_mpc_da8c7f28,mpc,RouteScenario_1_rep0,0,0,Town12,11937621,0.850000012665987,mpc,mpc,39.15361198596656,mpc_ok,0,follow_lane,clear,1.1308197588006654,4.070951131682396,5.555555555555555,20.0,4.42473579675489,-0.0010000000474974513,0.75,0.0,1200.1077880859375,-82.5343246459961,342.9736328125,-0.02041625790297985,0.8708695769309998,-0.000213623046875,1.1307778358459473,-0.0012358797248452902,0.011327847838401794,4.352093696594238,-0.02621115930378437,0.028905868530273438,4.35203938810022,-0.024660511065048605,-0.5051586031913757,94,1,1,,,,,0,12.687692642211914,7.687692642211914,2.5691883348810625,2.6217143772927116,10.065978264919202,12.378850316536706,-1.0249491930007935,5,0.04690173268318176,0.011097047477960587,12.686911582946777,0.14079302549362183,0.14079302549362183,0,9.177694320678711,,,,,none,0,0,,,-0.00022125240184323047,0.01119995303452015,0,0,0,,0.0,0,0,0
20260628T141855Z_mpc_da8c7f28,mpc,RouteScenario_1_rep0,0,0,Town12,11937622,0.9000000134110451,mpc,mpc,37.713278958108276,mpc_ok,0,follow_lane,clear,1.2561131317673884,4.522007274362598,5.555555555555555,20.0,4.299442423788167,-0.0010000000474974513,0.75,0.0,1200.16845703125,-82.53438568115234,342.97412109375,-0.01818847469985485,0.894939124584198,-0.000274658203125,1.256066083908081,-0.001414835569448769,0.012797364965081215,2.505764961242676,-0.003579116892069578,0.02939034253358841,2.5059192655234517,-0.0027837114218108214,0.5342991352081299,94,1,1,,,,,0,17.06735610961914,12.06735610961914,2.626950940547029,2.698588069022858,14.368768040596283,14.25877341453696,-1.1969722509384155,1,0.10141680389642715,-0.10141680389642715,16.979660034179688,-1.7279510498046875,1.7279510498046875,0,14.719375610351562,,,,,none,0,0,,,-0.00024414058134425431,0.01342773623764515,0,0,0,,0.0,0,0,0
20260628T141855Z_mpc_da8c7f28,mpc,RouteScenario_1_rep0,0,0,Town12,11937623,0.9500000141561031,mpc,mpc,36.45544801838696,mpc_ok,0,follow_lane,clear,1.403391361918597,5.0522089029069495,5.555555555555555,20.0,4.152164193636958,-0.0013000000035390258,0.75,0.0,1200.2366943359375,-82.53447723388672,342.9748229980469,-0.0079345703125,0.9068236947059631,-0.00067138671875,1.4033464193344116,-0.001106470008380711,0.013936547562479973,2.9456067085266113,0.00616731122136116,0.02278365194797516,2.9455975612734857,0.006574952416279108,0.05156019702553749,94,1,1,,,,,0,13.812744140625,8.812744140625,2.6831239575536934,2.7748964603004826,11.037847680324518,10.195503583702076,-1.354787826538086,2,0.029453519731760025,0.048699699342250824,13.796367645263672,0.6724106073379517,0.6724106073379517,0,10.06851863861084,,,,,none,0,0,,,-0.00029754633351330995,0.023681640625,0,0,0,,0.0,0,0,0
20260628T141855Z_mpc_da8c7f28,mpc,RouteScenario_1_rep0,0,0,Town12,11937624,1.0000000149011612,mpc,mpc,39.50842801714316,mpc_ok,0,follow_lane,clear,1.481320754094204,5.332754714739134,5.555555555555555,20.0,4.074234801461351,-0.0013000000035390258,0.75,0.0,1200.3089599609375,-82.5345230102539,342.9755859375,-0.008026122115552425,0.8975619673728943,-0.00091552734375,1.481279969215393,-0.0013683504657819867,0.014194965362548828,1.558670997619629,-0.005237609148025513,0.005168356001377106,1.5585614029398276,-0.0050195745780304175,0.13436977565288544,94,1,1,,,,,0,14.644675254821777,9.644675254821777,2.715305912782196,2.819210369459506,11.82546488536227,10.158922798152664,-1.4415578842163086,3,0.05581730604171753,0.07044140994548798,14.608356475830078,1.0307385921478271,1.0307385921478271,0,12.860148429870605,,,,,none,0,0,,,-0.0003051757266803179,0.023590088821947575,0,0,0,,0.0,0,0,0
20260628T141855Z_mpc_da8c7f28,mpc,RouteScenario_1_rep0,0,0,Town12,11937625,1.0500000156462193,mpc,mpc,38.87566999765113,mpc_ok,0,follow_lane,clear,1.6531460849076478,5.951325905667532,5.555555555555555,20.0,3.9024094706479078,-0.0013000000035390258,0.75,0.0,1200.3876953125,-82.53459167480469,342.9764099121094,-0.01315307430922985,0.8914967179298401,-0.00024414058134425431,1.6531026363372803,-0.001676115789450705,0.015631617978215218,3.436453342437744,-0.006155306473374367,0.02873305231332779,3.436485803877792,-0.0053665243593652235,-0.04781807214021683,94,1,1,,,,,0,14.145557403564453,9.145557403564453,2.766227505800292,2.8901118137568513,11.255445589807602,8.986631177026693,-1.5740667581558228,6,0.03526110574603081,-0.052252039313316345,14.126251220703125,-0.7387979030609131,0.7387979030609131,0,9.92966365814209,,,,,none,0,0,,,-0.00032806390618134174,0.01846313662827015,0,0,0,,0.0,0,0,0
20260628T141855Z_mpc_da8c7f28,mpc,RouteScenario_1_rep0,0,0,Town12,11937626,1.1000000163912773,mpc,mpc,43.53905300376937,mpc_ok,0,follow_lane,clear,1.8021776430089773,6.487839514832318,5.555555555555555,20.0,3.7533779125465783,-0.0013000000035390258,0.75,0.0,1200.474365234375,-82.53468322753906,342.9771728515625,-0.01611328311264515,0.8906224966049194,0.0008433325565420091,1.802127480506897,-0.001770784961991012,0.017206430435180664,2.980496883392334,-0.001893383450806141,0.03149624913930893,2.9806267059037532,-0.0010549602938006936,-0.22585150599479675,94,1,1,,,,,0,17.36689567565918,12.36689567565918,2.823951824124319,2.971520025830671,14.395375649828509,10.109060720529353,-1.7179534435272217,3,0.11220041662454605,0.08569836616516113,17.30316162109375,1.486493468284607,1.486493468284607,0,19.230581283569336,,,,,none,0,0,,,-0.0003738402651833894,0.01550292782485485,0,0,0,,0.0,0,0,0
20260628T141855Z_mpc_da8c7f28,mpc,RouteScenario_1_rep0,0,0,Town12,11937627,1.1500000171363354,mpc,mpc,36.33514296961948,mpc_ok,0,follow_lane,clear,1.9069409132524173,6.864987287708702,5.555555555555555,20.0,3.648614642303138,-0.0013000000035390258,0.75,0.0,1200.5673828125,-82.53477478027344,342.9781494140625,-0.021331787109375,0.8850421905517578,0.0013773631071671844,1.9068937301635742,-0.002119559096172452,0.017740219831466675,2.095324993133545,-0.0069754826836287975,0.010675787925720215,2.095242334258295,-0.006194850555375817,-0.059717126190662384,94,1,1,,,,,0,18.96769905090332,13.96769905090332,2.8772790250827747,3.0475909727360038,15.920108078167317,10.277254109187604,-1.845599889755249,2,0.12083879858255386,0.13561800122261047,18.793537139892578,2.564483404159546,2.564483404159546,0,15.135869979858398,,,,,none,0,0,,,-0.00041198723101842916,0.010284423828125,0,0,0,,0.0,0,0,0
20260628T141855Z_mpc_da8c7f28,mpc,RouteScenario_1_rep0,0,0,Town12,11937628,1.2000000178813934,mpc,mpc,34.25196302123368,mpc_ok,0,follow_lane,clear,2.0345954297910915,7.32454354724793,5.555555555555555,20.0,3.520960125764464,0.0,0.75,0.0,1200.666259765625,-82.53487396240234,342.9791259765625,-0.02465820126235485,0.8772489428520203,0.00122841855045408,2.0345473289489746,-0.0024747406132519245,0.01866014488041401,2.553071975708008,-0.007103630341589451,0.018398500978946686,2.5530572385061023,-0.006004428392336439,-0.07187202572822571,94,1,1,,,,,0,15.818510055541992,10.818510055541992,2.9306493770275015,3.124463460516478,12.694046595025515,8.034482537305967,-1.968827486038208,3,0.10187411308288574,-0.1195790022611618,15.705549240112305,-1.8870569467544556,1.8870569467544556,0,16.126554489135742,,,,,none,0,0,,,-0.00045776359002047684,0.006958009675145149,0,0,0,,0.0,0,0,0
20260628T141855Z_mpc_da8c7f28,mpc,RouteScenario_1_rep0,0,0,Town12,11937629,1.2500000186264515,mpc,mpc,24.060515977907926,mpc_ok,0,follow_lane,clear,2.1895442704312673,7.882359373552562,5.555555555555555,20.0,3.366011285124288,0.0,0.75,0.0,1200.7725830078125,-82.53495025634766,342.98016357421875,-0.02581787109375,0.8740661144256592,0.0003485822235234082,2.1894917488098145,-0.0014262056211009622,0.020116452127695084,3.098888397216797,0.020970700308680534,0.02912614494562149,3.098962340824178,0.02236718853954464,-0.025789810344576836,94,1,1,,,,,0,13.07215690612793,8.07215690612793,2.997783137874704,3.2220993416181143,9.850057564509815,6.171659125711453,-2.1180944442749023,1,0.0452100969851017,-0.0452100969851017,13.058799743652344,-0.590792179107666,0.590792179107666,0,9.269994735717773,,,,,none,0,0,,,-0.00047302237635449274,0.00579833984375,0,0,0,,0.0,0,0,0
20260628T141855Z_mpc_da8c7f28,mpc,RouteScenario_1_rep0,0,0,Town12,11937630,1.3000000193715096,mpc,mpc,8.647408976685256,mpc_ok,0,follow_lane,clear,2.353531408601607,8.472713070965785,5.555555555555555,20.0,3.2020241469539483,0.0,0.75,0.0,1200.886962890625,-82.53499603271484,342.981201171875,-0.02581787295639515,0.8761287927627563,0.0,2.3534626960754395,-0.0012011023936793208,0.02246810868382454,3.2794189453125,0.004502064548432827,0.04703313112258911,3.2797523832257367,0.005979792702837661,0.009283225052058697,94,1,1,,,,,0,16.450849533081055,11.450849533081055,3.0698706718575623,3.327977526601818,13.122872006479238,7.240583445265279,-2.27203369140625,3,0.10493802279233932,0.07816167920827866,16.400623321533203,1.2845172882080078,1.2845172882080078,0,14.43195629119873,,,,,none,0,0,,,-0.00045776359002047684,0.005798337981104851,0,0,0,,0.0,0,0,0
20260628T141855Z_mpc_da8c7f28,mpc,RouteScenario_1_rep0,0,0,Town12,11937631,1.3500000201165676,mpc,mpc,7.684290991164744,mpc_ok,0,follow_lane,clear,2.537882414492373,9.136376692172544,5.555555555555555,20.0,3.0176731410631823,0.0,0.75,0.0,1201.0101318359375,-82.53504943847656,342.98236083984375,-0.02581787109375,0.8836556673049927,-0.00015258790517691523,2.5378079414367676,-0.0012223930098116398,0.024380292743444443,3.6869049072265625,-0.00042581232264637947,0.03824368119239807,3.6870560425246555,0.0012354827162387283,-0.0003542264166753739,94,1,1,,,,,0,14.324743270874023,9.324743270874023,3.1596757359121543,3.4612025294907713,10.863540741383252,5.833227233164224,-2.4557149410247803,3,0.027031825855374336,-0.008562369272112846,14.324217796325684,-0.12265224754810333,0.12265224754810333,0,10.170273780822754,,,,,none,0,0,,,-0.00044250480368646095,0.00579833984375,0,0,0,,0.0,0,0,0
20260628T141855Z_mpc_da8c7f28,mpc,RouteScenario_1_rep0,0,0,Town12,11937632,1.4000000208616257,mpc,mpc,24.028535990510136,mpc_ok,0,follow_lane,clear,2.7268961903395503,9.816826285222382,5.555555555555555,20.0,2.828659365216005,-9.999999747378752e-05,0.75,0.0,1201.1427001953125,-82.53509521484375,342.9836120605469,-0.02572631649672985,0.8944610357284546,-0.000213623046875,2.7268242835998535,-0.001230362569913268,0.025873536244034767,3.7803268432617188,-0.00015939120203256607,0.029864870011806488,3.780332109997394,0.0015379004697092442,0.004723426420241594,94,1,1,,,,,0,14.918283462524414,9.918283462524414,3.2526816158421186,3.6005362129441436,11.31774724958027,5.655942472138264,-2.637629985809326,3,0.03641146793961525,-0.05383272469043732,14.896672248840332,-0.8027039766311646,0.8027039766311646,0,10.4005126953125,,,,,none,0,0,,,-0.0004196166241854371,0.005889894440770149,0,0,0,,0.0,0,0,0
20260628T141855Z_mpc_da8c7f28,mpc,RouteScenario_1_rep0,0,0,Town12,11937633,1.4500000216066837,mpc,mpc,17.51381898066029,mpc_ok,0,follow_lane,clear,2.934123923120443,10.562846123233594,5.555555555555555,20.0,2.6214316324351126,-9.999999747378752e-05,0.75,0.0,1201.285400390625,-82.53515625,342.9849548339844,-0.02600097469985485,0.9073564410209656,-0.000518798828125,2.9340548515319824,-0.001529064727947116,0.027569884434342384,4.144611358642578,-0.005974043160676956,0.033926963806152344,4.144631064239292,-0.0040934942643873614,-0.0042440081015229225,94,1,1,,,,,0,12.977130889892578,7.977130889892578,3.359833429494831,3.762561005966831,9.214569883925748,4.572545154591923,-2.8380541801452637,2,0.03171514347195625,-0.017315277829766273,12.97518539428711,-0.22469139099121094,0.22469139099121094,0,9.111145973205566,,,,,none,0,0,,,-0.00039672844468441326,0.005615236237645149,0,0,0,,0.0,0,0,0
20260628T141855Z_mpc_da8c7f28,mpc,RouteScenario_1_rep0,0,0,Town12,11937634,1.5000000223517418,mpc,mpc,20.24840103695169,mpc_ok,0,follow_lane,clear,3.1417236351705,11.3102050866138,5.555555555555555,20.0,2.4138319203850553,-9.999999747378752e-05,0.75,0.0,1201.4383544921875,-82.53526306152344,342.986328125,-0.02618408016860485,0.9209690093994141,0.00011940458352910355,3.141636848449707,-0.0016520083881914616,0.030622681602835655,4.151639938354492,-0.0024588732048869133,0.06105594336986542,4.15208569502375,-0.0005615683085708244,-0.004718041513115168,94,1,1,,,,,0,13.621063232421875,8.621063232421875,3.4756718122216625,3.939298640462948,9.681764591958927,4.473132180938189,-3.045083999633789,4,0.03451290354132652,0.06374786049127579,13.593396186828613,0.8677256107330322,0.8677256107330322,0,9.56485652923584,,,,,none,0,0,,,-0.0004196166241854371,0.005432130768895149,0,0,0,,0.0,0,0,0
20260628T141855Z_mpc_da8c7f28,mpc,RouteScenario_1_rep0,0,0,Town12,11937635,1.5500000230967999,mpc,mpc,19.706724968273193,mpc_ok,0,follow_lane,clear,3.3633144026063335,12.107931849382801,5.555555555555555,20.0,2.192241152949222,-9.999999747378752e-05,0.75,0.0,1201.60205078125,-82.53534698486328,342.98785400390625,-0.0264892578125,0.9350665211677551,-3.0517585400957614e-05,3.363236427307129,-0.0017653817776590586,0.03219472989439964,4.4319915771484375,-0.00226746778935194,0.031440965831279755,4.4319150407409555,-0.00021847000246872673,-0.006899985019117594,94,1,1,,,,,0,15.38756275177002,10.38756275177002,3.601590998873178,4.133039939593299,11.25452281217672,4.719805112035569,-3.26021146774292,1,0.03669794648885727,0.03669794648885727,15.377202033996582,0.5645652413368225,0.5645652413368225,0,10.930445671081543,,,,,none,0,0,,,-0.0004196166241854371,0.005126953125,0,0,0,,0.0,0,0,0
20260628T141855Z_mpc_da8c7f28,mpc,RouteScenario_1_rep0,0,0,Town12,11937636,1.600000023841858,mpc,mpc,19.512579950969666,mpc_ok,0,follow_lane,clear,3.5893579886684415,12.92168875920639,5.555555555555555,20.0,1.966197566887114,-9.999999747378752e-05,0.75,0.0,1201.777099609375,-82.53544616699219,342.9895324707031,-0.02682495303452015,0.9489044547080994,-0.0006103515625,3.5892786979675293,-0.002067659981548786,0.03447578474879265,4.520845413208008,-0.006045564077794552,0.04562109708786011,4.520983188666352,-0.003929288833184772,-0.006392528302967548,94,1,1,,,,,0,13.387632369995117,8.387632369995117,3.738077859483508,4.3447098378021565,9.04292253219296,3.843493314726357,-3.483193874359131,1,0.024749314412474632,0.024749314412474632,13.383532524108887,0.33130091428756714,0.33130091428756714,0,9.399868965148926,,,,,none,0,0,,,-0.0004196166241854371,0.004791257902979851,0,0,0,,0.0,0,0,0
20260628T141855Z_mpc_da8c7f28,mpc,RouteScenario_1_rep0,0,0,Town12,11937637,1.650000024586916,mpc,mpc,18.937661952804774,mpc_ok,0,follow_lane,clear,3.819166839711835,13.749000622962605,5.555555555555555,20.0,1.7363887158437206,-9.999999747378752e-05,0.75,0.0,1201.963623046875,-82.5355453491211,342.9912414550781,-0.02716064266860485,0.961635947227478,-0.00027465823222883046,3.8190908432006836,-0.00208526523783803,0.03654489293694496,4.596242904663086,-0.00035210512578487396,0.041382163763046265,4.596289675972229,0.0018265385014001063,-0.006490843836218119,94,1,1,,,,,0,13.895389556884766,8.895389556884766,3.884125624294525,4.572890573189919,9.322498983694846,3.743865257181495,-3.7115089893341064,3,0.06373409926891327,0.03768065199255943,13.885525703430176,0.5234634876251221,0.5234634876251221,0,9.774044036865234,,,,,none,0,0,,,-0.00041198723101842916,0.004455568268895149,0,0,0,,0.0,0,0,0
20260628T141855Z_mpc_da8c7f28,mpc,RouteScenario_1_rep0,0,0,Town12,11937638,1.700000025331974,mpc,mpc,17.809915996622294,mpc_ok,0,follow_lane,clear,4.0331632606430246,14.519387738314888,5.555555555555555,20.0,1.5223922949125308,-9.999999747378752e-05,0.75,0.0,1202.1610107421875,-82.53564453125,342.9931640625,-0.027557373046875,0.9695316553115845,-0.00027465823222883046,4.033087253570557,-0.0022122168447822332,0.03858044371008873,4.279928207397461,-0.0025390321388840675,0.040711015462875366,4.280005018718955,-0.00048068029129326364,-0.008258274756371975,94,1,1,,,,,0,13.091632843017578,8.091632843017578,4.031770998160614,4.805122906368019,8.286509936649558,3.3288194350142195,-3.9328155517578125,2,0.01040109246969223,0.014782239682972431,13.090202331542969,0.19351661205291748,0.19351661205291748,0,9.067001342773438,,,,,none,0,0,,,-0.0004043578378514212,0.004058837890625,0,0,0,,0.0,0,0,0
20260628T141855Z_mpc_da8c7f28,mpc,RouteScenario_1_rep0,0,0,Town12,11937639,1.750000026077032,mpc,mpc,17.2529190313071,mpc_ok,0,follow_lane,clear,4.238440218517593,15.258384786663335,5.555555555555555,20.0,1.3171153370379622,-9.999999747378752e-05,0.75,0.0,1202.368896484375,-82.5357437133789,342.9951171875,-0.0279541015625,0.9719017148017883,0.0001961926172953099,4.238382339477539,-0.0022740699350833893,0.0393250547349453,4.105901718139648,-0.0012370618060231209,0.014892220497131348,4.1055636548458745,0.0007663587119434217,-0.008369636721909046,94,1,1,,,,,0,15.16440486907959,10.16440486907959,4.167527797986333,5.019881566310045,10.144523302769546,3.67282664469889,-4.128810405731201,1,0.09234250336885452,0.09234250336885452,15.099796295166016,1.3983298540115356,1.3983298540115356,0,12.74078369140625,,,,,none,0,0,,,-0.0003890990515174053,0.003662109375,0,0,0,,0.0,0,0,0
20260628T141855Z_mpc_da8c7f28,mpc,RouteScenario_1_rep0,0,0,Town12,11937640,1.8000000268220901,mpc,mpc,17.48241001041606,mpc_ok,0,follow_lane,clear,4.4389029481742295,15.980050613427226,5.555555555555555,20.0,1.1166526073813259,-9.999999747378752e-05,0.75,0.0,1202.5867919921875,-82.53583526611328,342.9971008300781,-0.028381342068314552,0.972284197807312,1.4918251508788671e-05,4.438838481903076,-0.0023844607640057802,0.041425082832574844,4.009122848510742,-0.0022078165784478188,0.04200056195259094,4.009258827901145,-0.00022189919210359975,-0.008453854359686375,94,1,1,,,,,0,14.856724739074707,9.856724739074707,4.311199656064868,5.2483083127765235,9.608416426298184,3.4317299441053177,-4.329223155975342,1,0.09506453573703766,0.09506453573703766,14.789643287658691,1.4102212190628052,1.4102212190628052,0,13.567644119262695,,,,,none,0,0,,,-0.0003585814788493735,0.0032348688691854477,0,0,0,,0.0,0,0,0
20260628T141855Z_mpc_da8c7f28,mpc,RouteScenario_1_rep0,0,0,Town12,11937641,1.8500000275671482,mpc,mpc,18.720413965638727,mpc_ok,0,follow_lane,clear,4.637263053976388,16.694146994314995,5.555555555555555,20.0,0.9182925015791676,0.0,0.75,0.0,1202.814697265625,-82.53597259521484,342.9991760253906,-0.028839105740189552,0.9724071621894836,0.00045800567022524774,4.637222766876221,-0.0025298944674432278,0.04168521612882614,3.9676856994628906,-0.002908674068748951,0.00520266592502594,3.9672036183280603,-0.0009110925156193312,-0.009050805121660233,94,1,1,,,,,0,14.766560554504395,9.766560554504395,4.469644205256246,5.50145505067786,9.265105503826534,3.2506058201985693,-4.542710304260254,2,0.03727756068110466,0.04684239253401756,14.75036334991455,0.6914480924606323,0.6914480924606323,0,10.362998008728027,,,,,none,0,0,,,-0.0003738402651833894,0.0027771051973104477,0,0,0,,0.0,0,0,0
20260628T141855Z_mpc_da8c7f28,mpc,RouteScenario_1_rep0,0,0,Town12,11937642,1.9000000283122063,mpc,mpc,8.721949008759111,mpc_ok,0,follow_lane,clear,4.834718105501207,17.404985179804346,5.555555555555555,20.0,0.720837450054348,0.0,0.75,0.0,1203.052490234375,-82.53611755371094,343.0013122558594,-0.02899169735610485,0.9720041751861572,-6.103514533606358e-05,4.834702491760254,-0.00247951433993876,0.041893500834703445,3.949594497680664,0.0010076025500893593,0.0041656941175460815,3.9490958935067124,0.003006032758075578,-0.0009074160479940474,94,1,1,,,,,0,13.286233901977539,8.286233901977539,4.623290908486823,5.748052211514349,7.53818169046319,2.8012812405432603,-4.742913246154785,4,0.033743031322956085,0.014656704850494862,13.284807205200195,0.19472543895244598,0.19472543895244598,0,9.154370307922363,,,,,none,0,0,,,-0.0003890990515174053,0.0026245135813951492,0,0,0,,0.0,0,0,0
20260628T141855Z_mpc_da8c7f28,mpc,RouteScenario_1_rep0,0,0,Town12,11937643,1.9500000290572643,mpc,mpc,8.850971993524581,mpc_ok,0,follow_lane,clear,5.031827575284844,18.114579271025438,5.555555555555555,20.0,0.5237279802707118,0.0,0.75,0.0,1203.3001708984375,-82.53627014160156,343.00347900390625,-0.02899169735610485,0.9716626405715942,-6.103515261202119e-05,5.031820297241211,-0.002567500341683626,0.043058183044195175,3.9423561096191406,-0.0017597200348973274,0.023293644189834595,3.9421847628654625,0.00023506837833231833,0.0004982831887900829,94,1,1,,,,,0,14.31070327758789,9.31070327758789,4.777881824496079,5.997171136687539,8.313532140900351,2.897961394723077,-4.938196659088135,2,0.025395045056939125,-0.04216529801487923,14.297983169555664,-0.6032362580299377,0.6032362580299377,0,9.617829322814941,,,,,none,0,0,,,-0.0004043578378514212,0.0026245135813951492,0,0,0,,0.0,0,0,0
20260628T141855Z_mpc_da8c7f28,mpc,RouteScenario_1_rep0,0,0,Town12,11937644,2.0000000298023224,mpc,mpc,9.46243799990043,mpc_ok,0,follow_lane,clear,5.229034239885517,18.824523263587864,5.555555555555555,20.0,0.32652131567003817,0.0,0.75,0.0,1203.5576171875,-82.53641510009766,343.0058898925781,-0.028503412380814552,0.9712596535682678,-3.0517539926222526e-05,5.228967189788818,-0.002650804352015257,0.04823688417673111,3.9429378509521484,-0.0016660802066326141,0.10357402265071869,3.944127487079647,0.00029546602844149946,0.05341687053442001,94,1,1,,,,,0,14.858521461486816,9.858521461486816,4.941346739061732,6.261591734900725,8.59692972658609,2.8915674881745805,-5.1385698318481445,3,0.036832600831985474,0.09200771152973175,14.795674324035645,1.3651704788208008,1.3651704788208008,0,11.451947212219238,,,,,none,0,0,,,-0.0004043578378514212,0.0031127985566854477,0,0,0,,0.0,0,0,0
20260628T141855Z_mpc_da8c7f28,mpc,RouteScenario_1_rep0,0,0,Town12,11937645,2.0500000305473804,mpc,mpc,37.03843301627785,mpc_ok,0,follow_lane,clear,5.303513732757448,19.092649437926813,5.555555555555555,20.0,0.25204182279810716,0.00019999999494757503,0.75,0.0,1203.8228759765625,-82.53651428222656,343.00830078125,-0.043182373046875,0.9575924873352051,0.0009938308503478765,5.30345344543457,-0.0029976849909871817,0.04788201302289963,1.489725112915039,-0.006937612779438496,-0.007097423076629639,1.4894032365995584,-0.00581428789823984,-3.5990633964538574,94,1,1,,,,,0,14.223660469055176,9.223660469055176,5.072506315189074,6.474440421981287,7.749220047073889,2.6861643325899878,-5.295156478881836,4,0.036381956189870834,0.02927960455417633,14.21756362915039,0.4164036512374878,0.4164036512374878,0,9.883460998535156,,,,,none,0,0,,,-0.0003585814788493735,-0.011566162109375,0,0,0,,0.0,0,0,0
20260628T141855Z_mpc_da8c7f28,mpc,RouteScenario_1_rep0,0,0,Town12,11937646,2.1000000312924385,mpc,mpc,40.692540002055466,mpc_ok,0,follow_lane,clear,5.248723156447115,18.895403363209613,5.555555555555555,20.0,0.3068323991084405,-9.999999747378752e-05,0.75,0.0,1204.085693359375,-82.53666687011719,343.0108947753906,-0.01953125,0.8956289887428284,-0.000823974609375,5.248626708984375,-0.001696352963335812,0.047176018357276917,-1.0965347290039062,0.026026640087366104,-0.014119893312454224,-1.0966302581607237,0.02565289018747776,3.33292555809021,94,1,1,,,,,0,13.93026351928711,8.93026351928711,5.049030678350789,6.436300932420136,7.4939625868669735,2.644623161377806,-5.267390727996826,3,0.023076878860592842,-0.03786059468984604,13.920280456542969,-0.5272820591926575,0.5272820591926575,0,9.625076293945312,,,,,none,0,0,,,-0.00036621087201638147,0.0120849609375,0,0,0,,0.0,0,0,0
20260628T141855Z_mpc_da8c7f28,mpc,RouteScenario_1_rep0,0,0,Town12,11937647,2.1500000320374966,mpc,mpc,37.18178195413202,mpc_ok,0,follow_lane,clear,5.221251552993636,18.79650559077709,5.555555555555555,20.0,0.33430400256191906,0.0003000000142492354,0.75,0.0,1204.3465576171875,-82.53666687011719,343.0134582519531,-0.058868397027254105,0.8232563138008118,0.0004327933129388839,5.221130847930908,-0.003136425744742155,0.04587910696864128,-0.5499172210693359,-0.028801456093788147,-0.025938227772712708,-0.5502032477736046,-0.029366315229791926,-3.5210723876953125,94,1,1,,,,,0,14.64933967590332,9.64933967590332,5.006305097468687,6.36693442757923,8.282405248324089,2.8082329907384294,-5.216568470001221,2,0.07983069866895676,-0.09128870815038681,14.588340759277344,-1.3354625701904297,1.3354625701904297,0,11.123501777648926,,,,,none,0,0,,,-0.00022125240184323047,-0.027252186089754105,0,0,0,,0.0,0,0,0
20260628T141855Z_mpc_da8c7f28,mpc,RouteScenario_1_rep0,0,0,Town12,11937648,2.2000000327825546,mpc,mpc,33.12851500231773,mpc_ok,0,follow_lane,clear,5.2272743022328925,18.818187488038415,5.555555555555555,20.0,0.3282812533226629,0.0,0.75,0.0,1204.6070556640625,-82.53691864013672,343.01605224609375,-0.02584838680922985,0.762884259223938,0.00026659926516003907,5.227138042449951,-0.0025161965750157833,0.04498844966292381,0.12014389038085938,0.012404583394527435,-0.017813146114349365,0.11989045952221573,0.01245887388497766,3.3997251987457275,94,1,1,,,,,0,13.969327926635742,8.969327926635742,4.998698977097391,6.354592095477145,7.6147358311585975,2.682549757894968,-5.207481384277344,4,0.06680673360824585,-0.07511461526155472,13.929937362670898,-1.0483142137527466,1.0483142137527466,0,10.481202125549316,,,,,none,0,0,,,-0.00032806390618134174,0.005767824128270149,0,0,0,,0.0,0,0,0
20260628T141855Z_mpc_da8c7f28,mpc,RouteScenario_1_rep0,0,0,Town12,11937649,2.2500000335276127,mpc,mpc,36.104830040130764,mpc_ok,0,follow_lane,clear,5.227276394779197,18.81819502120511,5.555555555555555,20.0,0.32827916077635866,0.0003000000142492354,0.75,0.0,1204.8680419921875,-82.5369644165039,343.0184631347656,-0.0608520470559597,0.7154554724693298,0.001510224654339254,5.2271246910095215,-0.003619448747485876,0.04471356421709061,-0.00026702880859375,-0.022065043449401855,-0.0054977089166641235,-0.0003122234938026519,-0.022065170404063784,-3.4380249977111816,94,1,1,,,,,0,15.479217529296875,10.479217529296875,4.993319689508022,6.345864403023395,9.13335312627348,2.976173120106585,-5.201047420501709,1,0.10493317246437073,-0.10493317246437073,15.394075393676758,-1.6213042736053467,1.6213042736053467,0,11.767573356628418,,,,,none,0,0,,,-0.00022888179501023842,-0.0292358361184597,0,0,0,,0.0,0,0,0
20260628T141855Z_mpc_da8c7f28,mpc,RouteScenario_1_rep0,0,0,Town12,11937650,2.3000000342726707,mpc,mpc,33.8767790235579,mpc_ok,0,follow_lane,clear,5.222303904478722,18.800294056123402,5.555555555555555,20.0,0.3332516510768331,0.0,0.75,0.0,1205.12890625,-82.53722381591797,343.0207824707031,-0.02621459774672985,0.6726916432380676,0.0004900043713860214,5.222143650054932,-0.0029363520443439484,0.04423806071281433,-0.09962081909179688,0.013661934062838554,-0.009510070085525513,-0.09973184552894282,0.013616424143219652,3.476855516433716,94,1,1,,,,,0,16.331815719604492,11.331815719604492,5.006554721364364,6.3673395217711,9.964476197833392,3.1305795808295773,-5.216866493225098,2,0.03780233487486839,-0.06355483084917068,16.298843383789062,-1.0372672080993652,1.0372672080993652,0,12.31273078918457,,,,,none,0,0,,,-0.0003509520856823656,0.005401613190770149,0,0,0,,0.0,0,0,0
20260628T141855Z_mpc_da8c7f28,mpc,RouteScenario_1_rep0,0,0,Town12,11937651,2.350000035017729,mpc,mpc,37.83069894416258,mpc_ok,0,follow_lane,clear,5.5561252794501765,20.002051006020636,5.555555555555555,20.0,-0.0005697238946211769,0.0005000000237487257,0.028893597424030304,0.0,1205.395263671875,-82.53719329833984,343.02294921875,-0.0820617601275444,0.6678148508071899,0.0015010252827778459,5.555974006652832,-0.003379116766154766,0.045431945472955704,6.676607131958008,-0.008855294436216354,0.023877695202827454,6.676437679865984,0.0007086813920593807,-1.8118788003921509,94,1,1,,,,,0,16.833526611328125,11.833526611328125,5.05600115717093,6.447623555238316,10.38590305608981,3.1907987042103763,-5.275646686553955,1,0.1352706104516983,-0.1352706104516983,16.679750442504883,-2.270143508911133,2.270143508911133,0,15.470563888549805,,,,,none,0,0,,,-0.00016784664967417484,-0.0504455491900444,0,0,0,,0.0,0,0,0
20260628T141855Z_mpc_da8c7f28,mpc,RouteScenario_1_rep0,0,0,Town12,11937652,2.400000035762787,mpc,mpc,34.84367299824953,mpc_ok,0,follow_lane,clear,6.032258399344337,21.716130237639614,5.555555555555555,20.0,-0.47670284378878147,0.0006000000284984708,0.0,0.30000001192092896,1205.6881103515625,-82.5374984741211,343.0249938964844,-0.0883178636431694,0.764844536781311,0.003393737133592367,6.0321502685546875,-0.007350471336394548,0.04805093631148338,9.52352523803711,-0.0794270932674408,0.05237981677055359,9.523486875063918,-0.06474265762323504,1.3412686586380005,94,1,1,,,,,0,18.398950576782227,13.398950576782227,5.509337350394844,7.187227997394257,11.21172257938797,3.176115069587362,-5.792910575866699,3,0.07818488776683807,0.0766478106379509,18.34493064880371,1.4088588953018188,1.4088588953018188,0,17.472482681274414,,,,,none,0,0,,,-0.00031280511984732584,-0.0567016527056694,0,0,0,,0.0,0,0,0
20260628T141855Z_mpc_da8c7f28,mpc,RouteScenario_1_rep0,0,0,Town12,11937653,2.450000036507845,mpc,mpc,37.71524201147258,mpc_ok,0,follow_lane,clear,6.158045204193542,22.168962735096752,5.555555555555555,20.0,-0.6024896486379863,0.0008999999845400453,0.0,0.30000001192092896,1205.9952392578125,-82.53778839111328,343.0271301269531,-0.110748291015625,0.8293078541755676,0.0038838256150484085,6.157985687255859,-0.007111826911568642,0.04852373152971268,2.5167083740234375,0.004772888496518135,0.009455904364585876,2.516567797367962,0.009639306806498254,-3.150003671646118,94,1,1,,,,,0,14.270125389099121,9.270125389099121,5.79276360528529,7.652501834827126,6.6176235542719954,2.3398438843822458,-6.098751068115234,3,0.038054779171943665,-0.013840967789292336,14.268758773803711,-0.19750604033470154,0.19750604033470154,0,10.107895851135254,,,,,none,0,0,,,-0.000434875410519453,-0.079132080078125,0,0,0,,0.0,0,0,0
20260628T141855Z_mpc_da8c7f28,mpc,RouteScenario_1_rep0,0,0,Town12,11937654,2.500000037252903,mpc,mpc,41.41385399270803,mpc_ok,0,follow_lane,clear,6.139008829278287,22.100431785401835,5.555555555555555,20.0,-0.583453273722732,0.0008999999845400453,0.0,0.30000001192092896,1206.302734375,-82.53829956054688,343.0295715332031,-0.0730590671300888,0.8132227659225464,0.0031630226876586676,6.1389312744140625,-0.007120213937014341,0.04874322935938835,-0.3810882568359375,-0.00016774050891399384,0.004389956593513489,-0.38098703085703073,-0.0006542148613085944,3.4650285243988037,94,1,1,,,,,0,13.222396850585938,8.222396850585938,5.8307961853218435,7.715086088735472,5.507310761850466,2.153879135843934,-6.138875961303711,2,0.03444845601916313,0.025067610666155815,13.218242645263672,0.3314191997051239,0.3314191997051239,0,9.585699081420898,,,,,none,0,0,,,-0.0007781981030348106,-0.041442856192588806,0,0,0,,0.0,0,0,0
20260628T141855Z_mpc_da8c7f28,mpc,RouteScenario_1_rep0,0,0,Town12,11937655,2.550000037997961,mpc,mpc,35.2536229765974,mpc_ok,0,follow_lane,clear,6.070763864652282,21.854749912748215,5.555555555555555,20.0,-0.5152083090967263,0.0008999999845400453,0.0,0.30000001192092896,1206.607177734375,-82.53852081298828,343.03216552734375,-0.1015319675207138,0.7522701621055603,0.002181523246690631,6.070648670196533,-0.0069000739604234695,0.04842173308134079,-1.365652084350586,0.004402799531817436,-0.006429925560951233,-1.365624485964792,0.0019823288939648173,-3.263430118560791,94,1,1,,,,,0,16.054569244384766,11.054569244384766,5.770774575842474,7.6163335221699775,8.438235722214788,2.642528618083899,-6.0754570960998535,4,0.09331881999969482,0.08096052706241608,16.001981735229492,1.298366904258728,1.298366904258728,0,13.263463020324707,,,,,none,0,0,,,-0.0008316038552038663,-0.0699157565832138,0,0,0,,0.0,0,0,0
20260628T141855Z_mpc_da8c7f28,mpc,RouteScenario_1_rep0,0,0,Town12,11937656,2.600000038743019,mpc,mpc,36.78224195027724,mpc_ok,0,follow_lane,clear,5.969838210579343,21.491417558085633,5.555555555555555,20.0,-0.41428265502378725,0.0008999999845400453,0.0,0.30000001192092896,1206.906982421875,-82.53897094726562,343.03485107421875,-0.061767563223838806,0.6710318922996521,0.0015914556570351124,5.969677448272705,-0.005658326204866171,0.048460282385349274,-2.0194244384765625,0.024834955111145973,0.0007709860801696777,-2.019302434352476,0.02265722740623459,3.523117780685425,94,1,1,,,,,0,13.297160148620605,8.297160148620605,5.709031288467668,7.514838118702755,5.78232202991785,2.21262724554224,-6.009670257568359,3,0.050465524196624756,0.025031914934515953,13.292994499206543,0.3328186273574829,0.3328186273574829,0,10.14582347869873,,,,,none,0,0,,,-0.0011138914023831603,-0.030151352286338806,0,0,0,,0.0,0,0,0
20260628T141855Z_mpc_da8c7f28,mpc,RouteScenario_1_rep0,0,0,Town12,11937657,2.650000039488077,mpc,mpc,43.97099296329543,mpc_ok,0,follow_lane,clear,5.846699902335519,21.04811964840787,5.555555555555555,20.0,-0.2911443467799639,0.0008999999845400453,0.0,0.30000001192092896,1207.2010498046875,-82.5391616821289,343.0375061035156,-0.0895690843462944,0.5841109156608582,0.00177078100387007,5.8465189933776855,-0.005644457880407572,0.047382887452840805,-2.4631690979003906,0.0002773664891719818,-0.021547898650169373,-2.4632580941558913,-0.0035733542663630444,-3.278564929962158,94,1,1,,,,,0,14.365964889526367,9.365964889526367,5.600530775383777,7.336709695866011,7.029255193660356,2.4379374757441195,-5.892671585083008,3,0.052274126559495926,-0.003382913302630186,14.365882873535156,-0.048598721623420715,0.048598721623420715,0,11.255507469177246,,,,,none,0,0,,,-0.001144408975051192,-0.0579528734087944,0,0,0,,0.0,0,0,0
20260628T141855Z_mpc_da8c7f28,mpc,RouteScenario_1_rep0,0,0,Town12,11937658,2.7000000402331352,mpc,mpc,36.71160899102688,mpc_ok,0,follow_lane,clear,5.707708568533009,20.547750846718834,5.555555555555555,20.0,-0.15215301297745398,0.0008999999845400453,0.0,0.30000001192092896,1207.4884033203125,-82.5395278930664,343.0401611328125,-0.049896229058504105,0.49871307611465454,0.000434096553362906,5.707526683807373,-0.004334020894020796,0.045551374554634094,-2.77984619140625,0.02620873972773552,-0.036630257964134216,-2.780081472944668,0.02378798611347855,3.5022032260894775,94,1,1,,,,,0,12.736143112182617,7.736143112182617,5.481719840826973,7.1420015748023715,5.594141537380246,2.2102023567324562,-5.762433052062988,4,0.04250521957874298,0.04212002456188202,12.724846839904785,0.5362880229949951,0.5362880229949951,0,10.424782752990723,,,,,none,0,0,,,-0.0013504025905604067,-0.018280018121004105,0,0,0,,0.0,0,0,0
20260628T141855Z_mpc_da8c7f28,mpc,RouteScenario_1_rep0,0,0,Town12,11937659,2.7500000409781933,mpc,mpc,39.724915055558085,mpc_ok,0,follow_lane,clear,5.5760047569534485,20.073617125032417,5.555555555555555,20.0,-0.02044920139789319,0.0008999999845400453,0.0,0.09813862293958664,1207.768798828125,-82.5396499633789,343.0425720214844,-0.0762023851275444,0.42128604650497437,-0.0007934569730423391,5.57582426071167,-0.004450732842087746,0.044912852346897125,-2.6340484619140625,-0.002334238961338997,-0.01277044415473938,-2.634065621829037,-0.005837382942735558,-3.2617857456207275,94,1,1,,,,,0,12.726811408996582,7.726811408996582,5.3477179959665735,6.922857857337684,5.803953551658898,2.267488273271078,-5.612735271453857,4,0.06447379291057587,-0.05552645027637482,12.707197189331055,-0.7063115835189819,0.7063115835189819,0,10.395764350891113,,,,,none,0,0,,,-0.0013198850178923749,-0.0445861741900444,0,0,0,,0.0,0,0,0
20260628T141855Z_mpc_da8c7f28,mpc,RouteScenario_1_rep0,0,0,Town12,11937660,2.8000000417232513,mpc,mpc,38.74357300810516,mpc_ok,0,follow_lane,clear,5.5232575643831305,19.88372723177927,5.555555555555555,20.0,0.03229799117242482,0.00019999999494757503,0.08903719484806061,0.0,1208.04541015625,-82.53997039794922,343.044921875,-0.032501220703125,0.3728395104408264,-0.001190185546875,5.523097991943359,-0.0029394146986305714,0.04237287491559982,-1.054525375366211,0.030226362869143486,-0.050799548625946045,-1.0548505834501456,0.029627261803602235,3.575305938720703,94,1,1,,,,,0,15.610271453857422,10.610271453857422,5.240883768602861,6.748512014122899,8.861759439734524,2.8428132092192038,-5.491135120391846,3,0.11658968776464462,0.13810989260673523,15.461629867553711,2.149085521697998,2.149085521697998,0,12.214516639709473,,,,,none,0,0,,,-0.0014877316675665497,-0.000885009765625,0,0,0,,0.0,0,0,0
20260628T141855Z_mpc_da8c7f28,mpc,RouteScenario_1_rep0,0,0,Town12,11937661,2.8500000424683094,mpc,mpc,27.88849000353366,mpc_ok,0,follow_lane,clear,5.424610676627097,19.52859843585755,5.555555555555555,20.0,0.1309448789284584,0.00019999999494757503,0.445346862077713,0.0,1208.320068359375,-82.54008483886719,343.0470275878906,-0.044403076171875,0.3492412269115448,-0.001708984375,5.42446756362915,-0.002631905721500516,0.03994380682706833,-1.9726085662841797,0.0061501795426011086,-0.04858136177062988,-1.9728721821242958,0.0046203554265831105,-1.6531003713607788,94,1,1,,,,,0,13.027152061462402,8.027152061462402,5.209713759337819,6.697709074733757,6.329442986728646,2.3879965924619846,-5.455264091491699,3,0.11164339631795883,0.102717824280262,12.958488464355469,1.3357688188552856,1.3357688188552856,0,12.119298934936523,,,,,none,0,0,,,-0.00144958470173151,-0.012786865234375,0,0,0,,0.0,0,0,0
20260628T141855Z_mpc_da8c7f28,mpc,RouteScenario_1_rep0,0,0,Town12,11937662,2.9000000432133675,mpc,mpc,40.222238982096314,mpc_ok,0,follow_lane,clear,5.089081007578099,18.320691627281157,5.555555555555555,20.0,0.46647454797745613,-0.0003000000142492354,0.75,0.0,1208.5792236328125,-82.54035949707031,343.0492248535156,0.008868219330906868,0.27463504672050476,-0.00225830078125,5.088963508605957,-0.0007555262418463826,0.03674690052866936,-6.710081100463867,0.03752759099006653,-0.06393812596797943,-6.710304573841679,0.03856492248287642,4.246088981628418,94,1,1,,,,,0,12.942258834838867,7.942258834838867,4.989395562373102,6.339498279243708,6.602760555595159,2.4906441235890386,-5.19635009765625,1,0.03684386610984802,0.03684386610984802,12.933475494384766,0.47673499584198,0.47673499584198,0,10.013630867004395,,,,,none,0,0,,,-0.001579284385570645,0.04048443026840687,0,0,0,,0.0,0,0,0
20260628T141855Z_mpc_da8c7f28,mpc,RouteScenario_1_rep0,0,0,Town12,11937663,2.9500000439584255,mpc,mpc,32.70981798414141,mpc_ok,0,follow_lane,clear,4.856834536849238,17.48460433265726,5.555555555555555,20.0,0.6987210187063173,-0.0005000000237487257,0.75,0.0,1208.8267822265625,-82.54045867919922,343.0511169433594,0.004859702195972204,0.2096799612045288,-0.0010986326960846782,4.856754302978516,-0.0015951258828863502,0.030852889642119408,-4.644184112548828,-0.016791991889476776,-0.11788021773099899,-4.644585927687049,-0.01640001682942291,0.5853859782218933,94,1,1,,,,,0,12.482353210449219,7.482353210449219,4.791318107436911,6.01886804896921,6.463485161480008,2.5191955747817065,-4.954896450042725,3,0.057251181453466415,0.047778815031051636,12.468108177185059,0.5961651802062988,0.5961651802062988,0,9.9956636428833,,,,,none,0,0,,,-0.0015411374197356054,0.036475913133472204,0,0,0,,0.0,0,0,0
20260628T141855Z_mpc_da8c7f28,mpc,RouteScenario_1_rep0,0,0,Town12,11937664,3.0000000447034836,mpc,mpc,39.79279100894928,mpc_ok,0,follow_lane,clear,4.69224173809607,16.89207025714585,5.555555555555555,20.0,0.8633138174594857,-0.0019000000320374966,0.75,0.0,1209.0633544921875,-82.54056549072266,343.0528869628906,0.015447674319148064,0.161049023270607,-0.0013122557429596782,4.692172050476074,-0.0009882443118840456,0.03154245391488075,-3.291645050048828,0.012137630954384804,0.013791285455226898,-3.291589867395126,0.013025627519466657,0.07012020796537399,94,1,1,,,,,0,16.78573226928711,11.78573226928711,4.60254599985366,5.714697125768751,11.071035143518358,3.559126229248804,-4.716250896453857,3,0.12409623712301254,0.16291038691997528,16.563480377197266,2.7224903106689453,2.7224903106689453,0,10.203569412231445,,,,,none,0,0,,,-0.0015182492402345815,0.047063885256648064,0,0,0,,0.0,0,0,0
20260628T141855Z_mpc_da8c7f28,mpc,RouteScenario_1_rep0,0,0,Town12,11937665,3.0500000454485416,mpc,mpc,39.17091398034245,mpc_ok,0,follow_lane,clear,4.681552322852031,16.853588362267313,5.555555555555555,20.0,0.8740032327035241,-0.000699999975040555,0.75,0.0,1209.297119140625,-82.54069519042969,343.0544738769531,0.011271622031927109,0.1546013206243515,4.082767554791644e-05,4.681479454040527,-0.003369291080161929,0.033600710332393646,-0.2138519287109375,-0.04762093722820282,0.041165128350257874,-0.21374944364116266,-0.04757889654094635,-0.13643604516983032,94,1,1,,,,,0,11.715468406677246,6.715468406677246,4.55875719736481,5.644351147710632,6.0711172589666145,2.514264434591012,-4.659600734710693,3,0.04228845611214638,0.044327087700366974,11.703960418701172,0.5191425681114197,0.5191425681114197,0,10.168184280395508,,,,,none,0,0,,,-0.0015182492402345815,0.04288783296942711,0,0,0,,0.0,0,0,0
20260628T141855Z_mpc_da8c7f28,mpc,RouteScenario_1_rep0,0,0,Town12,11937666,3.1000000461935997,mpc,mpc,38.54642197256908,mpc_ok,0,follow_lane,clear,4.7604579831489655,17.137648739336278,5.555555555555555,20.0,0.7950975724065898,-0.000699999975040555,0.75,0.0,1209.53369140625,-82.54077911376953,343.05609130859375,0.005999015644192696,0.19001585245132446,-9.155274165095761e-05,4.760371685028076,-0.001872896566055715,0.03398231416940689,1.5778446197509766,0.029927890747785568,0.007632076740264893,1.5778644119389738,0.029762690194503776,-0.09053787589073181,94,1,1,,,,,0,12.003052711486816,7.003052711486816,4.588791527900543,5.692591866857078,6.3104608446297386,2.5546502701783287,-4.698511123657227,5,0.035904914140701294,-0.04057716205716133,11.993172645568848,-0.4869161546230316,0.4869161546230316,0,10.394912719726562,,,,,none,0,0,,,-0.0014724728812325338,0.037615226581692696,0,0,0,,0.0,0,0,0
20260628T141855Z_mpc_da8c7f28,mpc,RouteScenario_1_rep0,0,0,Town12,11937667,3.1500000469386578,mpc,mpc,37.852339970413595,mpc_ok,0,follow_lane,clear,4.889744570235249,17.603080452846896,5.555555555555555,20.0,0.6658109853203067,-0.000699999975040555,0.75,0.0,1209.7760009765625,-82.54085540771484,343.0576171875,0.0019424856873229146,0.25270333886146545,-0.0006103514460846782,4.889636039733887,-0.0019868367817252874,0.03540616109967232,2.585287094116211,-0.002278804313391447,0.028476938605308533,2.5853874966322232,-0.002366270828957994,-0.07880077511072159,94,1,1,,,,,0,12.268033027648926,7.268033027648926,4.666379175929777,5.817390252511702,6.450642775137224,2.5569379392264446,-4.797939300537109,3,0.07465123385190964,-0.04116794094443321,12.257638931274414,-0.5049070119857788,0.5049070119857788,0,10.631834030151367,,,,,none,0,0,,,-0.0014190671290634782,0.033558696624822915,0,0,0,,0.0,0,0,0
20260628T141855Z_mpc_da8c7f28,mpc,RouteScenario_1_rep0,0,0,Town12,11937668,3.200000047683716,mpc,mpc,38.08131895493716,mpc_ok,0,follow_lane,clear,5.047565863867039,18.17123710992134,5.555555555555555,20.0,0.5079896916885165,-0.000699999975040555,0.75,0.0,1210.02587890625,-82.54094696044922,343.0591735839844,-0.0019836421124637127,0.3305811285972595,-0.00030517575214616954,5.047406196594238,-0.0021125352941453457,0.04222239553928375,3.1554031372070312,-0.002513970248401165,0.1363246887922287,3.15613730299778,-0.0024040976295908066,-0.07841724157333374,94,1,1,,,,,0,13.663896560668945,8.663896560668945,4.7880604538484475,6.013606953108683,7.650289607560262,2.759908416779932,-4.9508514404296875,3,0.05719909071922302,-0.04344947636127472,13.6510009765625,-0.593502402305603,0.593502402305603,0,10.85207748413086,,,,,none,0,0,,,-0.0013656613768944226,0.029632568825036287,0,0,0,,0.0,0,0,0
20260628T141855Z_mpc_da8c7f28,mpc,RouteScenario_1_rep0,0,0,Town12,11937669,3.250000048428774,mpc,mpc,25.577874039299786,mpc_ok,0,follow_lane,clear,5.216368399859538,18.778926239494336,5.555555555555555,20.0,0.33918715569601776,-0.000699999975040555,0.75,0.0,1210.2843017578125,-82.54103088378906,343.0608825683594,-0.006195068359375,0.4142099618911743,0.0006680129445157945,5.216213703155518,-0.002371419919654727,0.04022236913442612,3.376150131225586,-0.005177692510187626,-0.04000052809715271,3.375773376042347,-0.00481189759604749,-0.11643201112747192,94,1,1,,,,,0,12.46561050415039,7.465610504150391,4.924481145528477,6.2342649748605705,6.23134552928982,2.435559495836572,-5.118171215057373,2,0.031778186559677124,0.030535360798239708,12.459799766540527,0.3805827796459198,0.3805827796459198,0,10.357259750366211,,,,,none,0,0,,,-0.001312255624725367,0.025421142578125,0,0,0,,0.0,0,0,0
